{
    "AR": [
        {
            "name": "Salta",
            "region": "A",
            "country": "AR",
            "latitude": "-24.78835",
            "longitude": "-65.41266",
            "slug": "salta"
        },
        {
            "name": "Buenos Aires",
            "region": "BA",
            "country": "AR",
            "latitude": "-34.61178",
            "longitude": "-58.41731",
            "slug": "buenos-aires"
        },
        {
            "name": "La Matanza",
            "region": "BA",
            "country": "AR",
            "latitude": "-34.76118",
            "longitude": "-58.63119",
            "slug": "la-matanza"
        },
        {
            "name": "La Plata",
            "region": "BA",
            "country": "AR",
            "latitude": "-34.92049",
            "longitude": "-57.95356",
            "slug": "la-plata"
        },
        {
            "name": "Mar del Plata",
            "region": "BA",
            "country": "AR",
            "latitude": "-38.00547",
            "longitude": "-57.54261",
            "slug": "mar-del-plata"
        },
        {
            "name": "Merlo",
            "region": "BA",
            "country": "AR",
            "latitude": "-34.66408",
            "longitude": "-58.70031",
            "slug": "merlo"
        },
        {
            "name": "C\u00f3rdoba",
            "region": "CB",
            "country": "AR",
            "latitude": "-31.41350",
            "longitude": "-64.18105",
            "slug": "cordoba"
        },
        {
            "name": "Santiago del Estero",
            "region": "G",
            "country": "AR",
            "latitude": "-27.79511",
            "longitude": "-64.26149",
            "slug": "santiago-del-estero"
        },
        {
            "name": "San Salvador de Jujuy",
            "region": "J",
            "country": "AR",
            "latitude": "-24.18571",
            "longitude": "-65.29926",
            "slug": "san-salvador-de-jujuy"
        },
        {
            "name": "Mendoza",
            "region": "MZA",
            "country": "AR",
            "latitude": "-32.89084",
            "longitude": "-68.82717",
            "slug": "mendoza"
        },
        {
            "name": "Posadas",
            "region": "N",
            "country": "AR",
            "latitude": "-27.36214",
            "longitude": "-55.90088",
            "slug": "posadas"
        },
        {
            "name": "Rosario",
            "region": "SF",
            "country": "AR",
            "latitude": "-32.95113",
            "longitude": "-60.62116",
            "slug": "rosario"
        },
        {
            "name": "San Juan",
            "region": "SJ",
            "country": "AR",
            "latitude": "-31.53750",
            "longitude": "-68.53639",
            "slug": "san-juan"
        },
        {
            "name": "San Miguel de Tucum\u00e1n",
            "region": "T",
            "country": "AR",
            "latitude": "-26.81590",
            "longitude": "-65.22362",
            "slug": "san-miguel-de-tucuman"
        },
        {
            "name": "Tucum\u00e1n",
            "region": "T",
            "country": "AR",
            "latitude": "-26.80828",
            "longitude": "-65.21759",
            "slug": "tucuman"
        },
        {
            "name": "Corrientes",
            "region": "W",
            "country": "AR",
            "latitude": "-27.46758",
            "longitude": "-58.83411",
            "slug": "corrientes"
        }
    ],
    "BR": [
        {
            "name": "Macei\u00f3",
            "country": "BR",
            "latitude": "-9.66599",
            "longitude": "-35.73521",
            "slug": "maceio",
            "region": "AL"
        },
        {
            "name": "Manaus",
            "country": "BR",
            "latitude": "-3.10194",
            "longitude": "-60.02500",
            "slug": "manaus",
            "region": "AM"
        },
        {
            "name": "Salvador",
            "country": "BR",
            "latitude": "-12.97143",
            "longitude": "-38.50134",
            "slug": "salvador",
            "region": "BA"
        },
        {
            "name": "Fortaleza",
            "country": "BR",
            "latitude": "-3.71722",
            "longitude": "-38.54333",
            "slug": "fortaleza",
            "region": "CE"
        },
        {
            "name": "Bras\u00edlia",
            "country": "BR",
            "latitude": "-15.78015",
            "longitude": "-47.92917",
            "slug": "brasilia",
            "region": "DF"
        },
        {
            "name": "Goi\u00e2nia",
            "country": "BR",
            "latitude": "-16.67992",
            "longitude": "-49.25504",
            "slug": "goiania",
            "region": "GO"
        },
        {
            "name": "S\u00e3o Lu\u00eds",
            "country": "BR",
            "latitude": "-2.53073",
            "longitude": "-44.30684",
            "slug": "sao-luis",
            "region": "MA"
        },
        {
            "name": "Belo Horizonte",
            "country": "BR",
            "latitude": "-19.92273",
            "longitude": "-43.94509",
            "slug": "belo-horizonte",
            "region": "MG"
        },
        {
            "name": "Uberl\u00e2ndia",
            "country": "BR",
            "latitude": "-18.91896",
            "longitude": "-48.27736",
            "slug": "uberlandia",
            "region": "MG"
        },
        {
            "name": "Campo Grande",
            "country": "BR",
            "latitude": "-20.44278",
            "longitude": "-54.64639",
            "slug": "campo-grande",
            "region": "MS"
        },
        {
            "name": "Bel\u00e9m",
            "country": "BR",
            "latitude": "-1.45583",
            "longitude": "-48.50444",
            "slug": "belem",
            "region": "PA"
        },
        {
            "name": "Jo\u00e3o Pessoa",
            "country": "BR",
            "latitude": "-7.11500",
            "longitude": "-34.86472",
            "slug": "joao-pessoa",
            "region": "PB"
        },
        {
            "name": "Jaboat\u00e3o dos Guararapes",
            "country": "BR",
            "latitude": "-8.11278",
            "longitude": "-35.01472",
            "slug": "jaboatao-dos-guararapes",
            "region": "PE"
        },
        {
            "name": "Recife",
            "country": "BR",
            "latitude": "-8.04756",
            "longitude": "-34.87704",
            "slug": "recife",
            "region": "PE"
        },
        {
            "name": "Teresina",
            "country": "BR",
            "latitude": "-5.08917",
            "longitude": "-42.80194",
            "slug": "teresina",
            "region": "PI"
        },
        {
            "name": "Curitiba",
            "country": "BR",
            "latitude": "-25.42836",
            "longitude": "-49.27326",
            "slug": "curitiba",
            "region": "PR"
        },
        {
            "name": "Duque de Caxias",
            "country": "BR",
            "latitude": "-22.78556",
            "longitude": "-43.31167",
            "slug": "duque-de-caxias",
            "region": "RJ"
        },
        {
            "name": "Rio de Janeiro",
            "country": "BR",
            "latitude": "-22.90833",
            "longitude": "-43.19639",
            "slug": "rio-de-janeiro",
            "region": "RJ"
        },
        {
            "name": "S\u00e3o Gon\u00e7alo",
            "country": "BR",
            "latitude": "-22.82639",
            "longitude": "-43.06361",
            "slug": "sao-goncalo",
            "region": "RJ"
        },
        {
            "name": "Natal",
            "country": "BR",
            "latitude": "-5.79447",
            "longitude": "-35.21100",
            "slug": "natal",
            "region": "RN"
        },
        {
            "name": "Porto Alegre",
            "country": "BR",
            "latitude": "-30.03306",
            "longitude": "-51.23000",
            "slug": "porto-alegre",
            "region": "RS"
        },
        {
            "name": "Campinas",
            "country": "BR",
            "latitude": "-22.90556",
            "longitude": "-47.06083",
            "slug": "campinas",
            "region": "SP"
        },
        {
            "name": "Ribeir\u00e3o Preto",
            "country": "BR",
            "latitude": "-21.16972",
            "longitude": "-47.80972",
            "slug": "ribeirao-preto",
            "region": "SP"
        },
        {
            "name": "Santo Andr\u00e9",
            "country": "BR",
            "latitude": "-23.66389",
            "longitude": "-46.53833",
            "slug": "santo-andre",
            "region": "SP"
        },
        {
            "name": "Sorocaba",
            "country": "BR",
            "latitude": "-23.50194",
            "longitude": "-47.45806",
            "slug": "sorocaba",
            "region": "SP"
        },
        {
            "name": "S\u00e3o Jos\u00e9 dos Campos",
            "country": "BR",
            "latitude": "-23.18961",
            "longitude": "-45.88410",
            "slug": "sao-jose-dos-campos",
            "region": "SP"
        },
        {
            "name": "S\u00e3o Paulo",
            "country": "BR",
            "latitude": "-23.55052",
            "longitude": "-46.63331",
            "slug": "sao-paulo",
            "region": "SP"
        }
    ],
    "CH": [
        {
            "name": "Antofagasta",
            "region": "AN",
            "country": "CL",
            "latitude": "-23.65236",
            "longitude": "-70.39540",
            "slug": "antofagasta"
        },
        {
            "name": "Arica",
            "region": "AP",
            "country": "CL",
            "latitude": "-18.47830",
            "longitude": "-70.31260",
            "slug": "arica"
        },
        {
            "name": "Temuco",
            "region": "AR",
            "country": "CL",
            "latitude": "-38.73590",
            "longitude": "-72.59034",
            "slug": "temuco"
        },
        {
            "name": "Copiap\u00f3",
            "region": "AT",
            "country": "CL",
            "latitude": "-27.36679",
            "longitude": "-70.33136",
            "slug": "copiapo"
        },
        {
            "name": "Concepci\u00f3n",
            "region": "BI",
            "country": "CL",
            "latitude": "-36.82708",
            "longitude": "-73.05017",
            "slug": "concepcion"
        },
        {
            "name": "Coquimbo",
            "region": "CO",
            "country": "CL",
            "latitude": "-29.95332",
            "longitude": "-71.33947",
            "slug": "coquimbo"
        },
        {
            "name": "La Serena",
            "region": "CO",
            "country": "CL",
            "latitude": "-29.90144",
            "longitude": "-71.24894",
            "slug": "la-serena"
        },
        {
            "name": "Rancagua",
            "region": "LI",
            "country": "CL",
            "latitude": "-34.17083",
            "longitude": "-70.74444",
            "slug": "rancagua"
        },
        {
            "name": "Osorno",
            "region": "LL",
            "country": "CL",
            "latitude": "-40.57355",
            "longitude": "-73.13316",
            "slug": "osorno"
        },
        {
            "name": "Valdivia",
            "region": "LL",
            "country": "CL",
            "latitude": "-39.81422",
            "longitude": "-73.24589",
            "slug": "valdivia"
        },
        {
            "name": "Punta Arenas",
            "region": "MA",
            "country": "CL",
            "latitude": "-53.15483",
            "longitude": "-70.91129",
            "slug": "punta-arenas"
        },
        {
            "name": "Talca",
            "region": "ML",
            "country": "CL",
            "latitude": "-35.42786",
            "longitude": "-71.64849",
            "slug": "talca"
        },
        {
            "name": "Santiago",
            "region": "RM",
            "country": "CL",
            "latitude": "-33.44889",
            "longitude": "-70.66927",
            "slug": "santiago"
        },
        {
            "name": "Iquique",
            "region": "TA",
            "country": "CL",
            "latitude": "-20.22083",
            "longitude": "-70.14306",
            "slug": "iquique"
        },
        {
            "name": "Valpara\u00edso",
            "region": "VS",
            "country": "CL",
            "latitude": "-33.04723",
            "longitude": "-71.61283",
            "slug": "valparaiso"
        }
    ],
    "CO": [
        {
            "name": "Leticia",
            "region": "AMZ",
            "country": "CO",
            "latitude": "-4.20417",
            "longitude": "-69.93472",
            "slug": "leticia"
        },
        {
            "name": "Bello",
            "region": "ANT",
            "country": "CO",
            "latitude": "6.33694",
            "longitude": "-75.56472",
            "slug": "bello"
        },
        {
            "name": "Envigado",
            "region": "ANT",
            "country": "CO",
            "latitude": "6.16944",
            "longitude": "-75.58278",
            "slug": "envigado"
        },
        {
            "name": "Medell\u00edn",
            "region": "ANT",
            "country": "CO",
            "latitude": "6.24420",
            "longitude": "-75.58118",
            "slug": "medellin"
        },
        {
            "name": "Arauca",
            "region": "ARA",
            "country": "CO",
            "latitude": "7.08472",
            "longitude": "-70.75556",
            "slug": "arauca"
        },
        {
            "name": "Arauquita",
            "region": "ARA",
            "country": "CO",
            "latitude": "7.03778",
            "longitude": "-70.76083",
            "slug": "arauquita"
        },
        {
            "name": "Barranquilla",
            "region": "ATL",
            "country": "CO",
            "latitude": "10.96389",
            "longitude": "-74.79666",
            "slug": "barranquilla"
        },
        {
            "name": "Soledad",
            "region": "ATL",
            "country": "CO",
            "latitude": "10.91890",
            "longitude": "-74.76493",
            "slug": "soledad"
        },
        {
            "name": "Cartagena",
            "region": "BOL",
            "country": "CO",
            "latitude": "10.39972",
            "longitude": "-75.51444",
            "slug": "cartagena"
        },
        {
            "name": "Magangu\u00e9",
            "region": "BOL",
            "country": "CO",
            "latitude": "9.23972",
            "longitude": "-74.75306",
            "slug": "magangue"
        },
        {
            "name": "Tunja",
            "region": "BOY",
            "country": "CO",
            "latitude": "5.53528",
            "longitude": "-73.36778",
            "slug": "tunja"
        },
        {
            "name": "Manizales",
            "region": "CAL",
            "country": "CO",
            "latitude": "5.06889",
            "longitude": "-75.51861",
            "slug": "manizales"
        },
        {
            "name": "Villamaria",
            "region": "CAL",
            "country": "CO",
            "latitude": "4.41306",
            "longitude": "-75.20694",
            "slug": "villamaria"
        },
        {
            "name": "Yopal",
            "region": "CAS",
            "country": "CO",
            "latitude": "5.33611",
            "longitude": "-72.39583",
            "slug": "yopal"
        },
        {
            "name": "Popay\u00e1n",
            "region": "CAU",
            "country": "CO",
            "latitude": "2.43861",
            "longitude": "-76.61694",
            "slug": "popayan"
        },
        {
            "name": "Santander de Quilichao",
            "region": "CAU",
            "country": "CO",
            "latitude": "3.01444",
            "longitude": "-76.48528",
            "slug": "santander-de-quilichao"
        },
        {
            "name": "Valledupar",
            "region": "CES",
            "country": "CO",
            "latitude": "10.46314",
            "longitude": "-73.25322",
            "slug": "valledupar"
        },
        {
            "name": "Quibd\u00f3",
            "region": "CHO",
            "country": "CO",
            "latitude": "5.69278",
            "longitude": "-76.65806",
            "slug": "quibdo"
        },
        {
            "name": "Monter\u00eda",
            "region": "COR",
            "country": "CO",
            "latitude": "8.74798",
            "longitude": "-75.88173",
            "slug": "monteria"
        },
        {
            "name": "Girardot",
            "region": "CUN",
            "country": "CO",
            "latitude": "4.30361",
            "longitude": "-74.80667",
            "slug": "girardot"
        },
        {
            "name": "Bogot\u00e1",
            "region": "DC",
            "country": "CO",
            "latitude": "4.60971",
            "longitude": "-74.08175",
            "slug": "bogota"
        },
        {
            "name": "Neiva",
            "region": "HUI",
            "country": "CO",
            "latitude": "2.92729",
            "longitude": "-75.28189",
            "slug": "neiva"
        },
        {
            "name": "Santa Marta",
            "region": "MAG",
            "country": "CO",
            "latitude": "11.24722",
            "longitude": "-74.20056",
            "slug": "santa-marta"
        },
        {
            "name": "Villavicencio",
            "region": "MET",
            "country": "CO",
            "latitude": "4.13489",
            "longitude": "-73.62692",
            "slug": "villavicencio"
        },
        {
            "name": "Pasto",
            "region": "NAR",
            "country": "CO",
            "latitude": "1.21361",
            "longitude": "-77.28111",
            "slug": "pasto"
        },
        {
            "name": "Tumaco",
            "region": "NAR",
            "country": "CO",
            "latitude": "1.79861",
            "longitude": "-78.98306",
            "slug": "tumaco"
        },
        {
            "name": "T\u00faquerres",
            "region": "NAR",
            "country": "CO",
            "latitude": "1.08611",
            "longitude": "-77.62667",
            "slug": "tuquerres"
        },
        {
            "name": "C\u00facuta",
            "region": "NDS",
            "country": "CO",
            "latitude": "7.89389",
            "longitude": "-72.50777",
            "slug": "cucuta"
        },
        {
            "name": "Oca\u00f1a",
            "region": "NDS",
            "country": "CO",
            "latitude": "8.23806",
            "longitude": "-73.35611",
            "slug": "ocana"
        },
        {
            "name": "Oca\u00f1a",
            "region": "NDS",
            "country": "CO",
            "latitude": "8.23806",
            "longitude": "-73.35611",
            "slug": "ocana-co"
        },
        {
            "name": "Mocoa",
            "region": "PUT",
            "country": "CO",
            "latitude": "1.14917",
            "longitude": "-76.63111",
            "slug": "mocoa"
        },
        {
            "name": "Mocoa",
            "region": "PUT",
            "country": "CO",
            "latitude": "1.14917",
            "longitude": "-76.63111",
            "slug": "mocoa-co"
        },
        {
            "name": "Armenia",
            "region": "QUI",
            "country": "CO",
            "latitude": "4.53444",
            "longitude": "-75.67583",
            "slug": "armenia"
        },
        {
            "name": "Pereira",
            "region": "RIS",
            "country": "CO",
            "latitude": "4.81333",
            "longitude": "-75.69611",
            "slug": "pereira"
        },
        {
            "name": "Bucaramanga",
            "region": "SAN",
            "country": "CO",
            "latitude": "7.12539",
            "longitude": "-73.11980",
            "slug": "bucaramanga"
        },
        {
            "name": "Floridablanca",
            "region": "SAN",
            "country": "CO",
            "latitude": "7.06722",
            "longitude": "-73.08694",
            "slug": "floridablanca"
        },
        {
            "name": "Piedecuesta",
            "region": "SAN",
            "country": "CO",
            "latitude": "6.99806",
            "longitude": "-73.04833",
            "slug": "piedecuesta"
        },
        {
            "name": "Sincelejo",
            "region": "SUC",
            "country": "CO",
            "latitude": "9.30472",
            "longitude": "-75.39778",
            "slug": "sincelejo"
        },
        {
            "name": "Espinal",
            "region": "TOL",
            "country": "CO",
            "latitude": "4.15444",
            "longitude": "-74.88722",
            "slug": "espinal"
        },
        {
            "name": "Ibagu\u00e9",
            "region": "TOL",
            "country": "CO",
            "latitude": "4.43889",
            "longitude": "-75.23222",
            "slug": "ibague"
        },
        {
            "name": "Cali",
            "region": "VCA",
            "country": "CO",
            "latitude": "3.43722",
            "longitude": "-76.52250",
            "slug": "cali"
        },
        {
            "name": "Palmira",
            "region": "VCA",
            "country": "CO",
            "latitude": "3.53722",
            "longitude": "-76.30333",
            "slug": "palmira"
        },
        {
            "name": "Tulu\u00e1",
            "region": "VCA",
            "country": "CO",
            "latitude": "4.08667",
            "longitude": "-76.19528",
            "slug": "tulua"
        },
        {
            "name": "Riohacha",
            "region": "LAG",
            "country": "CO",
            "latitude": "11.544167",
            "longitude": "-72.906944",
            "slug": "riohacha"
        },
        {
            "name": "Puerto Colombia",
            "region": "ATL",
            "country": "CO",
            "latitude": "11.001298836795726",
            "longitude": "-74.95172888091874",
            "slug": "puerto-colombia"
        }
    ],
    "DO": [
        {
            "name": "La Romana",
            "region": "LRO",
            "country": "DO",
            "latitude": "18.42734",
            "longitude": "-68.97202",
            "slug": "la-romana"
        },
        {
            "name": "Santo Domingo",
            "region": "NAC",
            "country": "DO",
            "latitude": "18.48606",
            "longitude": "-69.93121",
            "slug": "santo-domingo"
        },
        {
            "name": "Santo Domingo Oeste",
            "region": "SDO",
            "country": "DO",
            "latitude": "18.49640",
            "longitude": "-70.01030",
            "slug": "santo-domingo-oeste"
        },
        {
            "name": "San Pedro de Macor\u00eds",
            "region": "SPM",
            "country": "DO",
            "latitude": "18.46162",
            "longitude": "-69.29723",
            "slug": "san-pedro-de-macoris"
        },
        {
            "name": "Santiago de los Caballeros",
            "region": "STI",
            "country": "DO",
            "latitude": "19.45108",
            "longitude": "-70.69219",
            "slug": "santiago-de-los-caballeros"
        }
    ],
    "EC": [
        {
            "name": "Cuenca",
            "region": "AZU",
            "country": "EC",
            "latitude": "-2.90013",
            "longitude": "-79.00590",
            "slug": "cuenca"
        },
        {
            "name": "Riobamba",
            "region": "CHI",
            "country": "EC",
            "latitude": "-1.66239",
            "longitude": "-78.64709",
            "slug": "riobamba"
        },
        {
            "name": "Machala",
            "region": "EOR",
            "country": "EC",
            "latitude": "-3.26310",
            "longitude": "-79.95539",
            "slug": "machala"
        },
        {
            "name": "Esmeraldas",
            "region": "ESM",
            "country": "EC",
            "latitude": "0.96313",
            "longitude": "-79.65382",
            "slug": "esmeraldas"
        },
        {
            "name": "Guayaquil",
            "region": "GYE",
            "country": "EC",
            "latitude": "-2.20382",
            "longitude": "-79.89745",
            "slug": "guayaquil"
        },
        {
            "name": "Loja",
            "region": "LOJ",
            "country": "EC",
            "latitude": "-3.99562",
            "longitude": "-79.20496",
            "slug": "loja"
        },
        {
            "name": "Portoviejo",
            "region": "MAN",
            "country": "EC",
            "latitude": "-1.05602",
            "longitude": "-80.64820",
            "slug": "portoviejo"
        },
        {
            "name": "Quito",
            "region": "PCH",
            "country": "EC",
            "latitude": "-0.22985",
            "longitude": "-78.52495",
            "slug": "quito"
        },
        {
            "name": "Santo Domingo",
            "region": "SDT",
            "country": "EC",
            "latitude": "-0.24101",
            "longitude": "-79.18747",
            "slug": "santo-domingo-ec"
        },
        {
            "name": "Ambato",
            "region": "TUN",
            "country": "EC",
            "latitude": "-1.24908",
            "longitude": "-78.61675",
            "slug": "ambato"
        }
    ],
    "ES": [
        {
            "name": "C\u00f3rdoba",
            "region": "AND",
            "country": "ES",
            "latitude": 37.88818,
            "longitude": -4.77938,
            "slug": "cordoba-es"
        },
        {
            "name": "Granada",
            "region": "AND",
            "country": "ES",
            "latitude": 37.18817,
            "longitude": -3.60667,
            "slug": "granada"
        },
        {
            "name": "Ja\u00e9n",
            "region": "AND",
            "country": "ES",
            "latitude": 37.77398,
            "longitude": -3.79032,
            "slug": "jaen"
        },
        {
            "name": "M\u00e1laga",
            "region": "AND",
            "country": "ES",
            "latitude": 36.7213,
            "longitude": -4.42112,
            "slug": "malaga"
        },
        {
            "name": "Seville",
            "region": "AND",
            "country": "ES",
            "latitude": 37.38909,
            "longitude": -5.98446,
            "slug": "seville"
        },
        {
            "name": "Zaragoza",
            "region": "ARA",
            "country": "ES",
            "latitude": 41.64882,
            "longitude": -0.88909,
            "slug": "zaragoza"
        },
        {
            "name": "Gij\u00f3n",
            "region": "AST",
            "country": "ES",
            "latitude": 43.54526,
            "longitude": -5.66193,
            "slug": "gijon"
        },
        {
            "name": "Oviedo",
            "region": "AST",
            "country": "ES",
            "latitude": 43.36235,
            "longitude": -5.8519,
            "slug": "oviedo"
        },
        {
            "name": "Palma de Mallorca",
            "region": "BAL",
            "country": "ES",
            "latitude": 39.56956,
            "longitude": 2.65016,
            "slug": "palma-de-mallorca"
        },
        {
            "name": "Bilbao",
            "region": "BAS",
            "country": "ES",
            "latitude": 43.26301,
            "longitude": -2.93542,
            "slug": "bilbao"
        },
        {
            "name": "Vitoria-Gasteiz",
            "region": "BAS",
            "country": "ES",
            "latitude": 42.85913,
            "longitude": -2.68162,
            "slug": "vitoria-gasteiz"
        },
        {
            "name": "Valladolid",
            "region": "CAL",
            "country": "ES",
            "latitude": 41.65295,
            "longitude": -4.72838,
            "slug": "valladolid"
        },
        {
            "name": "Las Palmas de Gran Canaria",
            "region": "CAN",
            "country": "ES",
            "latitude": 28.12482,
            "longitude": -15.43001,
            "slug": "las-palmas-de-gran-canaria"
        },
        {
            "name": "Santa Cruz de Tenerife",
            "region": "CAN",
            "country": "ES",
            "latitude": 28.46363,
            "longitude": -16.25185,
            "slug": "santa-cruz-de-tenerife"
        },
        {
            "name": "Badalona",
            "region": "CAT",
            "country": "ES",
            "latitude": 41.45004,
            "longitude": 2.24741,
            "slug": "badalona"
        },
        {
            "name": "Barcelona",
            "region": "CAT",
            "country": "ES",
            "latitude": 41.38506,
            "longitude": 2.1734,
            "slug": "barcelona"
        },
        {
            "name": "Hospitalet de Llobregat",
            "region": "CAT",
            "country": "ES",
            "latitude": 41.3595,
            "longitude": 2.10028,
            "slug": "hospitalet-de-llobregat"
        },
        {
            "name": "Sabadell",
            "region": "CAT",
            "country": "ES",
            "latitude": 41.54033,
            "longitude": 2.1095,
            "slug": "sabadell"
        },
        {
            "name": "Tarragona",
            "region": "CAT",
            "country": "ES",
            "latitude": 41.11888,
            "longitude": 1.24449,
            "slug": "tarragona"
        },
        {
            "name": "Terrassa",
            "region": "CAT",
            "country": "ES",
            "latitude": 41.56315,
            "longitude": 2.00823,
            "slug": "terrassa"
        },
        {
            "name": "A Coru\u00f1a",
            "region": "GAL",
            "country": "ES",
            "latitude": 43.36235,
            "longitude": -8.41154,
            "slug": "a-coruna"
        },
        {
            "name": "Vigo",
            "region": "GAL",
            "country": "ES",
            "latitude": 42.2406,
            "longitude": -8.72072,
            "slug": "vigo"
        },
        {
            "name": "Alcal\u00e1 de Henares",
            "region": "MAD",
            "country": "ES",
            "latitude": 40.48198,
            "longitude": -3.36369,
            "slug": "alcala-de-henares"
        },
        {
            "name": "Madrid",
            "region": "MAD",
            "country": "ES",
            "latitude": 40.41678,
            "longitude": -3.70379,
            "slug": "madrid"
        },
        {
            "name": "M\u00f3stoles",
            "region": "MAD",
            "country": "ES",
            "latitude": 40.32234,
            "longitude": -3.86496,
            "slug": "mostoles"
        },
        {
            "name": "Murcia",
            "region": "MUR",
            "country": "ES",
            "latitude": 37.98381,
            "longitude": -1.12968,
            "slug": "murcia"
        },
        {
            "name": "Alicante",
            "region": "VAL",
            "country": "ES",
            "latitude": 38.34517,
            "longitude": -0.48149,
            "slug": "alicante"
        },
        {
            "name": "Elche",
            "region": "VAL",
            "country": "ES",
            "latitude": 38.26993,
            "longitude": -0.71256,
            "slug": "elche"
        },
        {
            "name": "Valencia",
            "region": "VAL",
            "country": "ES",
            "latitude": 39.46975,
            "longitude": -0.37739,
            "slug": "valencia"
        }
    ],
    "MX": [
        {
            "name": "Aguascalientes",
            "country": "MX",
            "latitude": "21.88091",
            "longitude": "-102.29579",
            "slug": "aguascalientes",
            "region": "AGU"
        },
        {
            "name": "Mexicali",
            "country": "MX",
            "latitude": "32.62781",
            "longitude": "-115.45446",
            "slug": "mexicali",
            "region": "BCN"
        },
        {
            "name": "Tijuana",
            "country": "MX",
            "latitude": "32.51495",
            "longitude": "-117.03825",
            "slug": "tijuana",
            "region": "BCN"
        },
        {
            "name": "Chihuahua",
            "country": "MX",
            "latitude": "28.63528",
            "longitude": "-106.08889",
            "slug": "chihuahua",
            "region": "CHH"
        },
        {
            "name": "Ciudad Ju\u00e1rez",
            "country": "MX",
            "latitude": "31.73416",
            "longitude": "-106.46031",
            "slug": "ciudad-juarez",
            "region": "CHH"
        },
        {
            "name": "Mexico City",
            "country": "MX",
            "latitude": "19.43261",
            "longitude": "-99.13321",
            "slug": "mexico-city",
            "region": "CMX"
        },
        {
            "name": "Saltillo",
            "country": "MX",
            "latitude": "25.43880",
            "longitude": "-100.97367",
            "slug": "saltillo",
            "region": "COA"
        },
        {
            "name": "Torre\u00f3n",
            "country": "MX",
            "latitude": "25.54276",
            "longitude": "-103.40673",
            "slug": "torreon",
            "region": "COA"
        },
        {
            "name": "Durango",
            "country": "MX",
            "latitude": "24.02772",
            "longitude": "-104.65317",
            "slug": "durango",
            "region": "DUR"
        },
        {
            "name": "Le\u00f3n",
            "country": "MX",
            "latitude": "21.12222",
            "longitude": "-101.67278",
            "slug": "leon",
            "region": "GUA"
        },
        {
            "name": "Guadalajara",
            "country": "MX",
            "latitude": "20.65970",
            "longitude": "-103.34961",
            "slug": "guadalajara",
            "region": "JAL"
        },
        {
            "name": "Zapopan",
            "country": "MX",
            "latitude": "20.72354",
            "longitude": "-103.38486",
            "slug": "zapopan",
            "region": "JAL"
        },
        {
            "name": "Ciudad L\u00f3pez Mateos",
            "country": "MX",
            "latitude": "19.55416",
            "longitude": "-99.26194",
            "slug": "ciudad-lopez-mateos",
            "region": "MEX"
        },
        {
            "name": "Naucalpan",
            "country": "MX",
            "latitude": "19.47940",
            "longitude": "-99.23308",
            "slug": "naucalpan",
            "region": "MEX"
        },
        {
            "name": "Tlalnepantla",
            "country": "MX",
            "latitude": "19.53778",
            "longitude": "-99.19222",
            "slug": "tlalnepantla",
            "region": "MEX"
        },
        {
            "name": "Toluca",
            "country": "MX",
            "latitude": "19.29278",
            "longitude": "-99.65616",
            "slug": "toluca",
            "region": "MEX"
        },
        {
            "name": "Cuernavaca",
            "country": "MX",
            "latitude": "18.92421",
            "longitude": "-99.22244",
            "slug": "cuernavaca",
            "region": "MOR"
        },
        {
            "name": "Morelia",
            "country": "MX",
            "latitude": "19.70078",
            "longitude": "-101.18443",
            "slug": "morelia",
            "region": "MOR"
        },
        {
            "name": "Guadalupe",
            "country": "MX",
            "latitude": "25.67694",
            "longitude": "-100.25306",
            "slug": "guadalupe",
            "region": "NLE"
        },
        {
            "name": "Monterrey",
            "country": "MX",
            "latitude": "25.67100",
            "longitude": "-100.30997",
            "slug": "monterrey",
            "region": "NLE"
        },
        {
            "name": "San Nicol\u00e1s de los Garza",
            "country": "MX",
            "latitude": "25.74923",
            "longitude": "-100.28949",
            "slug": "san-nicolas-de-los-garza",
            "region": "NLE"
        },
        {
            "name": "Puebla",
            "country": "MX",
            "latitude": "19.04144",
            "longitude": "-98.20627",
            "slug": "puebla",
            "region": "PUE"
        },
        {
            "name": "Quer\u00e9taro",
            "country": "MX",
            "latitude": "20.58806",
            "longitude": "-100.38917",
            "slug": "queretaro",
            "region": "QRO"
        },
        {
            "name": "Canc\u00fan",
            "country": "MX",
            "latitude": "21.17429",
            "longitude": "-86.84656",
            "slug": "cancun",
            "region": "ROO"
        },
        {
            "name": "San Luis Potos\u00ed",
            "country": "MX",
            "latitude": "22.14982",
            "longitude": "-100.97986",
            "slug": "san-luis-potosi",
            "region": "SLP"
        },
        {
            "name": "Hermosillo",
            "country": "MX",
            "latitude": "29.07297",
            "longitude": "-110.95592",
            "slug": "hermosillo",
            "region": "SON"
        },
        {
            "name": "Reynosa",
            "country": "MX",
            "latitude": "26.07950",
            "longitude": "-98.28835",
            "slug": "reynosa",
            "region": "TAM"
        },
        {
            "name": "Victoria",
            "country": "MX",
            "latitude": "23.73692",
            "longitude": "-99.14111",
            "slug": "victoria",
            "region": "TAM"
        },
        {
            "name": "Merida",
            "country": "MX",
            "latitude": "20.96759",
            "longitude": "-89.59277",
            "slug": "merida",
            "region": "YUC"
        }
    ],
    "PA": [
        {
            "name": "Arraijan",
            "region": "PA",
            "country": "PA",
            "latitude": "8.95000",
            "longitude": "-79.63333",
            "slug": "arraijan"
        },
        {
            "name": "David",
            "region": "PA",
            "country": "PA",
            "latitude": "8.43333",
            "longitude": "-82.43333",
            "slug": "david"
        },
        {
            "name": "Panama City",
            "region": "PA",
            "country": "PA",
            "latitude": "8.98238",
            "longitude": "-79.51987",
            "slug": "panama-city"
        },
        {
            "name": "San Miguelito",
            "region": "PA",
            "country": "PA",
            "latitude": "9.03333",
            "longitude": "-79.46667",
            "slug": "san-miguelito"
        },
        {
            "name": "Tocumen",
            "region": "PA",
            "country": "PA",
            "latitude": "9.08722",
            "longitude": "-79.38389",
            "slug": "tocumen"
        }
    ],
    "PE": [
        {
            "name": "Chimbote",
            "region": "ANC",
            "country": "PE",
            "latitude": "-9.08529",
            "longitude": "-78.57824",
            "slug": "chimbote"
        },
        {
            "name": "Huaraz",
            "region": "ANC",
            "country": "PE",
            "latitude": "-9.53078",
            "longitude": "-77.52689",
            "slug": "huaraz"
        },
        {
            "name": "Arequipa",
            "region": "ARE",
            "country": "PE",
            "latitude": "-16.40905",
            "longitude": "-71.53745",
            "slug": "arequipa"
        },
        {
            "name": "Arequipa",
            "region": "ARE",
            "country": "PE",
            "latitude": "-16.40905",
            "longitude": "-71.53745",
            "slug": "arequipa-pe"
        },
        {
            "name": "Ayacucho",
            "region": "AYA",
            "country": "PE",
            "latitude": "-13.15806",
            "longitude": "-74.22333",
            "slug": "ayacucho"
        },
        {
            "name": "Cajamarca",
            "region": "CAJ",
            "country": "PE",
            "latitude": "-7.16378",
            "longitude": "-78.48760",
            "slug": "cajamarca"
        },
        {
            "name": "Callao",
            "region": "CAL",
            "country": "PE",
            "latitude": "-12.06750",
            "longitude": "-77.15354",
            "slug": "callao"
        },
        {
            "name": "Ventanilla",
            "region": "CAL",
            "country": "PE",
            "latitude": "-11.86799",
            "longitude": "-77.13595",
            "slug": "ventanilla"
        },
        {
            "name": "Cusco",
            "region": "CUS",
            "country": "PE",
            "latitude": "-13.52264",
            "longitude": "-71.96734",
            "slug": "cusco"
        },
        {
            "name": "Huanuco",
            "region": "HUC",
            "country": "PE",
            "latitude": "-9.93289",
            "longitude": "-76.24286",
            "slug": "huanuco"
        },
        {
            "name": "Chincha Alta",
            "region": "ICA",
            "country": "PE",
            "latitude": "-13.41917",
            "longitude": "-76.12972",
            "slug": "chincha-alta"
        },
        {
            "name": "Chincha Alta",
            "region": "ICA",
            "country": "PE",
            "latitude": "-13.41917",
            "longitude": "-76.12972",
            "slug": "chincha-alta-pe"
        },
        {
            "name": "Ica",
            "region": "ICA",
            "country": "PE",
            "latitude": "-14.06782",
            "longitude": "-75.72892",
            "slug": "ica"
        },
        {
            "name": "Pisco",
            "region": "ICA",
            "country": "PE",
            "latitude": "-13.71222",
            "longitude": "-76.20361",
            "slug": "pisco"
        },
        {
            "name": "Huancayo",
            "region": "JUN",
            "country": "PE",
            "latitude": "-12.06515",
            "longitude": "-75.20486",
            "slug": "huancayo"
        },
        {
            "name": "Trujillo",
            "region": "LAL",
            "country": "PE",
            "latitude": "-8.10762",
            "longitude": "-79.02624",
            "slug": "trujillo"
        },
        {
            "name": "Chiclayo",
            "region": "LAM",
            "country": "PE",
            "latitude": "-6.77346",
            "longitude": "-79.84076",
            "slug": "chiclayo"
        },
        {
            "name": "Chancay",
            "region": "LIM",
            "country": "PE",
            "latitude": "-11.56354",
            "longitude": "-77.27194",
            "slug": "chancay"
        },
        {
            "name": "Huacho",
            "region": "LIM",
            "country": "PE",
            "latitude": "-11.11020",
            "longitude": "-77.61916",
            "slug": "huacho"
        },
        {
            "name": "Lima",
            "region": "LIM",
            "country": "PE",
            "latitude": "-12.04637",
            "longitude": "-77.04279",
            "slug": "lima"
        },
        {
            "name": "San Juan de Lurigancho",
            "region": "LMA",
            "country": "PE",
            "latitude": "-12.00000",
            "longitude": "-76.86667",
            "slug": "san-juan-de-lurigancho"
        },
        {
            "name": "Iquitos",
            "region": "LOR",
            "country": "PE",
            "latitude": "-3.74806",
            "longitude": "-73.24758",
            "slug": "iquitos"
        },
        {
            "name": "Cerro de Pasco",
            "region": "PAS",
            "country": "PE",
            "latitude": "-10.68864",
            "longitude": "-76.25984",
            "slug": "cerro-de-pasco"
        },
        {
            "name": "Piura",
            "region": "PIU",
            "country": "PE",
            "latitude": "-5.19449",
            "longitude": "-80.63282",
            "slug": "piura"
        },
        {
            "name": "Sullana",
            "region": "PIU",
            "country": "PE",
            "latitude": "-4.90389",
            "longitude": "-80.68583",
            "slug": "sullana"
        },
        {
            "name": "Talara",
            "region": "PIU",
            "country": "PE",
            "latitude": "-4.57722",
            "longitude": "-81.27194",
            "slug": "talara"
        },
        {
            "name": "Juliaca",
            "region": "PUN",
            "country": "PE",
            "latitude": "-15.50000",
            "longitude": "-70.13333",
            "slug": "juliaca"
        },
        {
            "name": "Puno",
            "region": "PUN",
            "country": "PE",
            "latitude": "-15.84022",
            "longitude": "-70.02188",
            "slug": "puno"
        },
        {
            "name": "Tacna",
            "region": "TAC",
            "country": "PE",
            "latitude": "-18.01108",
            "longitude": "-70.25442",
            "slug": "tacna"
        },
        {
            "name": "Pucallpa",
            "region": "UCY",
            "country": "PE",
            "latitude": "-8.37915",
            "longitude": "-74.55374",
            "slug": "pucallpa"
        }
    ],
    "PR": [
        {
            "name": "Bayam\u00f3n",
            "region": "PR",
            "country": "PR",
            "latitude": "18.39821",
            "longitude": "-66.15573",
            "slug": "bayamon"
        },
        {
            "name": "Caguas",
            "region": "PR",
            "country": "PR",
            "latitude": "18.23586",
            "longitude": "-66.04856",
            "slug": "caguas"
        },
        {
            "name": "Carolina",
            "region": "PR",
            "country": "PR",
            "latitude": "18.38078",
            "longitude": "-65.95739",
            "slug": "carolina"
        },
        {
            "name": "Ponce",
            "region": "PR",
            "country": "PR",
            "latitude": "17.96393",
            "longitude": "-66.94587",
            "slug": "ponce"
        },
        {
            "name": "San Juan",
            "region": "PR",
            "country": "PR",
            "latitude": "18.46633",
            "longitude": "-66.10572",
            "slug": "san-juan-pr"
        }
    ],
    "PY": [
        {
            "name": "Pedro Juan Caballero",
            "region": "AM",
            "country": "PY",
            "latitude": "-22.533333",
            "longitude": "-55.716667",
            "slug": "pedro-juan-caballero"
        },
        {
            "name": "Ciudad del Este",
            "region": "AP",
            "country": "PY",
            "latitude": "-25.516667",
            "longitude": "-54.616667",
            "slug": "ciudad-del-este"
        },
        {
            "name": "Asunci\u00f3n",
            "region": "CE",
            "country": "PY",
            "latitude": "-23.442503",
            "longitude": "-58.443832",
            "slug": "asuncion"
        },
        {
            "name": "Capiat\u00e1",
            "region": "CE",
            "country": "PY",
            "latitude": "-25.354167",
            "longitude": "-57.416667",
            "slug": "capiata"
        },
        {
            "name": "Fernando de la Mora",
            "region": "CE",
            "country": "PY",
            "latitude": "-25.366667",
            "longitude": "-57.599998",
            "slug": "fernando-de-la-mora"
        },
        {
            "name": "Lambar\u00e9",
            "region": "CE",
            "country": "PY",
            "latitude": "-27.380003",
            "longitude": "-58.620003",
            "slug": "lambare"
        },
        {
            "name": "Luque",
            "region": "CE",
            "country": "PY",
            "latitude": "-27.265556",
            "longitude": "-55.145833",
            "slug": "luque"
        },
        {
            "name": "San Lorenzo",
            "region": "CE",
            "country": "PY",
            "latitude": "-25.333333",
            "longitude": "-57.533333",
            "slug": "san-lorenzo"
        },
        {
            "name": "Villa Elisa",
            "region": "CE",
            "country": "PY",
            "latitude": "-25.366667",
            "longitude": "-57.566667",
            "slug": "villa-elisa"
        },
        {
            "name": "Encarnaci\u00f3n",
            "region": "IT",
            "country": "PY",
            "latitude": "-27.333333",
            "longitude": "-55.866667",
            "slug": "encarnacion"
        }
    ],
    "UR": [
        {
            "name": "Ciudad de la Costa",
            "region": "CA",
            "country": "UY",
            "latitude": "-34.80736",
            "longitude": "-55.51981",
            "slug": "ciudad-de-la-costa"
        },
        {
            "name": "Las Piedras",
            "region": "CA",
            "country": "UY",
            "latitude": "-34.72921",
            "longitude": "-56.21908",
            "slug": "las-piedras"
        },
        {
            "name": "Melo",
            "region": "CL",
            "country": "UY",
            "latitude": "-32.36505",
            "longitude": "-54.17922",
            "slug": "melo"
        },
        {
            "name": "Maldonado",
            "region": "MA",
            "country": "UY",
            "latitude": "-34.90815",
            "longitude": "-54.95871",
            "slug": "maldonado"
        },
        {
            "name": "Montevideo",
            "region": "MO",
            "country": "UY",
            "latitude": "-34.90328",
            "longitude": "-56.18816",
            "slug": "montevideo"
        },
        {
            "name": "Paysand\u00fa",
            "region": "PA",
            "country": "UY",
            "latitude": "-32.32147",
            "longitude": "-58.07558",
            "slug": "paysandu"
        },
        {
            "name": "Rivera",
            "region": "RI",
            "country": "UY",
            "latitude": "-30.90511",
            "longitude": "-55.55076",
            "slug": "rivera"
        },
        {
            "name": "Salto",
            "region": "SA",
            "country": "UY",
            "latitude": "-31.38373",
            "longitude": "-57.96176",
            "slug": "salto"
        },
        {
            "name": "Mercedes",
            "region": "SO",
            "country": "UY",
            "latitude": "-33.25353",
            "longitude": "-58.02897",
            "slug": "mercedes"
        },
        {
            "name": "Tacuaremb\u00f3",
            "region": "TA",
            "country": "UY",
            "latitude": "-31.72903",
            "longitude": "-55.98391",
            "slug": "tacuarembo"
        }
    ],
    "US": [
        {
            "name": "Birmingham",
            "region": "AL",
            "country": "US",
            "latitude": "33.5207",
            "longitude": "-86.8025",
            "slug": "birmingham"
        },
        {
            "name": "Phoenix",
            "region": "AZ",
            "country": "US",
            "latitude": "33.4484",
            "longitude": "-112.0740",
            "slug": "phoenix"
        },
        {
            "name": "Tucson",
            "region": "AZ",
            "country": "US",
            "latitude": "32.2226",
            "longitude": "-110.9747",
            "slug": "tucson"
        },
        {
            "name": "Anaheim",
            "region": "CA",
            "country": "US",
            "latitude": "33.8366",
            "longitude": "-117.9143",
            "slug": "anaheim"
        },
        {
            "name": "Bakersfield",
            "region": "CA",
            "country": "US",
            "latitude": "35.3733",
            "longitude": "-119.0187",
            "slug": "bakersfield"
        },
        {
            "name": "Chula Vista",
            "region": "CA",
            "country": "US",
            "latitude": "32.6401",
            "longitude": "-117.0842",
            "slug": "chula-vista"
        },
        {
            "name": "Fontana",
            "region": "CA",
            "country": "US",
            "latitude": "34.0922",
            "longitude": "-117.4350",
            "slug": "fontana"
        },
        {
            "name": "Fremont",
            "region": "CA",
            "country": "US",
            "latitude": "37.5485",
            "longitude": "-121.9886",
            "slug": "fremont"
        },
        {
            "name": "Fresno",
            "region": "CA",
            "country": "US",
            "latitude": "36.7372",
            "longitude": "-119.7871",
            "slug": "fresno"
        },
        {
            "name": "Irvine",
            "region": "CA",
            "country": "US",
            "latitude": "33.6846",
            "longitude": "-117.8265",
            "slug": "irvine"
        },
        {
            "name": "Long Beach",
            "region": "CA",
            "country": "US",
            "latitude": "33.7701",
            "longitude": "-118.1937",
            "slug": "long-beach"
        },
        {
            "name": "Los Angeles",
            "region": "CA",
            "country": "US",
            "latitude": "34.0522",
            "longitude": "-118.2437",
            "slug": "los-angeles"
        },
        {
            "name": "Modesto",
            "region": "CA",
            "country": "US",
            "latitude": "37.6391",
            "longitude": "-120.9969",
            "slug": "modesto"
        },
        {
            "name": "Oakland",
            "region": "CA",
            "country": "US",
            "latitude": "37.8049",
            "longitude": "-122.2711",
            "slug": "oakland"
        },
        {
            "name": "Riverside",
            "region": "CA",
            "country": "US",
            "latitude": "33.9533",
            "longitude": "-117.3961",
            "slug": "riverside"
        },
        {
            "name": "Sacramento",
            "region": "CA",
            "country": "US",
            "latitude": "38.5816",
            "longitude": "-121.4944",
            "slug": "sacramento"
        },
        {
            "name": "San Bernardino",
            "region": "CA",
            "country": "US",
            "latitude": "34.1083",
            "longitude": "-117.2898",
            "slug": "san-bernardino"
        },
        {
            "name": "San Diego",
            "region": "CA",
            "country": "US",
            "latitude": "32.7157",
            "longitude": "-117.1611",
            "slug": "san-diego"
        },
        {
            "name": "San Francisco",
            "region": "CA",
            "country": "US",
            "latitude": "37.7749",
            "longitude": "-122.4194",
            "slug": "san-francisco"
        },
        {
            "name": "San Jose",
            "region": "CA",
            "country": "US",
            "latitude": "37.3382",
            "longitude": "-121.8863",
            "slug": "san-jose"
        },
        {
            "name": "Santa Ana",
            "region": "CA",
            "country": "US",
            "latitude": "33.7455",
            "longitude": "-117.8677",
            "slug": "santa-ana"
        },
        {
            "name": "Stockton",
            "region": "CA",
            "country": "US",
            "latitude": "37.9577",
            "longitude": "-121.2908",
            "slug": "stockton"
        },
        {
            "name": "Denver",
            "region": "CO",
            "country": "US",
            "latitude": "39.7392",
            "longitude": "-104.9903",
            "slug": "denver"
        },
        {
            "name": "Bridgeport",
            "region": "CT",
            "country": "US",
            "latitude": "41.1865",
            "longitude": "-73.1950",
            "slug": "bridgeport"
        },
        {
            "name": "Hartford",
            "region": "CT",
            "country": "US",
            "latitude": "41.7637",
            "longitude": "-72.6851",
            "slug": "hartford"
        },
        {
            "name": "Cape Coral",
            "region": "FL",
            "country": "US",
            "latitude": "26.56285",
            "longitude": "-81.94953",
            "slug": "cape-coral"
        },
        {
            "name": "Davie",
            "region": "FL",
            "country": "US",
            "latitude": "26.07648",
            "longitude": "-80.25211",
            "slug": "davie"
        },
        {
            "name": "Fort Lauderdale",
            "region": "FL",
            "country": "US",
            "latitude": "26.12244",
            "longitude": "-80.13732",
            "slug": "fort-lauderdale"
        },
        {
            "name": "Fort Myers",
            "region": "FL",
            "country": "US",
            "latitude": "26.64006",
            "longitude": "-81.87231",
            "slug": "fort-myers"
        },
        {
            "name": "Gainesville",
            "region": "FL",
            "country": "US",
            "latitude": "29.65163",
            "longitude": "-82.32483",
            "slug": "gainesville"
        },
        {
            "name": "Jacksonville",
            "region": "FL",
            "country": "US",
            "latitude": "30.33218",
            "longitude": "-81.65565",
            "slug": "jacksonville"
        },
        {
            "name": "Miami",
            "region": "FL",
            "country": "US",
            "latitude": "25.76168",
            "longitude": "-80.19179",
            "slug": "miami"
        },
        {
            "name": "Naples",
            "region": "FL",
            "country": "US",
            "latitude": "26.14204",
            "longitude": "-81.79481",
            "slug": "naples"
        },
        {
            "name": "Orlando",
            "region": "FL",
            "country": "US",
            "latitude": "28.53834",
            "longitude": "-81.37924",
            "slug": "orlando"
        },
        {
            "name": "Pompano Beach",
            "region": "FL",
            "country": "US",
            "latitude": "26.23786",
            "longitude": "-80.12477",
            "slug": "pompano-beach"
        },
        {
            "name": "Port Orange",
            "region": "FL",
            "country": "US",
            "latitude": "29.13832",
            "longitude": "-80.99561",
            "slug": "port-orange"
        },
        {
            "name": "St. Augustine",
            "region": "FL",
            "country": "US",
            "latitude": "29.89469",
            "longitude": "-81.31452",
            "slug": "st-augustine"
        },
        {
            "name": "St. Petersburg",
            "region": "FL",
            "country": "US",
            "latitude": "27.76760",
            "longitude": "-82.64029",
            "slug": "st-petersburg"
        },
        {
            "name": "Tallahassee",
            "region": "FL",
            "country": "US",
            "latitude": "30.43826",
            "longitude": "-84.280733",
            "slug": "tallahassee"
        },
        {
            "name": "Tampa",
            "region": "FL",
            "country": "US",
            "latitude": "27.95058",
            "longitude": "-82.45718",
            "slug": "tampa"
        },
        {
            "name": "West Palm Beach",
            "region": "FL",
            "country": "US",
            "latitude": "26.71534",
            "longitude": "-80.05337",
            "slug": "west-palm-beach"
        },
        {
            "name": "Albany",
            "region": "GA",
            "country": "US",
            "latitude": "31.5785",
            "longitude": "-84.1557",
            "slug": "albany"
        },
        {
            "name": "Alpharetta",
            "region": "GA",
            "country": "US",
            "latitude": "34.0754",
            "longitude": "-84.2941",
            "slug": "alpharetta"
        },
        {
            "name": "Athens",
            "region": "GA",
            "country": "US",
            "latitude": "33.9519",
            "longitude": "-83.3576",
            "slug": "athens"
        },
        {
            "name": "Atlanta",
            "region": "GA",
            "country": "US",
            "latitude": "33.7490",
            "longitude": "-84.3880",
            "slug": "atlanta"
        },
        {
            "name": "Augusta",
            "region": "GA",
            "country": "US",
            "latitude": "33.4735",
            "longitude": "-82.0105",
            "slug": "augusta"
        },
        {
            "name": "Columbus",
            "region": "GA",
            "country": "US",
            "latitude": "32.4600",
            "longitude": "-84.9877",
            "slug": "columbus"
        },
        {
            "name": "Macon",
            "region": "GA",
            "country": "US",
            "latitude": "32.8407",
            "longitude": "-83.6324",
            "slug": "macon"
        },
        {
            "name": "Roswell",
            "region": "GA",
            "country": "US",
            "latitude": "34.0232",
            "longitude": "-84.3616",
            "slug": "roswell"
        },
        {
            "name": "Savannah",
            "region": "GA",
            "country": "US",
            "latitude": "32.0836",
            "longitude": "-81.0998",
            "slug": "savannah"
        },
        {
            "name": "Warner Robins",
            "region": "GA",
            "country": "US",
            "latitude": "32.6207",
            "longitude": "-83.6245",
            "slug": "warner-robins"
        },
        {
            "name": "Des Moines",
            "region": "IA",
            "country": "US",
            "latitude": "41.6005",
            "longitude": "-93.6091",
            "slug": "des-moines"
        },
        {
            "name": "Chicago",
            "region": "IL",
            "country": "US",
            "latitude": "41.8781",
            "longitude": "-87.6298",
            "slug": "chicago"
        },
        {
            "name": "Indianapolis",
            "region": "IN",
            "country": "US",
            "latitude": "39.7684",
            "longitude": "-86.1581",
            "slug": "indianapolis"
        },
        {
            "name": "Wichita",
            "region": "KS",
            "country": "US",
            "latitude": "37.6872",
            "longitude": "-97.3301",
            "slug": "wichita"
        },
        {
            "name": "Lexington",
            "region": "KY",
            "country": "US",
            "latitude": "38.0406",
            "longitude": "-84.5037",
            "slug": "lexington"
        },
        {
            "name": "Louisville",
            "region": "KY",
            "country": "US",
            "latitude": "38.2527",
            "longitude": "-85.7585",
            "slug": "louisville"
        },
        {
            "name": "New Orleans",
            "region": "LA",
            "country": "US",
            "latitude": "29.9511",
            "longitude": "-90.0715",
            "slug": "new-orleans"
        },
        {
            "name": "Boston",
            "region": "MA",
            "country": "US",
            "latitude": "42.3601",
            "longitude": "-71.0589",
            "slug": "boston"
        },
        {
            "name": "Detroit",
            "region": "MI",
            "country": "US",
            "latitude": "42.3314",
            "longitude": "-83.0458",
            "slug": "detroit"
        },
        {
            "name": "Minneapolis",
            "region": "MN",
            "country": "US",
            "latitude": "44.9778",
            "longitude": "-93.2650",
            "slug": "minneapolis"
        },
        {
            "name": "St. Paul",
            "region": "MN",
            "country": "US",
            "latitude": "44.9537",
            "longitude": "-93.0900",
            "slug": "st-paul"
        },
        {
            "name": "Kansas City",
            "region": "MO",
            "country": "US",
            "latitude": "39.0997",
            "longitude": "-94.5786",
            "slug": "kansas-city"
        },
        {
            "name": "St. Louis",
            "region": "MO",
            "country": "US",
            "latitude": "38.6270",
            "longitude": "-90.1994",
            "slug": "st-louis"
        },
        {
            "name": "Charlotte",
            "region": "NC",
            "country": "US",
            "latitude": "35.2271",
            "longitude": "-80.8431",
            "slug": "charlotte"
        },
        {
            "name": "Raleigh",
            "region": "NC",
            "country": "US",
            "latitude": "35.7796",
            "longitude": "-78.6382",
            "slug": "raleigh"
        },
        {
            "name": "Omaha",
            "region": "NE",
            "country": "US",
            "latitude": "41.2565",
            "longitude": "-95.9345",
            "slug": "omaha"
        },
        {
            "name": "Jersey City",
            "region": "NJ",
            "country": "US",
            "latitude": "40.7282",
            "longitude": "-74.0776",
            "slug": "jersey-city"
        },
        {
            "name": "Albuquerque",
            "region": "NM",
            "country": "US",
            "latitude": "35.0844",
            "longitude": "-106.6506",
            "slug": "albuquerque"
        },
        {
            "name": "Buffalo",
            "region": "NY",
            "country": "US",
            "latitude": "42.8864",
            "longitude": "-78.8784",
            "slug": "buffalo"
        },
        {
            "name": "New York City",
            "region": "NY",
            "country": "US",
            "latitude": "40.7128",
            "longitude": "-74.0060",
            "slug": "new-york-city"
        },
        {
            "name": "Cincinnati",
            "region": "OH",
            "country": "US",
            "latitude": "39.1031",
            "longitude": "-84.5120",
            "slug": "cincinnati"
        },
        {
            "name": "Cleveland",
            "region": "OH",
            "country": "US",
            "latitude": "41.4993",
            "longitude": "-81.6944",
            "slug": "cleveland"
        },
        {
            "name": "Oklahoma City",
            "region": "OK",
            "country": "US",
            "latitude": "35.4676",
            "longitude": "-97.5164",
            "slug": "oklahoma-city"
        },
        {
            "name": "Tulsa",
            "region": "OK",
            "country": "US",
            "latitude": "36.1540",
            "longitude": "-95.9928",
            "slug": "tulsa"
        },
        {
            "name": "Portland",
            "region": "OR",
            "country": "US",
            "latitude": "45.5051",
            "longitude": "-122.6750",
            "slug": "portland"
        },
        {
            "name": "Philadelphia",
            "region": "PA",
            "country": "US",
            "latitude": "39.9526",
            "longitude": "-75.1652",
            "slug": "philadelphia"
        },
        {
            "name": "Pittsburgh",
            "region": "PA",
            "country": "US",
            "latitude": "40.4406",
            "longitude": "-79.9959",
            "slug": "pittsburgh"
        },
        {
            "name": "Memphis",
            "region": "TN",
            "country": "US",
            "latitude": "35.1495",
            "longitude": "-90.0490",
            "slug": "memphis"
        },
        {
            "name": "Nashville",
            "region": "TN",
            "country": "US",
            "latitude": "36.1627",
            "longitude": "-86.7816",
            "slug": "nashville"
        },
        {
            "name": "Arlington",
            "region": "TX",
            "country": "US",
            "latitude": "32.7357",
            "longitude": "-97.1081",
            "slug": "arlington"
        },
        {
            "name": "Austin",
            "region": "TX",
            "country": "US",
            "latitude": "30.2500",
            "longitude": "-97.7500",
            "slug": "austin"
        },
        {
            "name": "Corpus Christi",
            "region": "TX",
            "country": "US",
            "latitude": "27.8006",
            "longitude": "-97.3964",
            "slug": "corpus-christi"
        },
        {
            "name": "Dallas",
            "region": "TX",
            "country": "US",
            "latitude": "32.7767",
            "longitude": "-96.7970",
            "slug": "dallas"
        },
        {
            "name": "El Paso",
            "region": "TX",
            "country": "US",
            "latitude": "31.7619",
            "longitude": "-106.4850",
            "slug": "el-paso"
        },
        {
            "name": "Fort Worth",
            "region": "TX",
            "country": "US",
            "latitude": "32.7555",
            "longitude": "-97.3308",
            "slug": "fort-worth"
        },
        {
            "name": "Houston",
            "region": "TX",
            "country": "US",
            "latitude": "29.7604",
            "longitude": "-95.3698",
            "slug": "houston"
        },
        {
            "name": "Laredo",
            "region": "TX",
            "country": "US",
            "latitude": "27.5306",
            "longitude": "-99.4803",
            "slug": "laredo"
        },
        {
            "name": "Plano",
            "region": "TX",
            "country": "US",
            "latitude": "33.0198",
            "longitude": "-96.6989",
            "slug": "plano"
        },
        {
            "name": "San Antonio",
            "region": "TX",
            "country": "US",
            "latitude": "29.4241",
            "longitude": "-98.4936",
            "slug": "san-antonio"
        },
        {
            "name": "Salt Lake City",
            "region": "UT",
            "country": "US",
            "latitude": "40.7608",
            "longitude": "-111.8910",
            "slug": "salt-lake-city"
        },
        {
            "name": "Richmond",
            "region": "VA",
            "country": "US",
            "latitude": "37.5407",
            "longitude": "-77.4360",
            "slug": "richmond"
        },
        {
            "name": "Seattle",
            "region": "WA",
            "country": "US",
            "latitude": "47.6062",
            "longitude": "-122.3321",
            "slug": "seattle"
        },
        {
            "name": "Milwaukee",
            "region": "WI",
            "country": "US",
            "latitude": "43.0389",
            "longitude": "-87.9065",
            "slug": "milwaukee"
        }
    ],
    "VN": [
        {
            "name": "Barcelona",
            "region": "AN",
            "country": "VE",
            "latitude": "10.13704",
            "longitude": "-64.67798",
            "slug": "barcelona-ve"
        },
        {
            "name": "Puerto La Cruz",
            "region": "AN",
            "country": "VE",
            "latitude": "10.21704",
            "longitude": "-64.62230",
            "slug": "puerto-la-cruz"
        },
        {
            "name": "Maracay",
            "region": "AR",
            "country": "VE",
            "latitude": "10.24694",
            "longitude": "-67.59585",
            "slug": "maracay"
        },
        {
            "name": "Barinas",
            "region": "BA",
            "country": "VE",
            "latitude": "8.62263",
            "longitude": "-70.20749",
            "slug": "barinas"
        },
        {
            "name": "Ciudad Guayana",
            "region": "BO",
            "country": "VE",
            "latitude": "8.28242",
            "longitude": "-62.73305",
            "slug": "ciudad-guayana"
        },
        {
            "name": "Puerto Cabello",
            "region": "CA",
            "country": "VE",
            "latitude": "10.47096",
            "longitude": "-68.07777",
            "slug": "puerto-cabello"
        },
        {
            "name": "Valencia",
            "region": "CA",
            "country": "VE",
            "latitude": "10.16202",
            "longitude": "-68.00743",
            "slug": "valencia-ve"
        },
        {
            "name": "Caracas",
            "region": "CD",
            "country": "VE",
            "latitude": "10.48801",
            "longitude": "-66.87919",
            "slug": "caracas"
        },
        {
            "name": "Barquisimeto",
            "region": "LA",
            "country": "VE",
            "latitude": "10.06543",
            "longitude": "-69.35248",
            "slug": "barquisimeto"
        },
        {
            "name": "Los Teques",
            "region": "MI",
            "country": "VE",
            "latitude": "10.34788",
            "longitude": "-67.04226",
            "slug": "los-teques"
        },
        {
            "name": "Santa Teresa del Tuy",
            "region": "MI",
            "country": "VE",
            "latitude": "10.27076",
            "longitude": "-66.66324",
            "slug": "santa-teresa-del-tuy"
        },
        {
            "name": "Matur\u00edn",
            "region": "MO",
            "country": "VE",
            "latitude": "9.74945",
            "longitude": "-63.17668",
            "slug": "maturin"
        },
        {
            "name": "Acarigua",
            "region": "PO",
            "country": "VE",
            "latitude": "9.56088",
            "longitude": "-69.19512",
            "slug": "acarigua"
        },
        {
            "name": "Guanare",
            "region": "PO",
            "country": "VE",
            "latitude": "9.04269",
            "longitude": "-69.74848",
            "slug": "guanare"
        },
        {
            "name": "Car\u00fapano",
            "region": "SU",
            "country": "VE",
            "latitude": "10.66779",
            "longitude": "-63.25874",
            "slug": "carupano"
        },
        {
            "name": "Cumana",
            "region": "SU",
            "country": "VE",
            "latitude": "10.46416",
            "longitude": "-64.18140",
            "slug": "cumana"
        },
        {
            "name": "San Crist\u00f3bal",
            "region": "TA",
            "country": "VE",
            "latitude": "7.77629",
            "longitude": "-72.21806",
            "slug": "san-cristobal"
        },
        {
            "name": "Valera",
            "region": "TR",
            "country": "VE",
            "latitude": "9.31683",
            "longitude": "-70.61051",
            "slug": "valera"
        },
        {
            "name": "Cabimas",
            "region": "ZU",
            "country": "VE",
            "latitude": "10.39259",
            "longitude": "-71.45227",
            "slug": "cabimas"
        },
        {
            "name": "Maracaibo",
            "region": "ZU",
            "country": "VE",
            "latitude": "10.64878",
            "longitude": "-71.61678",
            "slug": "maracaibo"
        }
    ],
    "IT": [
        {
            "name": "Pescara",
            "region": "ABR",
            "country": "IT",
            "latitude": "42.46122",
            "longitude": "14.21649",
            "slug": "pescara"
        },
        {
            "name": "Reggio Calabria",
            "region": "CAL",
            "country": "IT",
            "latitude": "38.10912",
            "longitude": "15.64307",
            "slug": "reggio-calabria"
        },
        {
            "name": "Naples",
            "region": "CAM",
            "country": "IT",
            "latitude": "40.85216",
            "longitude": "14.26811",
            "slug": "naples-it"
        },
        {
            "name": "Bologna",
            "region": "EMR",
            "country": "IT",
            "latitude": "44.49488",
            "longitude": "11.34262",
            "slug": "bologna"
        },
        {
            "name": "Modena",
            "region": "EMR",
            "country": "IT",
            "latitude": "44.64783",
            "longitude": "10.92539",
            "slug": "modena"
        },
        {
            "name": "Trieste",
            "region": "FVG",
            "country": "IT",
            "latitude": "45.64953",
            "longitude": "13.77677",
            "slug": "trieste"
        },
        {
            "name": "Rome",
            "region": "LAZ",
            "country": "IT",
            "latitude": "41.90278",
            "longitude": "12.49637",
            "slug": "rome"
        },
        {
            "name": "Genoa",
            "region": "LIG",
            "country": "IT",
            "latitude": "44.40564",
            "longitude": "8.94626",
            "slug": "genoa"
        },
        {
            "name": "Bergamo",
            "region": "LOM",
            "country": "IT",
            "latitude": "45.69457",
            "longitude": "9.66904",
            "slug": "bergamo"
        },
        {
            "name": "Brescia",
            "region": "LOM",
            "country": "IT",
            "latitude": "45.54155",
            "longitude": "10.21180",
            "slug": "brescia"
        },
        {
            "name": "Milan",
            "region": "LOM",
            "country": "IT",
            "latitude": "45.46427",
            "longitude": "9.18951",
            "slug": "milan"
        },
        {
            "name": "Monza",
            "region": "LOM",
            "country": "IT",
            "latitude": "45.58483",
            "longitude": "9.27303",
            "slug": "monza"
        },
        {
            "name": "Ancona",
            "region": "MAR",
            "country": "IT",
            "latitude": "43.61583",
            "longitude": "13.51891",
            "slug": "ancona"
        },
        {
            "name": "Turin",
            "region": "PIE",
            "country": "IT",
            "latitude": "45.07033",
            "longitude": "7.68686",
            "slug": "turin"
        },
        {
            "name": "Bari",
            "region": "PUG",
            "country": "IT",
            "latitude": "41.11714",
            "longitude": "16.87187",
            "slug": "bari"
        },
        {
            "name": "Foggia",
            "region": "PUG",
            "country": "IT",
            "latitude": "41.46209",
            "longitude": "15.54341",
            "slug": "foggia"
        },
        {
            "name": "Taranto",
            "region": "PUG",
            "country": "IT",
            "latitude": "40.47696",
            "longitude": "17.22835",
            "slug": "taranto"
        },
        {
            "name": "Cagliari",
            "region": "SAR",
            "country": "IT",
            "latitude": "39.22384",
            "longitude": "9.12166",
            "slug": "cagliari"
        },
        {
            "name": "Catania",
            "region": "SIC",
            "country": "IT",
            "latitude": "37.50224",
            "longitude": "15.08738",
            "slug": "catania"
        },
        {
            "name": "Messina",
            "region": "SIC",
            "country": "IT",
            "latitude": "38.19375",
            "longitude": "15.55401",
            "slug": "messina"
        },
        {
            "name": "Palermo",
            "region": "SIC",
            "country": "IT",
            "latitude": "38.11569",
            "longitude": "13.36152",
            "slug": "palermo"
        },
        {
            "name": "Florence",
            "region": "TOS",
            "country": "IT",
            "latitude": "43.76956",
            "longitude": "11.25581",
            "slug": "florence"
        },
        {
            "name": "Livorno",
            "region": "TOS",
            "country": "IT",
            "latitude": "43.54847",
            "longitude": "10.31057",
            "slug": "livorno"
        },
        {
            "name": "Prato",
            "region": "TOS",
            "country": "IT",
            "latitude": "43.87968",
            "longitude": "11.09691",
            "slug": "prato"
        },
        {
            "name": "Perugia",
            "region": "UMB",
            "country": "IT",
            "latitude": "43.11072",
            "longitude": "12.39083",
            "slug": "perugia"
        },
        {
            "name": "Padua",
            "region": "VEN",
            "country": "IT",
            "latitude": "45.40643",
            "longitude": "11.87676",
            "slug": "padua"
        },
        {
            "name": "Venice",
            "region": "VEN",
            "country": "IT",
            "latitude": "45.43419",
            "longitude": "12.33878",
            "slug": "venice"
        },
        {
            "name": "Verona",
            "region": "VEN",
            "country": "IT",
            "latitude": "45.43838",
            "longitude": "10.99162",
            "slug": "verona"
        }
    ],
    "FR": [
        {
            "name": "Annecy",
            "region": "ARA",
            "country": "FR",
            "latitude": "45.89925",
            "longitude": "6.12887",
            "slug": "annecy"
        },
        {
            "name": "Clermont-Ferrand",
            "region": "ARA",
            "country": "FR",
            "latitude": "45.77722",
            "longitude": "3.08703",
            "slug": "clermont-ferrand"
        },
        {
            "name": "Grenoble",
            "region": "ARA",
            "country": "FR",
            "latitude": "45.18788",
            "longitude": "5.73578",
            "slug": "grenoble"
        },
        {
            "name": "Lyon",
            "region": "ARA",
            "country": "FR",
            "latitude": "45.75781",
            "longitude": "4.83283",
            "slug": "lyon"
        },
        {
            "name": "Saint-\u00c9tienne",
            "region": "ARA",
            "country": "FR",
            "latitude": "45.43970",
            "longitude": "4.38718",
            "slug": "saint-etienne"
        },
        {
            "name": "Dijon",
            "region": "BOU",
            "country": "FR",
            "latitude": "47.32158",
            "longitude": "5.04147",
            "slug": "dijon"
        },
        {
            "name": "Rennes",
            "region": "BRE",
            "country": "FR",
            "latitude": "48.11198",
            "longitude": "-1.67429",
            "slug": "rennes"
        },
        {
            "name": "Nancy",
            "region": "GES",
            "country": "FR",
            "latitude": "48.69206",
            "longitude": "6.18442",
            "slug": "nancy"
        },
        {
            "name": "Reims",
            "region": "GES",
            "country": "FR",
            "latitude": "49.25833",
            "longitude": "4.03170",
            "slug": "reims"
        },
        {
            "name": "Strasbourg",
            "region": "GES",
            "country": "FR",
            "latitude": "48.58461",
            "longitude": "7.75071",
            "slug": "strasbourg"
        },
        {
            "name": "Amiens",
            "region": "HDN",
            "country": "FR",
            "latitude": "49.89508",
            "longitude": "2.30277",
            "slug": "amiens"
        },
        {
            "name": "Lille",
            "region": "HDN",
            "country": "FR",
            "latitude": "50.62925",
            "longitude": "3.05726",
            "slug": "lille"
        },
        {
            "name": "Paris",
            "region": "IDF",
            "country": "FR",
            "latitude": "48.85661",
            "longitude": "2.35222",
            "slug": "paris"
        },
        {
            "name": "Saint-Denis",
            "region": "IDF",
            "country": "FR",
            "latitude": "48.93618",
            "longitude": "2.35744",
            "slug": "saint-denis"
        },
        {
            "name": "Bordeaux",
            "region": "NAQ",
            "country": "FR",
            "latitude": "44.83779",
            "longitude": "-0.57918",
            "slug": "bordeaux"
        },
        {
            "name": "Limoges",
            "region": "NAQ",
            "country": "FR",
            "latitude": "45.83396",
            "longitude": "1.26107",
            "slug": "limoges"
        },
        {
            "name": "Le Havre",
            "region": "NOR",
            "country": "FR",
            "latitude": "49.49380",
            "longitude": "0.10767",
            "slug": "le-havre"
        },
        {
            "name": "Montpellier",
            "region": "OCC",
            "country": "FR",
            "latitude": "43.61136",
            "longitude": "3.87676",
            "slug": "montpellier"
        },
        {
            "name": "N\u00eemes",
            "region": "OCC",
            "country": "FR",
            "latitude": "43.83742",
            "longitude": "4.36006",
            "slug": "nimes"
        },
        {
            "name": "Perpignan",
            "region": "OCC",
            "country": "FR",
            "latitude": "42.68866",
            "longitude": "2.89483",
            "slug": "perpignan"
        },
        {
            "name": "Toulouse",
            "region": "OCC",
            "country": "FR",
            "latitude": "43.60465",
            "longitude": "1.44421",
            "slug": "toulouse"
        },
        {
            "name": "Aix-en-Provence",
            "region": "PAC",
            "country": "FR",
            "latitude": "43.52974",
            "longitude": "5.44743",
            "slug": "aix-en-provence"
        },
        {
            "name": "Marseille",
            "region": "PAC",
            "country": "FR",
            "latitude": "43.29695",
            "longitude": "5.38107",
            "slug": "marseille"
        },
        {
            "name": "Nice",
            "region": "PAC",
            "country": "FR",
            "latitude": "43.70313",
            "longitude": "7.26608",
            "slug": "nice"
        },
        {
            "name": "Toulon",
            "region": "PAC",
            "country": "FR",
            "latitude": "43.12423",
            "longitude": "5.92800",
            "slug": "toulon"
        },
        {
            "name": "Angers",
            "region": "PDL",
            "country": "FR",
            "latitude": "47.47842",
            "longitude": "-0.56317",
            "slug": "angers"
        },
        {
            "name": "Le Mans",
            "region": "PDL",
            "country": "FR",
            "latitude": "48.00611",
            "longitude": "0.19956",
            "slug": "le-mans"
        },
        {
            "name": "Nantes",
            "region": "PDL",
            "country": "FR",
            "latitude": "47.21837",
            "longitude": "-1.55362",
            "slug": "nantes"
        }
    ],
    "PT": [
        {
            "name": "Vila Nova de Santo Andr\u00e9",
            "region": "ALE",
            "country": "PT",
            "latitude": "38.02185",
            "longitude": "-8.69549",
            "slug": "vila-nova-de-santo-andre"
        },
        {
            "name": "Aveiro",
            "region": "CEN",
            "country": "PT",
            "latitude": "40.6401",
            "longitude": "-8.6536",
            "slug": "aveiro"
        },
        {
            "name": "Coimbra",
            "region": "CEN",
            "country": "PT",
            "latitude": "40.20564",
            "longitude": "-8.41955",
            "slug": "coimbra"
        },
        {
            "name": "Amadora",
            "region": "LIS",
            "country": "PT",
            "latitude": "38.75382",
            "longitude": "-9.23077",
            "slug": "amadora"
        },
        {
            "name": "Barreiro",
            "region": "LIS",
            "country": "PT",
            "latitude": "38.6649",
            "longitude": "-9.0724",
            "slug": "barreiro"
        },
        {
            "name": "Cac\u00e9m",
            "region": "LIS",
            "country": "PT",
            "latitude": "38.77077",
            "longitude": "-9.29774",
            "slug": "cacem"
        },
        {
            "name": "Cascais",
            "region": "LIS",
            "country": "PT",
            "latitude": "38.69789",
            "longitude": "-9.42147",
            "slug": "cascais"
        },
        {
            "name": "Lisbon",
            "region": "LIS",
            "country": "PT",
            "latitude": "38.72225",
            "longitude": "-9.13934",
            "slug": "lisbon"
        },
        {
            "name": "Odivelas",
            "region": "LIS",
            "country": "PT",
            "latitude": "38.79206",
            "longitude": "-9.18397",
            "slug": "odivelas"
        },
        {
            "name": "Queluz",
            "region": "LIS",
            "country": "PT",
            "latitude": "38.75645",
            "longitude": "-9.25657",
            "slug": "queluz"
        },
        {
            "name": "Set\u00fabal",
            "region": "LIS",
            "country": "PT",
            "latitude": "38.52440",
            "longitude": "-8.88820",
            "slug": "setubal"
        },
        {
            "name": "Funchal",
            "region": "MAD",
            "country": "PT",
            "latitude": "32.66693",
            "longitude": "-16.92406",
            "slug": "funchal"
        },
        {
            "name": "Braga",
            "region": "NOR",
            "country": "PT",
            "latitude": "41.55032",
            "longitude": "-8.42005",
            "slug": "braga"
        },
        {
            "name": "Guimar\u00e3es",
            "region": "NOR",
            "country": "PT",
            "latitude": "41.44253",
            "longitude": "-8.29282",
            "slug": "guimaraes"
        },
        {
            "name": "Maia",
            "region": "NOR",
            "country": "PT",
            "latitude": "41.23574",
            "longitude": "-8.61990",
            "slug": "maia"
        },
        {
            "name": "Matosinhos",
            "region": "NOR",
            "country": "PT",
            "latitude": "41.18262",
            "longitude": "-8.68484",
            "slug": "matosinhos"
        },
        {
            "name": "Porto",
            "region": "NOR",
            "country": "PT",
            "latitude": "41.15794",
            "longitude": "-8.62910",
            "slug": "porto"
        },
        {
            "name": "P\u00f3voa de Varzim",
            "region": "NOR",
            "country": "PT",
            "latitude": "41.37542",
            "longitude": "-8.76452",
            "slug": "povoa-de-varzim"
        },
        {
            "name": "Vila Nova de Famalic\u00e3o",
            "region": "NOR",
            "country": "PT",
            "latitude": "41.40797",
            "longitude": "-8.52531",
            "slug": "vila-nova-de-famalicao"
        },
        {
            "name": "Vila Nova de Gaia",
            "region": "NOR",
            "country": "PT",
            "latitude": "41.13394",
            "longitude": "-8.61794",
            "slug": "vila-nova-de-gaia"
        }
    ],
    "GB": [
        {
            "name": "Birmingham",
            "region": "ENG",
            "country": "GB",
            "latitude": "52.486242",
            "longitude": "-1.890401",
            "slug": "birmingham-gb"
        },
        {
            "name": "Bradford",
            "region": "ENG",
            "country": "GB",
            "latitude": "53.792767",
            "longitude": "-1.756047",
            "slug": "bradford"
        },
        {
            "name": "Bristol",
            "region": "ENG",
            "country": "GB",
            "latitude": "51.454514",
            "longitude": "-2.587910",
            "slug": "bristol"
        },
        {
            "name": "Cambridge",
            "region": "ENG",
            "country": "GB",
            "latitude": "52.205337",
            "longitude": "0.121817",
            "slug": "cambridge"
        },
        {
            "name": "Coventry",
            "region": "ENG",
            "country": "GB",
            "latitude": "52.406822",
            "longitude": "-1.519693",
            "slug": "coventry"
        },
        {
            "name": "Derby",
            "region": "ENG",
            "country": "GB",
            "latitude": "52.922530",
            "longitude": "-1.474618",
            "slug": "derby"
        },
        {
            "name": "Exeter",
            "region": "ENG",
            "country": "GB",
            "latitude": "50.718412",
            "longitude": "-3.533899",
            "slug": "exeter"
        },
        {
            "name": "Hull",
            "region": "ENG",
            "country": "GB",
            "latitude": "53.746208",
            "longitude": "-0.334682",
            "slug": "hull"
        },
        {
            "name": "Leamington Spa",
            "region": "ENG",
            "country": "GB",
            "latitude": "52.291344",
            "longitude": "-1.533991",
            "slug": "leamington-spa"
        },
        {
            "name": "Leeds",
            "region": "ENG",
            "country": "GB",
            "latitude": "53.800755",
            "longitude": "-1.549077",
            "slug": "leeds"
        },
        {
            "name": "Leicester",
            "region": "ENG",
            "country": "GB",
            "latitude": "52.636877",
            "longitude": "-1.139759",
            "slug": "leicester"
        },
        {
            "name": "Liverpool",
            "region": "ENG",
            "country": "GB",
            "latitude": "53.408371",
            "longitude": "-2.991573",
            "slug": "liverpool"
        },
        {
            "name": "London",
            "region": "ENG",
            "country": "GB",
            "latitude": "51.509865",
            "longitude": "-0.118092",
            "slug": "london"
        },
        {
            "name": "Manchester",
            "region": "ENG",
            "country": "GB",
            "latitude": "53.483959",
            "longitude": "-2.244644",
            "slug": "manchester"
        },
        {
            "name": "Newcastle upon Tyne",
            "region": "ENG",
            "country": "GB",
            "latitude": "54.978252",
            "longitude": "-1.617439",
            "slug": "newcastle-upon-tyne"
        },
        {
            "name": "Newcastle-under-Lyme",
            "region": "ENG",
            "country": "GB",
            "latitude": "53.004342",
            "longitude": "-2.250825",
            "slug": "newcastle-under-lyme"
        },
        {
            "name": "Norwich",
            "region": "ENG",
            "country": "GB",
            "latitude": "52.630886",
            "longitude": "1.297355",
            "slug": "norwich"
        },
        {
            "name": "Nottingham",
            "region": "ENG",
            "country": "GB",
            "latitude": "52.953602",
            "longitude": "-1.150474",
            "slug": "nottingham"
        },
        {
            "name": "Oxford",
            "region": "ENG",
            "country": "GB",
            "latitude": "51.752022",
            "longitude": "-1.257677",
            "slug": "oxford"
        },
        {
            "name": "Plymouth",
            "region": "ENG",
            "country": "GB",
            "latitude": "50.375456",
            "longitude": "-4.142656",
            "slug": "plymouth"
        },
        {
            "name": "Reading",
            "region": "ENG",
            "country": "GB",
            "latitude": "51.454513",
            "longitude": "-0.978130",
            "slug": "reading"
        },
        {
            "name": "Sheffield",
            "region": "ENG",
            "country": "GB",
            "latitude": "53.381129",
            "longitude": "-1.470085",
            "slug": "sheffield"
        },
        {
            "name": "Southampton",
            "region": "ENG",
            "country": "GB",
            "latitude": "50.909698",
            "longitude": "-1.404351",
            "slug": "southampton"
        },
        {
            "name": "Southend-on-Sea",
            "region": "ENG",
            "country": "GB",
            "latitude": "51.540905",
            "longitude": "0.711492",
            "slug": "southend-on-sea"
        },
        {
            "name": "Stoke-on-Trent",
            "region": "ENG",
            "country": "GB",
            "latitude": "53.002666",
            "longitude": "-2.179404",
            "slug": "stoke-on-trent"
        },
        {
            "name": "Sunderland",
            "region": "ENG",
            "country": "GB",
            "latitude": "54.904450",
            "longitude": "-1.382535",
            "slug": "sunderland"
        },
        {
            "name": "Wolverhampton",
            "region": "ENG",
            "country": "GB",
            "latitude": "52.586973",
            "longitude": "-2.128820",
            "slug": "wolverhampton"
        },
        {
            "name": "Swansea",
            "region": "WAL",
            "country": "GB",
            "latitude": "51.621440",
            "longitude": "-3.943646",
            "slug": "swansea"
        }
    ],
    "DE": [
        {
            "name": "Berlin",
            "region": "BER",
            "country": "DE",
            "latitude": "52.520008",
            "longitude": "13.404954",
            "slug": "berlin"
        },
        {
            "name": "Karlsruhe",
            "region": "BW",
            "country": "DE",
            "latitude": "49.006890",
            "longitude": "8.403653",
            "slug": "karlsruhe"
        },
        {
            "name": "Mannheim",
            "region": "BW",
            "country": "DE",
            "latitude": "49.487459",
            "longitude": "8.466039",
            "slug": "mannheim"
        },
        {
            "name": "Stuttgart",
            "region": "BW",
            "country": "DE",
            "latitude": "48.775845",
            "longitude": "9.182932",
            "slug": "stuttgart"
        },
        {
            "name": "Augsburg",
            "region": "BY",
            "country": "DE",
            "latitude": "48.370544",
            "longitude": "10.897790",
            "slug": "augsburg"
        },
        {
            "name": "Munich",
            "region": "BY",
            "country": "DE",
            "latitude": "48.856613",
            "longitude": "2.352222",
            "slug": "munich"
        },
        {
            "name": "Nuremberg",
            "region": "BY",
            "country": "DE",
            "latitude": "49.450520",
            "longitude": "11.080480",
            "slug": "nuremberg"
        },
        {
            "name": "Bremen",
            "region": "HB",
            "country": "DE",
            "latitude": "53.079296",
            "longitude": "8.801694",
            "slug": "bremen"
        },
        {
            "name": "Frankfurt",
            "region": "HE",
            "country": "DE",
            "latitude": "50.110924",
            "longitude": "8.682127",
            "slug": "frankfurt"
        },
        {
            "name": "Wiesbaden",
            "region": "HE",
            "country": "DE",
            "latitude": "50.078218",
            "longitude": "8.239761",
            "slug": "wiesbaden"
        },
        {
            "name": "Hamburg",
            "region": "HH",
            "country": "DE",
            "latitude": "53.551086",
            "longitude": "9.993682",
            "slug": "hamburg"
        },
        {
            "name": "Braunschweig",
            "region": "NI",
            "country": "DE",
            "latitude": "52.268874",
            "longitude": "10.526770",
            "slug": "braunschweig"
        },
        {
            "name": "Hanover",
            "region": "NI",
            "country": "DE",
            "latitude": "52.375892",
            "longitude": "9.732010",
            "slug": "hanover"
        },
        {
            "name": "Bielefeld",
            "region": "NW",
            "country": "DE",
            "latitude": "52.030228",
            "longitude": "8.532471",
            "slug": "bielefeld"
        },
        {
            "name": "Bochum",
            "region": "NW",
            "country": "DE",
            "latitude": "51.481845",
            "longitude": "7.216236",
            "slug": "bochum"
        },
        {
            "name": "Bonn",
            "region": "NW",
            "country": "DE",
            "latitude": "50.735851",
            "longitude": "7.100660",
            "slug": "bonn"
        },
        {
            "name": "Cologne",
            "region": "NW",
            "country": "DE",
            "latitude": "50.937531",
            "longitude": "6.960279",
            "slug": "cologne"
        },
        {
            "name": "Dortmund",
            "region": "NW",
            "country": "DE",
            "latitude": "51.513587",
            "longitude": "7.465298",
            "slug": "dortmund"
        },
        {
            "name": "Duisburg",
            "region": "NW",
            "country": "DE",
            "latitude": "51.434407",
            "longitude": "6.762329",
            "slug": "duisburg"
        },
        {
            "name": "D\u00fcsseldorf",
            "region": "NW",
            "country": "DE",
            "latitude": "51.227741",
            "longitude": "6.773456",
            "slug": "duesseldorf"
        },
        {
            "name": "Essen",
            "region": "NW",
            "country": "DE",
            "latitude": "51.455643",
            "longitude": "7.011555",
            "slug": "essen"
        },
        {
            "name": "Gelsenkirchen",
            "region": "NW",
            "country": "DE",
            "latitude": "51.517744",
            "longitude": "7.085717",
            "slug": "gelsenkirchen"
        },
        {
            "name": "M\u00f6nchengladbach",
            "region": "NW",
            "country": "DE",
            "latitude": "51.180457",
            "longitude": "6.442804",
            "slug": "moenchengladbach"
        },
        {
            "name": "M\u00fcnster",
            "region": "NW",
            "country": "DE",
            "latitude": "51.960664",
            "longitude": "7.626135",
            "slug": "muenster"
        },
        {
            "name": "Wuppertal",
            "region": "NW",
            "country": "DE",
            "latitude": "51.256213",
            "longitude": "7.150764",
            "slug": "wuppertal"
        },
        {
            "name": "Kiel",
            "region": "SH",
            "country": "DE",
            "latitude": "54.323293",
            "longitude": "10.122765",
            "slug": "kiel"
        },
        {
            "name": "Dresden",
            "region": "SN",
            "country": "DE",
            "latitude": "51.050409",
            "longitude": "13.737262",
            "slug": "dresden"
        },
        {
            "name": "Leipzig",
            "region": "SN",
            "country": "DE",
            "latitude": "51.342636",
            "longitude": "12.374874",
            "slug": "leipzig"
        }
    ],
    "CR": [
        {
            "name": "Alajuela",
            "region": "A",
            "country": "CR",
            "latitude": "10.017355",
            "longitude": "-84.214030",
            "slug": "alajuela"
        },
        {
            "name": "Heredia",
            "region": "H",
            "country": "CR",
            "latitude": "9.992417",
            "longitude": "-84.120213",
            "slug": "heredia"
        },
        {
            "name": "Limon",
            "region": "L",
            "country": "CR",
            "latitude": "9.991014",
            "longitude": "-83.043389",
            "slug": "limon"
        },
        {
            "name": "Puntarenas",
            "region": "P",
            "country": "CR",
            "latitude": "9.977843",
            "longitude": "-84.829619",
            "slug": "puntarenas"
        },
        {
            "name": "San Jose",
            "region": "SJ",
            "country": "CR",
            "latitude": "9.928069",
            "longitude": "-84.090725",
            "slug": "san-jose-cr"
        }
    ],
    "SV": [
        {
            "name": "Acajutla",
            "region": "AC",
            "country": "SV",
            "latitude": "13.590301",
            "longitude": "-89.826225",
            "slug": "acajutla"
        },
        {
            "name": "Cojutepeque",
            "region": "CJ",
            "country": "SV",
            "latitude": "13.716859",
            "longitude": "-88.935519",
            "slug": "cojutepeque"
        },
        {
            "name": "La Uni\u00f3n",
            "region": "LU",
            "country": "SV",
            "latitude": "13.332450",
            "longitude": "-87.843146",
            "slug": "la-union"
        },
        {
            "name": "Santa Ana",
            "region": "SA",
            "country": "SV",
            "latitude": "13.994560",
            "longitude": "-89.559873",
            "slug": "santa-ana-sv"
        },
        {
            "name": "San Miguel",
            "region": "SM",
            "country": "SV",
            "latitude": "13.475484",
            "longitude": "-88.183968",
            "slug": "san-miguel"
        },
        {
            "name": "Sonsonate",
            "region": "SO",
            "country": "SV",
            "latitude": "13.719775",
            "longitude": "-89.727417",
            "slug": "sonsonate"
        },
        {
            "name": "San Salvador",
            "region": "SS",
            "country": "SV",
            "latitude": "13.692940",
            "longitude": "-89.218191",
            "slug": "san-salvador"
        },
        {
            "name": "San Vicente",
            "region": "SV",
            "country": "SV",
            "latitude": "13.641520",
            "longitude": "-88.785794",
            "slug": "san-vicente"
        },
        {
            "name": "Usulut\u00e1n",
            "region": "US",
            "country": "SV",
            "latitude": "13.342872",
            "longitude": "-88.433292",
            "slug": "usulutan"
        },
        {
            "name": "Zacatecoluca",
            "region": "ZA",
            "country": "SV",
            "latitude": "13.505002",
            "longitude": "-88.867287",
            "slug": "zacatecoluca"
        }
    ],
    "HN": [
        {
            "name": "La Ceiba",
            "region": "AT",
            "country": "HN",
            "latitude": "15.7668",
            "longitude": "-86.7937",
            "slug": "la-ceiba"
        },
        {
            "name": "Comayagua",
            "region": "CM",
            "country": "HN",
            "latitude": "14.4526",
            "longitude": "-87.6437",
            "slug": "comayagua"
        },
        {
            "name": "Choloma",
            "region": "CR",
            "country": "HN",
            "latitude": "15.6149",
            "longitude": "-87.9526",
            "slug": "choloma"
        },
        {
            "name": "San Pedro Sula",
            "region": "CR",
            "country": "HN",
            "latitude": "15.504582",
            "longitude": "-88.025477",
            "slug": "san-pedro-sula"
        },
        {
            "name": "Tegucigalpa",
            "region": "FM",
            "country": "HN",
            "latitude": "14.072275",
            "longitude": "-87.192136",
            "slug": "tegucigalpa"
        }
    ],
    "GT": [
        {
            "name": "Escuintla",
            "region": "ES",
            "country": "GT",
            "latitude": "14.305000",
            "longitude": "-90.785000",
            "slug": "escuintla"
        },
        {
            "name": "Guatemala City",
            "region": "GU",
            "country": "GT",
            "latitude": "14.634915",
            "longitude": "-90.506882",
            "slug": "guatemala-city"
        },
        {
            "name": "Quetzaltenango",
            "region": "QZ",
            "country": "GT",
            "latitude": "14.635100",
            "longitude": "-91.563715",
            "slug": "quetzaltenango"
        },
        {
            "name": "Antigua Guatemala",
            "region": "SA",
            "country": "GT",
            "latitude": "14.558570",
            "longitude": "-90.729523",
            "slug": "antigua-guatemala"
        }
    ],
    "NI": [
        {
            "name": "Chinandega",
            "region": "CD",
            "country": "NI",
            "latitude": "12.6297",
            "longitude": "-87.1311",
            "slug": "chinandega"
        },
        {
            "name": "Le\u00f3n",
            "region": "LE",
            "country": "NI",
            "latitude": "12.4352",
            "longitude": "-86.8790",
            "slug": "leon-ni"
        },
        {
            "name": "Managua",
            "region": "MN",
            "country": "NI",
            "latitude": "12.865416",
            "longitude": "-85.207229",
            "slug": "managua"
        },
        {
            "name": "Masaya",
            "region": "MS",
            "country": "NI",
            "latitude": "11.9686",
            "longitude": "-86.0950",
            "slug": "masaya"
        },
        {
            "name": "Matagalpa",
            "region": "MT",
            "country": "NI",
            "latitude": "12.9291",
            "longitude": "-85.9172",
            "slug": "matagalpa"
        }
    ],
    "CA": [
        {
            "name": "Calgary",
            "region": "AB",
            "country": "CA",
            "latitude": "51.044733",
            "longitude": "-114.071883",
            "slug": "calgary"
        },
        {
            "name": "Edmonton",
            "region": "AB",
            "country": "CA",
            "latitude": "53.546124",
            "longitude": "-113.493822",
            "slug": "edmonton"
        },
        {
            "name": "Lethbridge",
            "region": "AB",
            "country": "CA",
            "latitude": "49.6959",
            "longitude": "-112.8419",
            "slug": "lethbridge"
        },
        {
            "name": "Red Deer",
            "region": "AB",
            "country": "CA",
            "latitude": "52.2690",
            "longitude": "-113.8116",
            "slug": "red-deer"
        },
        {
            "name": "Kamloops",
            "region": "BC",
            "country": "CA",
            "latitude": "50.6761",
            "longitude": "-120.3408",
            "slug": "kamloops"
        },
        {
            "name": "Kelowna",
            "region": "BC",
            "country": "CA",
            "latitude": "49.887952",
            "longitude": "-119.496011",
            "slug": "kelowna"
        },
        {
            "name": "Vancouver",
            "region": "BC",
            "country": "CA",
            "latitude": "49.282729",
            "longitude": "-123.120738",
            "slug": "vancouver"
        },
        {
            "name": "Victoria",
            "region": "BC",
            "country": "CA",
            "latitude": "48.428421",
            "longitude": "-123.365644",
            "slug": "victoria-ca"
        },
        {
            "name": "Winnipeg",
            "region": "MB",
            "country": "CA",
            "latitude": "49.895077",
            "longitude": "-97.138451",
            "slug": "winnipeg"
        },
        {
            "name": "Moncton",
            "region": "NB",
            "country": "CA",
            "latitude": "46.1155",
            "longitude": "-64.8019",
            "slug": "moncton"
        },
        {
            "name": "St. John's",
            "region": "NL",
            "country": "CA",
            "latitude": "47.560539",
            "longitude": "-52.712837",
            "slug": "st-johns"
        },
        {
            "name": "Halifax",
            "region": "NS",
            "country": "CA",
            "latitude": "44.648618",
            "longitude": "-63.585948",
            "slug": "halifax"
        },
        {
            "name": "Barrie",
            "region": "ON",
            "country": "CA",
            "latitude": "44.389356",
            "longitude": "-79.690332",
            "slug": "barrie"
        },
        {
            "name": "Brantford",
            "region": "ON",
            "country": "CA",
            "latitude": "43.1394",
            "longitude": "-80.2644",
            "slug": "brantford"
        },
        {
            "name": "Guelph",
            "region": "ON",
            "country": "CA",
            "latitude": "43.5465",
            "longitude": "-80.2482",
            "slug": "guelph"
        },
        {
            "name": "Hamilton",
            "region": "ON",
            "country": "CA",
            "latitude": "43.255720",
            "longitude": "-79.871102",
            "slug": "hamilton"
        },
        {
            "name": "Kitchener",
            "region": "ON",
            "country": "CA",
            "latitude": "43.451639",
            "longitude": "-80.492225",
            "slug": "kitchener"
        },
        {
            "name": "London",
            "region": "ON",
            "country": "CA",
            "latitude": "42.984923",
            "longitude": "-81.245276",
            "slug": "london-ca"
        },
        {
            "name": "Oshawa",
            "region": "ON",
            "country": "CA",
            "latitude": "43.897092",
            "longitude": "-78.865791",
            "slug": "oshawa"
        },
        {
            "name": "Ottawa",
            "region": "ON",
            "country": "CA",
            "latitude": "45.421530",
            "longitude": "-75.699120",
            "slug": "ottawa"
        },
        {
            "name": "Peterborough",
            "region": "ON",
            "country": "CA",
            "latitude": "44.3073",
            "longitude": "-78.319",
            "slug": "peterborough"
        },
        {
            "name": "Thunder Bay",
            "region": "ON",
            "country": "CA",
            "latitude": "48.4284",
            "longitude": "-89.2319",
            "slug": "thunder-bay"
        },
        {
            "name": "Toronto",
            "region": "ON",
            "country": "CA",
            "latitude": "43.653225",
            "longitude": "-79.383186",
            "slug": "toronto"
        },
        {
            "name": "Windsor",
            "region": "ON",
            "country": "CA",
            "latitude": "42.314937",
            "longitude": "-83.036363",
            "slug": "windsor"
        },
        {
            "name": "Montreal",
            "region": "QC",
            "country": "CA",
            "latitude": "45.501689",
            "longitude": "-73.567256",
            "slug": "montreal"
        },
        {
            "name": "Quebec City",
            "region": "QC",
            "country": "CA",
            "latitude": "46.813878",
            "longitude": "-71.208881",
            "slug": "quebec-city"
        },
        {
            "name": "Regina",
            "region": "SK",
            "country": "CA",
            "latitude": "50.445210",
            "longitude": "-104.618894",
            "slug": "regina"
        },
        {
            "name": "Saskatoon",
            "region": "SK",
            "country": "CA",
            "latitude": "52.136692",
            "longitude": "-106.648116",
            "slug": "saskatoon"
        }
    ]
}