[{"name":"Abu Dhabi","slug":"abu dhabi","region":"01","country":"AE","latitude":"24.45118","longitude":"54.39696","population":1807000},{"name":"Ab\u016b Hayl","slug":"abu hayl","region":"03","country":"AE","latitude":"25.28413","longitude":"55.33153","population":18043},{"name":"Adh Dhayd","slug":"adh dhayd","region":"06","country":"AE","latitude":"25.28812","longitude":"55.88157","population":20165},{"name":"Ajman","slug":"ajman","region":"02","country":"AE","latitude":"25.40177","longitude":"55.47878","population":490035},{"name":"Al Ain City","slug":"al ain city","region":"01","country":"AE","latitude":"24.19167","longitude":"55.76056","population":846747},{"name":"Al Bada'a","slug":"al bada'a","region":"03","country":"AE","latitude":"25.22462","longitude":"55.26888","population":18816},{"name":"Al Furjan","slug":"al furjan","region":"03","country":"AE","latitude":"25.02651","longitude":"55.14565","population":26000},{"name":"Al Jurf","slug":"al jurf","region":"02","country":"AE","latitude":"25.41814","longitude":"55.50791","population":18000},{"name":"Al Karama","slug":"al karama","region":"03","country":"AE","latitude":"25.24004","longitude":"55.30106","population":75560},{"name":"Al Majaz","slug":"al majaz","region":"06","country":"AE","latitude":"25.32354","longitude":"55.38774","population":116503},{"name":"Al Mizhar First","slug":"al mizhar first","region":"03","country":"AE","latitude":"25.24805","longitude":"55.44128","population":17498},{"name":"Al Murar al Qad\u012bm","slug":"al murar al qadim","region":"03","country":"AE","latitude":"25.27576","longitude":"55.30738","population":19831},{"name":"Al Muteena","slug":"al muteena","region":"03","country":"AE","latitude":"25.27375","longitude":"55.32265","population":48739},{"name":"Al Qusais 1","slug":"al qusais 1","region":"03","country":"AE","latitude":"25.27925","longitude":"55.36995","population":48378},{"name":"Al Safa","slug":"al safa","region":"03","country":"AE","latitude":"25.17047","longitude":"55.23336","population":15672},{"name":"Al Sajaah","slug":"al sajaah","region":"06","country":"AE","latitude":"25.31532","longitude":"55.63211","population":53079},{"name":"Al Shamkhah City","slug":"al shamkhah city","region":"01","country":"AE","latitude":"24.39268","longitude":"54.70779","population":61710},{"name":"Al Waheda","slug":"al waheda","region":"03","country":"AE","latitude":"25.29173","longitude":"55.33822","population":21608},{"name":"Al Warqaa","slug":"al warqaa","region":"03","country":"AE","latitude":"25.19272","longitude":"55.42013","population":59111},{"name":"Al Wasl","slug":"al wasl","region":"03","country":"AE","latitude":"25.19881","longitude":"55.25565","population":22153},{"name":"Al \u1e28am\u012bd\u012byah","slug":"al hamidiyah","region":"02","country":"AE","latitude":"25.40001","longitude":"55.52925","population":27000},{"name":"Ar Rumaylah","slug":"ar rumaylah","region":"02","country":"AE","latitude":"25.40338","longitude":"55.4334","population":86000},{"name":"Ar Ruways","slug":"ar ruways","region":"01","country":"AE","latitude":"24.11028","longitude":"52.73056","population":25000},{"name":"Ar R\u0101shid\u012byah","slug":"ar rashidiyah","region":"03","country":"AE","latitude":"25.22499","longitude":"55.38947","population":38425},{"name":"As Sa\u0163wah","slug":"as satwah","region":"03","country":"AE","latitude":"25.22192","longitude":"55.27459","population":40997},{"name":"Bani Yas City","slug":"bani yas city","region":"01","country":"AE","latitude":"24.30978","longitude":"54.62944","population":80498},{"name":"Bur Dubai","slug":"bur dubai","region":"03","country":"AE","latitude":"25.26038","longitude":"55.29891","population":18698},{"name":"Business Bay","slug":"business bay","region":"03","country":"AE","latitude":"25.18544","longitude":"55.26969","population":191000},{"name":"Dayrah","slug":"dayrah","region":"03","country":"AE","latitude":"25.27143","longitude":"55.30207","population":400000},{"name":"Dibba Al-Fujairah","slug":"dibba al-fujairah","region":"04","country":"AE","latitude":"25.59246","longitude":"56.26176","population":30000},{"name":"Dibba Al-Hisn","slug":"dibba al-hisn","region":"04","country":"AE","latitude":"25.61955","longitude":"56.27291","population":26395},{"name":"Dubai","slug":"dubai","region":"03","country":"AE","latitude":"25.07725","longitude":"55.30927","population":3790000},{"name":"Dubai Festival City","slug":"dubai festival city","region":"03","country":"AE","latitude":"25.22177","longitude":"55.35733","population":77000},{"name":"Dubai International Financial Centre","slug":"dubai international financial centre","region":"03","country":"AE","latitude":"25.2106","longitude":"55.27787","population":36000},{"name":"Dubai Internet City","slug":"dubai internet city","region":"03","country":"AE","latitude":"25.09538","longitude":"55.16171","population":24000},{"name":"Dubai Investments Park","slug":"dubai investments park","region":"03","country":"AE","latitude":"25.00827","longitude":"55.15682","population":160000},{"name":"Dubai Marina","slug":"dubai marina","region":"03","country":"AE","latitude":"25.08525","longitude":"55.14646","population":120000},{"name":"Dubai Silicon Oasis","slug":"dubai silicon oasis","region":"03","country":"AE","latitude":"25.11985","longitude":"55.38718","population":90000},{"name":"Fujairah","slug":"fujairah","region":"04","country":"AE","latitude":"25.11641","longitude":"56.34141","population":118933},{"name":"Halwan","slug":"halwan","region":"06","country":"AE","latitude":"25.34586","longitude":"55.42165","population":19389},{"name":"Hawr al \u2018Anz","slug":"hawr al 'anz","region":"03","country":"AE","latitude":"25.27744","longitude":"55.33675","population":84661},{"name":"International City","slug":"international city","region":"03","country":"AE","latitude":"25.16383","longitude":"55.40987","population":120000},{"name":"Jebel Ali","slug":"jebel ali","region":"03","country":"AE","latitude":"25.00255","longitude":"55.10811","population":210000},{"name":"Jumayr\u0101","slug":"jumayra","region":"03","country":"AE","latitude":"25.20795","longitude":"55.24969","population":39080},{"name":"Kalb\u0101","slug":"kalba","region":"06","country":"AE","latitude":"25.0513","longitude":"56.35422","population":37545},{"name":"Khalifah A City","slug":"khalifah a city","region":"01","country":"AE","latitude":"24.42588","longitude":"54.605","population":85374},{"name":"Khawr Fakk\u0101n","slug":"khawr fakkan","region":"06","country":"AE","latitude":"25.33132","longitude":"56.34199","population":40677},{"name":"Lahbab","slug":"lahbab","region":"03","country":"AE","latitude":"25.03763","longitude":"55.59135","population":53079},{"name":"Mankh\u016bl","slug":"mankhul","region":"03","country":"AE","latitude":"25.24612","longitude":"55.29222","population":41244},{"name":"Mirdif","slug":"mirdif","region":"03","country":"AE","latitude":"25.22443","longitude":"55.41412","population":60288},{"name":"Mohammed Bin Zayed City","slug":"mohammed bin zayed city","region":"01","country":"AE","latitude":"24.34794","longitude":"54.55368","population":85000},{"name":"Musaffah","slug":"musaffah","region":"01","country":"AE","latitude":"24.35893","longitude":"54.48267","population":243341},{"name":"N\u0101yf","slug":"nayf","region":"03","country":"AE","latitude":"25.27139","longitude":"55.30323","population":53075},{"name":"Ras Al Khaimah","slug":"ras al khaimah","region":"05","country":"AE","latitude":"25.78953","longitude":"55.9432","population":351943},{"name":"Reef Al Fujairah City","slug":"reef al fujairah city","region":"04","country":"AE","latitude":"25.14479","longitude":"56.24764","population":82310},{"name":"Sharjah","slug":"sharjah","region":"06","country":"AE","latitude":"25.3342","longitude":"55.41221","population":1800000},{"name":"The Palm Jumeirah","slug":"the palm jumeirah","region":"03","country":"AE","latitude":"25.11607","longitude":"55.13506","population":25500},{"name":"Umm Al Quwain City","slug":"umm al quwain city","region":"07","country":"AE","latitude":"25.56473","longitude":"55.55517","population":59098},{"name":"Umm Suqaym","slug":"umm suqaym","region":"03","country":"AE","latitude":"25.15491","longitude":"55.21015","population":16459},{"name":"War\u012bs\u0101n","slug":"warisan","region":"03","country":"AE","latitude":"25.16744","longitude":"55.40708","population":108759},{"name":"Zayed City","slug":"zayed city","region":"01","country":"AE","latitude":"23.65416","longitude":"53.70522","population":63482},{"name":"\u0162ar\u012bf Kalb\u0101","slug":"tarif kalba","region":"04","country":"AE","latitude":"25.0695","longitude":"56.33115","population":51000},{"name":"\u1e28att\u0101","slug":"hatta","region":"03","country":"AE","latitude":"24.80073","longitude":"56.12726","population":15324}]