[{"name":"Andkh\u014dy","slug":"andkhoy","region":"07","country":"AF","latitude":"36.95293","longitude":"65.12376","population":37900},{"name":"Asad\u0101b\u0101d","slug":"asadabad","region":"34","country":"AF","latitude":"34.87311","longitude":"71.14697","population":48400},{"name":"A\u012bbak","slug":"aibak","region":"32","country":"AF","latitude":"36.26468","longitude":"68.01551","population":47823},{"name":"Baghl\u0101n","slug":"baghlan","region":"03","country":"AF","latitude":"36.13068","longitude":"68.70829","population":108449},{"name":"Bah\u0101rak","slug":"baharak","region":"01","country":"AF","latitude":"37.00254","longitude":"70.90664","population":32551},{"name":"Balkh","slug":"balkh","region":"30","country":"AF","latitude":"36.75635","longitude":"66.8972","population":114883},{"name":"Baraki Barak","slug":"baraki barak","region":"17","country":"AF","latitude":"33.96744","longitude":"68.9492","population":22305},{"name":"B\u0101my\u0101n","slug":"bamyan","region":"05","country":"AF","latitude":"34.82156","longitude":"67.82734","population":61863},{"name":"B\u0101z\u0101r-e Yak\u0101wlang","slug":"bazar-e yakawlang","region":"05","country":"AF","latitude":"34.73525","longitude":"66.97379","population":65000},{"name":"B\u0101z\u0101rak","slug":"bazarak","region":"42","country":"AF","latitude":"35.31292","longitude":"69.51519","population":65000},{"name":"Charikar","slug":"charikar","region":"40","country":"AF","latitude":"35.01361","longitude":"69.17139","population":53676},{"name":"Eslam Qaleh","slug":"eslam qaleh","region":"11","country":"AF","latitude":"34.66667","longitude":"61.06667","population":18086},{"name":"Farah","slug":"farah","region":"06","country":"AF","latitude":"32.37451","longitude":"62.11638","population":43561},{"name":"Fayzabad","slug":"fayzabad","region":"01","country":"AF","latitude":"37.11664","longitude":"70.58002","population":44421},{"name":"Gardez","slug":"gardez","region":"36","country":"AF","latitude":"33.59744","longitude":"69.22592","population":103601},{"name":"Gereshk","slug":"gereshk","region":"10","country":"AF","latitude":"31.82089","longitude":"64.57005","population":43588},{"name":"Ghazni","slug":"ghazni","region":"08","country":"AF","latitude":"33.55391","longitude":"68.42096","population":141000},{"name":"Ghormach","slug":"ghormach","region":"02","country":"AF","latitude":"35.73062","longitude":"63.78264","population":30000},{"name":"Her\u0101t","slug":"herat","region":"11","country":"AF","latitude":"34.34817","longitude":"62.19967","population":574300},{"name":"Ist\u0101lif","slug":"istalif","region":"13","country":"AF","latitude":"34.83268","longitude":"69.07756","population":41413},{"name":"Jabal os Saraj","slug":"jabal os saraj","region":"40","country":"AF","latitude":"35.11833","longitude":"69.23778","population":15032},{"name":"Jal\u0101l\u0101b\u0101d","slug":"jalalabad","region":"18","country":"AF","latitude":"34.42647","longitude":"70.45153","population":271900},{"name":"Jurm","slug":"jurm","region":"01","country":"AF","latitude":"36.86477","longitude":"70.83421","population":23064},{"name":"Kabul","slug":"kabul","region":"13","country":"AF","latitude":"34.52813","longitude":"69.17233","population":4434550},{"name":"Kandah\u0101r","slug":"kandahar","region":"23","country":"AF","latitude":"31.61332","longitude":"65.71013","population":523300},{"name":"Karukh","slug":"karukh","region":"11","country":"AF","latitude":"34.48108","longitude":"62.5863","population":17484},{"name":"Khanabad","slug":"khanabad","region":"24","country":"AF","latitude":"36.68304","longitude":"69.11279","population":71531},{"name":"Khulm","slug":"khulm","region":"30","country":"AF","latitude":"36.69736","longitude":"67.69826","population":64933},{"name":"Kh\u0101n Nesh\u012bn","slug":"khan neshin","region":"10","country":"AF","latitude":"30.5488","longitude":"63.7888","population":25600},{"name":"Kh\u0101sh","slug":"khash","region":"19","country":"AF","latitude":"31.52919","longitude":"62.79055","population":15133},{"name":"Kh\u014dst","slug":"khost","region":"37","country":"AF","latitude":"33.33951","longitude":"69.92041","population":96123},{"name":"Kunduz","slug":"kunduz","region":"24","country":"AF","latitude":"36.72895","longitude":"68.857","population":161902},{"name":"Kushk","slug":"kushk","region":"11","country":"AF","latitude":"33.29565","longitude":"61.95221","population":16952},{"name":"Lashkar G\u0101h","slug":"lashkar gah","region":"10","country":"AF","latitude":"31.59382","longitude":"64.37161","population":43934},{"name":"Markaz-e Woluswal\u012b-ye \u0100ch\u012bn","slug":"markaz-e woluswali-ye achin","region":"18","country":"AF","latitude":"34.12583","longitude":"70.70778","population":15098},{"name":"Maymana","slug":"maymana","region":"07","country":"AF","latitude":"35.92139","longitude":"64.78361","population":75900},{"name":"Maz\u0101r-e Shar\u012bf","slug":"mazar-e sharif","region":"30","country":"AF","latitude":"36.70904","longitude":"67.11087","population":523300},{"name":"Mehtar L\u0101m","slug":"mehtar lam","region":"35","country":"AF","latitude":"34.67139","longitude":"70.20944","population":17345},{"name":"Nahr\u012bn","slug":"nahrin","region":"03","country":"AF","latitude":"36.0649","longitude":"69.13343","population":22363},{"name":"N\u012bl\u012b","slug":"nili","region":"41","country":"AF","latitude":"33.72178","longitude":"66.13023","population":30058},{"name":"Paghm\u0101n","slug":"paghman","region":"13","country":"AF","latitude":"34.58787","longitude":"68.95091","population":49157},{"name":"Pul-e Khumr\u012b","slug":"pul-e khumri","region":"03","country":"AF","latitude":"35.94458","longitude":"68.71512","population":56369},{"name":"Qarq\u012bn","slug":"qarqin","region":"31","country":"AF","latitude":"37.41853","longitude":"66.04358","population":15018},{"name":"Qar\u0101wul","slug":"qarawul","region":"24","country":"AF","latitude":"37.21959","longitude":"68.7802","population":24544},{"name":"Rust\u0101q","slug":"rustaq","region":"26","country":"AF","latitude":"37.12604","longitude":"69.83045","population":25636},{"name":"Sang-e Ch\u0101rak","slug":"sang-e charak","region":"33","country":"AF","latitude":"35.84972","longitude":"66.43694","population":15377},{"name":"Sar-e Pul","slug":"sar-e pul","region":"33","country":"AF","latitude":"36.21544","longitude":"65.93249","population":52121},{"name":"Shahrak","slug":"shahrak","region":"09","country":"AF","latitude":"34.10737","longitude":"64.3052","population":15967},{"name":"Shibirgh\u0101n","slug":"shibirghan","region":"31","country":"AF","latitude":"36.66757","longitude":"65.7529","population":55641},{"name":"Sh\u012bn\u1e0fan\u1e0f","slug":"shindand","region":"11","country":"AF","latitude":"33.30294","longitude":"62.1474","population":29264},{"name":"Taloqan","slug":"taloqan","region":"26","country":"AF","latitude":"36.73605","longitude":"69.53451","population":64256},{"name":"Zaranj","slug":"zaranj","region":"19","country":"AF","latitude":"30.95962","longitude":"61.86037","population":49851},{"name":"\u0100rt Khw\u0101jah","slug":"art khwajah","region":"26","country":"AF","latitude":"37.08571","longitude":"69.47958","population":18623},{"name":"\u0100sm\u0101r","slug":"asmar","region":"34","country":"AF","latitude":"35.03333","longitude":"71.35809","population":15708}]