[{"name":"Berat","slug":"berat","region":"40","country":"AL","latitude":"40.70583","longitude":"19.95222","population":62232},{"name":"Bulqiz\u00eb","slug":"bulqize","region":"41","country":"AL","latitude":"41.49167","longitude":"20.22194","population":26826},{"name":"Durr\u00ebs","slug":"durres","region":"42","country":"AL","latitude":"41.32355","longitude":"19.45469","population":195920},{"name":"Elbasan","slug":"elbasan","region":"43","country":"AL","latitude":"41.11138","longitude":"20.08224","population":100903},{"name":"Fier","slug":"fier","region":"44","country":"AL","latitude":"40.7251","longitude":"19.55823","population":56297},{"name":"Fier-\u00c7if\u00e7i","slug":"fier-cifci","region":"44","country":"AL","latitude":"40.71667","longitude":"19.56667","population":60995},{"name":"Gjirokast\u00ebr","slug":"gjirokaster","region":"45","country":"AL","latitude":"40.07583","longitude":"20.13889","population":23437},{"name":"Kavaj\u00eb","slug":"kavaje","region":"50","country":"AL","latitude":"41.18556","longitude":"19.55694","population":30012},{"name":"Kor\u00e7\u00eb","slug":"korce","region":"46","country":"AL","latitude":"40.61861","longitude":"20.78083","population":58259},{"name":"Kruj\u00eb","slug":"kruje","region":"42","country":"AL","latitude":"41.50917","longitude":"19.79278","population":51191},{"name":"Kuk\u00ebs","slug":"kukes","region":"47","country":"AL","latitude":"42.07694","longitude":"20.42194","population":36125},{"name":"Ku\u00e7ov\u00eb","slug":"kucove","region":"40","country":"AL","latitude":"40.80028","longitude":"19.91667","population":31077},{"name":"Lezh\u00eb","slug":"lezhe","region":"48","country":"AL","latitude":"41.78361","longitude":"19.64361","population":18695},{"name":"Librazhd","slug":"librazhd","region":"43","country":"AL","latitude":"41.17944","longitude":"20.315","population":23312},{"name":"Lushnj\u00eb","slug":"lushnje","region":"44","country":"AL","latitude":"40.94194","longitude":"19.705","population":63135},{"name":"Patos","slug":"patos","region":"44","country":"AL","latitude":"40.68333","longitude":"19.61944","population":16000},{"name":"Patos Fshat","slug":"patos fshat","region":"44","country":"AL","latitude":"40.64278","longitude":"19.65083","population":22679},{"name":"Peqin","slug":"peqin","region":"43","country":"AL","latitude":"41.04611","longitude":"19.75111","population":16580},{"name":"Pogradec","slug":"pogradec","region":"46","country":"AL","latitude":"40.9025","longitude":"20.6525","population":46070},{"name":"Sarand\u00eb","slug":"sarande","region":"51","country":"AL","latitude":"39.87534","longitude":"20.00477","population":22613},{"name":"Shkod\u00ebr","slug":"shkoder","region":"49","country":"AL","latitude":"42.06828","longitude":"19.51258","population":95553},{"name":"Tirana","slug":"tirana","region":"50","country":"AL","latitude":"41.32744","longitude":"19.81866","population":418495},{"name":"Vlor\u00eb","slug":"vlore","region":"51","country":"AL","latitude":"40.4696","longitude":"19.48379","population":115261}]