[{"name":"Abovyan","slug":"abovyan","region":"05","country":"AM","latitude":"40.2717","longitude":"44.63342","population":47546},{"name":"Ajapnyak","slug":"ajapnyak","region":"11","country":"AM","latitude":"40.19917","longitude":"44.47056","population":122800},{"name":"Arabkir","slug":"arabkir","region":"11","country":"AM","latitude":"40.20624","longitude":"44.50365","population":119300},{"name":"Ararat","slug":"ararat","region":"02","country":"AM","latitude":"39.85494","longitude":"44.6947","population":16986},{"name":"Armavir","slug":"armavir","region":"03","country":"AM","latitude":"40.15553","longitude":"44.0388","population":29700},{"name":"Artashat","slug":"artashat","region":"02","country":"AM","latitude":"39.95484","longitude":"44.54874","population":22800},{"name":"Artik","slug":"artik","region":"07","country":"AM","latitude":"40.61918","longitude":"43.97207","population":18145},{"name":"Ashtarak","slug":"ashtarak","region":"01","country":"AM","latitude":"40.2976","longitude":"44.36152","population":17600},{"name":"Avan","slug":"avan","region":"11","country":"AM","latitude":"40.21436","longitude":"44.57846","population":58800},{"name":"Charentsavan","slug":"charentsavan","region":"05","country":"AM","latitude":"40.40289","longitude":"44.64447","population":22763},{"name":"Davtashen","slug":"davtashen","region":"11","country":"AM","latitude":"40.21642","longitude":"44.48088","population":52100},{"name":"Dilijan","slug":"dilijan","region":"09","country":"AM","latitude":"40.74037","longitude":"44.86344","population":16400},{"name":"Erebuni","slug":"erebuni","region":"11","country":"AM","latitude":"40.13309","longitude":"44.53009","population":129700},{"name":"Gavar","slug":"gavar","region":"04","country":"AM","latitude":"40.35398","longitude":"45.12386","population":18900},{"name":"Goris","slug":"goris","region":"08","country":"AM","latitude":"39.51111","longitude":"46.34168","population":17483},{"name":"Gyumri","slug":"gyumri","region":"07","country":"AM","latitude":"40.79305","longitude":"43.84635","population":114667},{"name":"Hrazdan","slug":"hrazdan","region":"05","country":"AM","latitude":"40.5169","longitude":"44.75591","population":49500},{"name":"Ijevan","slug":"ijevan","region":"09","country":"AM","latitude":"40.88037","longitude":"45.14776","population":19500},{"name":"Kanaker-Zeytun","slug":"kanaker-zeytun","region":"11","country":"AM","latitude":"40.22","longitude":"44.53833","population":75500},{"name":"Kapan","slug":"kapan","region":"08","country":"AM","latitude":"39.20762","longitude":"46.40678","population":32900},{"name":"Kentron","slug":"kentron","region":"11","country":"AM","latitude":"40.17806","longitude":"44.51303","population":133000},{"name":"Malatia-Sebastia","slug":"malatia-sebastia","region":"11","country":"AM","latitude":"40.17396","longitude":"44.4457","population":150500},{"name":"Masis","slug":"masis","region":"02","country":"AM","latitude":"40.06595","longitude":"44.43669","population":20774},{"name":"Nor Nork","slug":"nor nork","region":"11","country":"AM","latitude":"40.19661","longitude":"44.5669","population":137300},{"name":"Sevan","slug":"sevan","region":"04","country":"AM","latitude":"40.548","longitude":"44.95314","population":18951},{"name":"Shengavit","slug":"shengavit","region":"11","country":"AM","latitude":"40.1557","longitude":"44.4779","population":140600},{"name":"Vagharshapat","slug":"vagharshapat","region":"03","country":"AM","latitude":"40.16557","longitude":"44.29462","population":45842},{"name":"Vanadzor","slug":"vanadzor","region":"06","country":"AM","latitude":"40.8074","longitude":"44.49704","population":78100},{"name":"Yerevan","slug":"yerevan","region":"11","country":"AM","latitude":"40.17765","longitude":"44.5126","population":1144700}]