[{"name":"Alsergrund","slug":"alsergrund","region":"09","country":"AT","latitude":"48.22321","longitude":"16.35506","population":41645},{"name":"Amstetten","slug":"amstetten","region":"03","country":"AT","latitude":"48.1229","longitude":"14.87206","population":15559},{"name":"Andritz","slug":"andritz","region":"06","country":"AT","latitude":"47.11387","longitude":"15.42348","population":19020},{"name":"Aspern","slug":"aspern","region":"09","country":"AT","latitude":"48.21806","longitude":"16.48306","population":50687},{"name":"Baden","slug":"baden","region":"03","country":"AT","latitude":"48.00543","longitude":"16.23264","population":26286},{"name":"Bludenz","slug":"bludenz","region":"08","country":"AT","latitude":"47.15476","longitude":"9.82255","population":15102},{"name":"Bregenz","slug":"bregenz","region":"08","country":"AT","latitude":"47.50311","longitude":"9.7471","population":29806},{"name":"Brigittenau","slug":"brigittenau","region":"09","country":"AT","latitude":"48.24275","longitude":"16.37551","population":86967},{"name":"Donaustadt","slug":"donaustadt","region":"09","country":"AT","latitude":"48.2333","longitude":"16.46002","population":187007},{"name":"Dornbirn","slug":"dornbirn","region":"08","country":"AT","latitude":"47.41427","longitude":"9.74195","population":49278},{"name":"D\u00f6bling","slug":"doebling","region":"09","country":"AT","latitude":"48.25","longitude":"16.33333","population":75418},{"name":"Eggenberg","slug":"eggenberg","region":"06","country":"AT","latitude":"47.07","longitude":"15.39871","population":20511},{"name":"Essling","slug":"essling","region":"09","country":"AT","latitude":"48.21289","longitude":"16.52442","population":21200},{"name":"Favoriten","slug":"favoriten","region":"09","country":"AT","latitude":"48.16116","longitude":"16.38233","population":201882},{"name":"Feldkirch","slug":"feldkirch","region":"08","country":"AT","latitude":"47.23306","longitude":"9.6","population":33420},{"name":"Floridsdorf","slug":"floridsdorf","region":"09","country":"AT","latitude":"48.25","longitude":"16.4","population":162779},{"name":"F\u00fcnfhaus","slug":"fuenfhaus","region":"09","country":"AT","latitude":"48.19596","longitude":"16.3183","population":76396},{"name":"Geidorf","slug":"geidorf","region":"06","country":"AT","latitude":"47.08393","longitude":"15.444","population":24767},{"name":"Graz","slug":"graz","region":"06","country":"AT","latitude":"47.06733","longitude":"15.44197","population":303270},{"name":"Gries","slug":"gries","region":"06","country":"AT","latitude":"47.06236","longitude":"15.42421","population":29363},{"name":"Hernals","slug":"hernals","region":"09","country":"AT","latitude":"48.22544","longitude":"16.30871","population":57546},{"name":"Hietzing","slug":"hietzing","region":"09","country":"AT","latitude":"48.18623","longitude":"16.2965","population":54265},{"name":"Hohenems","slug":"hohenems","region":"08","country":"AT","latitude":"47.36121","longitude":"9.68694","population":16317},{"name":"H\u00f6tting","slug":"hoetting","region":"07","country":"AT","latitude":"47.26815","longitude":"11.36868","population":35043},{"name":"Innere Stadt","slug":"innere stadt","region":"09","country":"AT","latitude":"48.20906","longitude":"16.37135","population":16450},{"name":"Innsbruck","slug":"innsbruck","region":"07","country":"AT","latitude":"47.26266","longitude":"11.39454","population":132493},{"name":"Jakomini","slug":"jakomini","region":"06","country":"AT","latitude":"47.05441","longitude":"15.44984","population":32912},{"name":"Josefstadt","slug":"josefstadt","region":"09","country":"AT","latitude":"48.21243","longitude":"16.34549","population":24499},{"name":"Klagenfurt am W\u00f6rthersee","slug":"klagenfurt am woerthersee","region":"02","country":"AT","latitude":"46.62472","longitude":"14.30528","population":100316},{"name":"Klosterneuburg","slug":"klosterneuburg","region":"03","country":"AT","latitude":"48.30521","longitude":"16.32522","population":15614},{"name":"Landstra\u00dfe","slug":"landstrasse","region":"09","country":"AT","latitude":"48.2019","longitude":"16.38792","population":98389},{"name":"Lend","slug":"lend","region":"06","country":"AT","latitude":"47.08256","longitude":"15.41589","population":31147},{"name":"Linz","slug":"linz","region":"04","country":"AT","latitude":"48.30639","longitude":"14.28611","population":204846},{"name":"Lustenau","slug":"lustenau","region":"08","country":"AT","latitude":"47.42642","longitude":"9.65851","population":22821},{"name":"Margareten","slug":"margareten","region":"09","country":"AT","latitude":"48.1855","longitude":"16.35373","population":54412},{"name":"Mariahilf","slug":"mariahilf","region":"09","country":"AT","latitude":"48.19571","longitude":"16.35215","population":31381},{"name":"Meidling","slug":"meidling","region":"09","country":"AT","latitude":"48.16667","longitude":"16.33333","population":97624},{"name":"M\u00f6dling","slug":"moedling","region":"03","country":"AT","latitude":"48.08605","longitude":"16.28921","population":20555},{"name":"Neubau","slug":"neubau","region":"09","country":"AT","latitude":"48.20172","longitude":"16.34715","population":31521},{"name":"Ottakring","slug":"ottakring","region":"09","country":"AT","latitude":"48.21667","longitude":"16.3","population":104627},{"name":"Penzing","slug":"penzing","region":"09","country":"AT","latitude":"48.2","longitude":"16.26667","population":98176},{"name":"Perchtoldsdorf","slug":"perchtoldsdorf","region":"03","country":"AT","latitude":"48.11935","longitude":"16.26607","population":15047},{"name":"Pradl","slug":"pradl","region":"07","country":"AT","latitude":"47.26539","longitude":"11.4152","population":32588},{"name":"Saalfelden am Steinernen Meer","slug":"saalfelden am steinernen meer","region":"05","country":"AT","latitude":"47.42681","longitude":"12.848","population":16790},{"name":"Salzburg","slug":"salzburg","region":"05","country":"AT","latitude":"47.79941","longitude":"13.04399","population":157245},{"name":"Sankt Leonhard","slug":"sankt leonhard","region":"06","country":"AT","latitude":"47.06924","longitude":"15.45784","population":15853},{"name":"Sankt Martin","slug":"sankt martin","region":"02","country":"AT","latitude":"46.61667","longitude":"14.28333","population":20000},{"name":"Sankt Peter","slug":"sankt peter","region":"06","country":"AT","latitude":"47.05","longitude":"15.46667","population":15187},{"name":"Sankt Peter","slug":"sankt peter","region":"02","country":"AT","latitude":"46.62978","longitude":"14.34016","population":20320},{"name":"Sankt P\u00f6lten","slug":"sankt poelten","region":"03","country":"AT","latitude":"48.20762","longitude":"15.63725","population":21911},{"name":"Simmering","slug":"simmering","region":"09","country":"AT","latitude":"48.18333","longitude":"16.43333","population":101420},{"name":"Steyr","slug":"steyr","region":"04","country":"AT","latitude":"48.04274","longitude":"14.42127","population":38331},{"name":"Stockerau","slug":"stockerau","region":"03","country":"AT","latitude":"48.38333","longitude":"16.21667","population":16292},{"name":"Stra\u00dfgang","slug":"strassgang","region":"06","country":"AT","latitude":"47.03333","longitude":"15.4","population":16268},{"name":"Telfs","slug":"telfs","region":"07","country":"AT","latitude":"47.30707","longitude":"11.06817","population":15229},{"name":"Traun","slug":"traun","region":"04","country":"AT","latitude":"48.22086","longitude":"14.23833","population":25345},{"name":"Vienna","slug":"vienna","region":"09","country":"AT","latitude":"48.20849","longitude":"16.37208","population":1691468},{"name":"Villach","slug":"villach","region":"02","country":"AT","latitude":"46.61028","longitude":"13.85583","population":58882},{"name":"Wels","slug":"wels","region":"04","country":"AT","latitude":"48.16667","longitude":"14.03333","population":16857},{"name":"Wetzelsdorf","slug":"wetzelsdorf","region":"06","country":"AT","latitude":"47.05293","longitude":"15.39923","population":15687},{"name":"Wiener Neustadt","slug":"wiener neustadt","region":"03","country":"AT","latitude":"47.80485","longitude":"16.23196","population":44820},{"name":"Wilten","slug":"wilten","region":"07","country":"AT","latitude":"47.25829","longitude":"11.38808","population":18142},{"name":"Wolfsberg","slug":"wolfsberg","region":"02","country":"AT","latitude":"46.84056","longitude":"14.84417","population":25035},{"name":"W\u00e4hring","slug":"waehring","region":"09","country":"AT","latitude":"48.22611","longitude":"16.34484","population":51402}]