[{"name":"Agdzhabedy","slug":"agdzhabedy","region":"02","country":"AZ","latitude":"40.05015","longitude":"47.45937","population":43000},{"name":"Aghsu","slug":"aghsu","region":"06","country":"AZ","latitude":"40.57028","longitude":"48.40087","population":17209},{"name":"Amirdzhan","slug":"amirdzhan","region":"09","country":"AZ","latitude":"40.42639","longitude":"49.98361","population":28203},{"name":"Astara","slug":"astara","region":"08","country":"AZ","latitude":"38.45598","longitude":"48.87498","population":15190},{"name":"A\u011fdam","slug":"agdam","region":"03","country":"AZ","latitude":"39.99096","longitude":"46.92736","population":39451},{"name":"A\u011fda\u015f","slug":"agdas","region":"04","country":"AZ","latitude":"40.64699","longitude":"47.4738","population":23528},{"name":"Baku","slug":"baku","region":"09","country":"AZ","latitude":"40.37767","longitude":"49.89201","population":1116513},{"name":"Bak\u0131xanov","slug":"bakixanov","region":"09","country":"AZ","latitude":"40.41894","longitude":"49.96693","population":66686},{"name":"Barda","slug":"barda","region":"11","country":"AZ","latitude":"40.37577","longitude":"47.12619","population":37372},{"name":"Beylagan","slug":"beylagan","region":"12","country":"AZ","latitude":"39.77556","longitude":"47.61861","population":15599},{"name":"Bilajari","slug":"bilajari","region":"09","country":"AZ","latitude":"40.4444","longitude":"49.80566","population":42194},{"name":"Biny Selo","slug":"biny selo","region":"09","country":"AZ","latitude":"40.45076","longitude":"50.08686","population":24596},{"name":"Buzovna","slug":"buzovna","region":"09","country":"AZ","latitude":"40.51903","longitude":"50.11438","population":24795},{"name":"Divichibazar","slug":"divichibazar","region":"17","country":"AZ","latitude":"41.20117","longitude":"48.98712","population":23248},{"name":"Fizuli","slug":"fizuli","region":"18","country":"AZ","latitude":"39.60094","longitude":"47.14529","population":26765},{"name":"Ganja","slug":"ganja","region":"20","country":"AZ","latitude":"40.68157","longitude":"46.36134","population":335600},{"name":"G\u00f6yg\u00f6l","slug":"goygol","region":"62","country":"AZ","latitude":"40.58584","longitude":"46.3189","population":17816},{"name":"G\u00f6y\u00e7ay","slug":"goeycay","region":"22","country":"AZ","latitude":"40.65055","longitude":"47.74219","population":42500},{"name":"Hac\u0131 Zeynalabdin","slug":"haci zeynalabdin","region":"54","country":"AZ","latitude":"40.62333","longitude":"49.55861","population":19019},{"name":"Hac\u0131qabul","slug":"haciqabul","region":"23","country":"AZ","latitude":"40.03874","longitude":"48.94286","population":23102},{"name":"H\u00f6vsan","slug":"hovsan","region":"09","country":"AZ","latitude":"40.37444","longitude":"50.08528","population":36293},{"name":"Imishli","slug":"imishli","region":"24","country":"AZ","latitude":"39.87095","longitude":"48.05995","population":34178},{"name":"Jalilabad","slug":"jalilabad","region":"15","country":"AZ","latitude":"39.20963","longitude":"48.49186","population":36259},{"name":"Khirdalan","slug":"khirdalan","region":"01","country":"AZ","latitude":"40.44808","longitude":"49.75502","population":37949},{"name":"Kyurdarmir","slug":"kyurdarmir","region":"27","country":"AZ","latitude":"40.34257","longitude":"48.15649","population":19088},{"name":"Lankaran","slug":"lankaran","region":"29","country":"AZ","latitude":"38.75428","longitude":"48.85062","population":240300},{"name":"Lerik","slug":"lerik","region":"31","country":"AZ","latitude":"38.77388","longitude":"48.41497","population":87000},{"name":"Lokbatan","slug":"lokbatan","region":"09","country":"AZ","latitude":"40.3256","longitude":"49.73376","population":30694},{"name":"Mardakan","slug":"mardakan","region":"09","country":"AZ","latitude":"40.49182","longitude":"50.14292","population":15267},{"name":"Ma\u015fta\u011fa","slug":"mastaga","region":"09","country":"AZ","latitude":"40.52983","longitude":"50.00616","population":40092},{"name":"Mingachevir","slug":"mingachevir","region":"33","country":"AZ","latitude":"40.76422","longitude":"47.06227","population":106048},{"name":"Nax\u00e7\u0131van","slug":"naxcivan","region":"35","country":"AZ","latitude":"39.20889","longitude":"45.41222","population":97200},{"name":"Neft\u00e7ala","slug":"neftcala","region":"36","country":"AZ","latitude":"39.3768","longitude":"49.247","population":18661},{"name":"Pushkino","slug":"pushkino","region":"13","country":"AZ","latitude":"39.45833","longitude":"48.545","population":18182},{"name":"Qara\u00e7uxur","slug":"qaracuxur","region":"09","country":"AZ","latitude":"40.39667","longitude":"49.97361","population":87349},{"name":"Qazax","slug":"qazax","region":"40","country":"AZ","latitude":"41.09246","longitude":"45.36561","population":18903},{"name":"Quba","slug":"quba","region":"42","country":"AZ","latitude":"41.36108","longitude":"48.51341","population":22405},{"name":"Qusar","slug":"qusar","region":"44","country":"AZ","latitude":"41.4275","longitude":"48.4302","population":16022},{"name":"Saatl\u0131","slug":"saatli","region":"45","country":"AZ","latitude":"39.93214","longitude":"48.36892","population":87000},{"name":"Sabirabad","slug":"sabirabad","region":"46","country":"AZ","latitude":"40.00869","longitude":"48.47701","population":30612},{"name":"Sabun\u00e7u","slug":"sabuncu","region":"09","country":"AZ","latitude":"40.4425","longitude":"49.94806","population":20996},{"name":"Salyan","slug":"salyan","region":"49","country":"AZ","latitude":"39.59621","longitude":"48.98479","population":36555},{"name":"Shamakhi","slug":"shamakhi","region":"50","country":"AZ","latitude":"40.63141","longitude":"48.64137","population":29403},{"name":"Shamkhor","slug":"shamkhor","region":"51","country":"AZ","latitude":"40.82975","longitude":"46.0178","population":35421},{"name":"Sheki","slug":"sheki","region":"48","country":"AZ","latitude":"41.19194","longitude":"47.17056","population":68400},{"name":"Sumqay\u0131t","slug":"sumqayit","region":"54","country":"AZ","latitude":"40.58972","longitude":"49.66861","population":358675},{"name":"Terter","slug":"terter","region":"57","country":"AZ","latitude":"40.34201","longitude":"46.93161","population":18185},{"name":"Tovuz","slug":"tovuz","region":"58","country":"AZ","latitude":"40.99249","longitude":"45.62838","population":177200},{"name":"Ujar","slug":"ujar","region":"59","country":"AZ","latitude":"40.51902","longitude":"47.65423","population":15741},{"name":"Xa\u00e7maz","slug":"xacmaz","region":"60","country":"AZ","latitude":"41.46426","longitude":"48.80565","population":37175},{"name":"Yeni Suraxan\u0131","slug":"yeni suraxani","region":"09","country":"AZ","latitude":"40.43026","longitude":"50.03598","population":16127},{"name":"Yevlakh","slug":"yevlakh","region":"68","country":"AZ","latitude":"40.61832","longitude":"47.15014","population":127400},{"name":"Zabrat","slug":"zabrat","region":"09","country":"AZ","latitude":"40.47746","longitude":"49.94174","population":21396},{"name":"Zaqatala","slug":"zaqatala","region":"70","country":"AZ","latitude":"41.6316","longitude":"46.64479","population":32171},{"name":"\u0130smay\u0131ll\u0131","slug":"ismayilli","region":"25","country":"AZ","latitude":"40.78485","longitude":"48.15141","population":28776},{"name":"\u015eirvan","slug":"sirvan","region":"07","country":"AZ","latitude":"39.93778","longitude":"48.929","population":70220},{"name":"\u015eu\u015fa","slug":"susa","region":"55","country":"AZ","latitude":"39.76006","longitude":"46.74989","population":18662},{"name":"\u018fhm\u0259db\u0259yli","slug":"ahmadbayli","region":"45","country":"AZ","latitude":"39.88074","longitude":"48.39158","population":17242}]