[{"name":"Ashuganj City","slug":"ashuganj city","region":"84","country":"BD","latitude":"24.04016","longitude":"91.0117","population":210356},{"name":"Ayla Patakata","slug":"ayla patakata","region":"85","country":"BD","latitude":"22.21726","longitude":"90.20959","population":19782},{"name":"Azimpur","slug":"azimpur","region":"81","country":"BD","latitude":"23.7298","longitude":"90.3854","population":96641},{"name":"Badarganj","slug":"badarganj","region":"87","country":"BD","latitude":"25.67419","longitude":"89.05377","population":32600},{"name":"Bagerhat","slug":"bagerhat","region":"82","country":"BD","latitude":"22.65657","longitude":"89.79123","population":266388},{"name":"Baniachang","slug":"baniachang","region":"86","country":"BD","latitude":"24.51863","longitude":"91.35787","population":37807},{"name":"Barishal","slug":"barishal","region":"85","country":"BD","latitude":"22.70497","longitude":"90.37013","population":202242},{"name":"Bera","slug":"bera","region":"83","country":"BD","latitude":"24.07821","longitude":"89.63262","population":39604},{"name":"Bhairab B\u0101z\u0101r","slug":"bhairab bazar","region":"81","country":"BD","latitude":"24.0524","longitude":"90.9764","population":105457},{"name":"Bhanga","slug":"bhanga","region":"81","country":"BD","latitude":"23.39194","longitude":"89.98389","population":43202},{"name":"Bhatara","slug":"bhatara","region":"81","country":"BD","latitude":"23.8","longitude":"90.45","population":324300},{"name":"Bher\u0101m\u0101ra","slug":"bheramara","region":"82","country":"BD","latitude":"24.02452","longitude":"88.99234","population":38159},{"name":"Bhola","slug":"bhola","region":"85","country":"BD","latitude":"22.68759","longitude":"90.64403","population":99079},{"name":"Bh\u0101nd\u0101ria","slug":"bhandaria","region":"85","country":"BD","latitude":"22.48898","longitude":"90.06273","population":30219},{"name":"Bh\u0101tp\u0101ra Abhaynagar","slug":"bhatpara abhaynagar","region":"82","country":"BD","latitude":"23.01472","longitude":"89.43936","population":42653},{"name":"Bibir Hat","slug":"bibir hat","region":"84","country":"BD","latitude":"22.68347","longitude":"91.79058","population":89030},{"name":"Bogra","slug":"bogra","region":"83","country":"BD","latitude":"24.85098","longitude":"89.37108","population":210000},{"name":"Br\u0101hmanb\u0101ria","slug":"brahmanbaria","region":"84","country":"BD","latitude":"23.97464","longitude":"91.11228","population":264326},{"name":"Burh\u0101nuddin","slug":"burhanuddin","region":"85","country":"BD","latitude":"22.49518","longitude":"90.72391","population":45670},{"name":"Burirchar","slug":"burirchar","region":"85","country":"BD","latitude":"22.13991","longitude":"90.20636","population":29542},{"name":"B\u0101jitpur","slug":"bajitpur","region":"81","country":"BD","latitude":"24.21623","longitude":"90.95002","population":34560},{"name":"B\u0101ndarban","slug":"bandarban","region":"84","country":"BD","latitude":"22.19534","longitude":"92.21946","population":495272},{"name":"Char Bhadr\u0101san","slug":"char bhadrasan","region":"81","country":"BD","latitude":"23.30916","longitude":"90.22698","population":34423},{"name":"Char\u0101maddi","slug":"charamaddi","region":"85","country":"BD","latitude":"22.642","longitude":"90.42598","population":18122},{"name":"Chattogram","slug":"chattogram","region":"84","country":"BD","latitude":"22.3384","longitude":"91.83168","population":3920222},{"name":"Chh\u0101galn\u0101iya","slug":"chhagalnaiya","region":"84","country":"BD","latitude":"23.02475","longitude":"91.51091","population":39335},{"name":"Chh\u0101tak","slug":"chhatak","region":"86","country":"BD","latitude":"25.03852","longitude":"91.66958","population":39218},{"name":"Chilm\u0101ri","slug":"chilmari","region":"87","country":"BD","latitude":"25.55613","longitude":"89.67097","population":49736},{"name":"Ch\u0101ndpur","slug":"chandpur","region":"84","country":"BD","latitude":"23.22714","longitude":"90.65433","population":203000},{"name":"Comilla","slug":"comilla","region":"84","country":"BD","latitude":"23.46186","longitude":"91.18503","population":1030000},{"name":"Cox\u2019s B\u0101z\u0101r","slug":"cox's bazar","region":"84","country":"BD","latitude":"21.43973","longitude":"92.00955","population":253788},{"name":"Dhaka","slug":"dhaka","region":"81","country":"BD","latitude":"23.7104","longitude":"90.40744","population":10356500},{"name":"Dhanmondi","slug":"dhanmondi","region":"81","country":"BD","latitude":"23.74","longitude":"90.385","population":54210},{"name":"Dinajpur","slug":"dinajpur","region":"87","country":"BD","latitude":"25.62745","longitude":"88.63779","population":206234},{"name":"Dohaz\u0101ri","slug":"dohazari","region":"84","country":"BD","latitude":"22.16385","longitude":"92.07333","population":40147},{"name":"Doh\u0101r","slug":"dohar","region":"81","country":"BD","latitude":"23.59311","longitude":"90.14251","population":45543},{"name":"Dukuria","slug":"dukuria","region":"81","country":"BD","latitude":"23.71095","longitude":"90.37414","population":37894},{"name":"Far\u012bdpur","slug":"faridpur","region":"81","country":"BD","latitude":"23.60612","longitude":"89.84064","population":112187},{"name":"Feni","slug":"feni","region":"84","country":"BD","latitude":"23.0144","longitude":"91.3966","population":84028},{"name":"Gafargaon","slug":"gafargaon","region":"H","country":"BD","latitude":"24.432","longitude":"90.5585","population":34177},{"name":"Gaurnadi","slug":"gaurnadi","region":"85","country":"BD","latitude":"22.97372","longitude":"90.22376","population":40519},{"name":"Gazipur","slug":"gazipur","region":"81","country":"BD","latitude":"23.99844","longitude":"90.42234","population":2674697},{"name":"Gop\u0101lganj","slug":"gopalganj","region":"81","country":"BD","latitude":"23.22348","longitude":"90.06041","population":51346},{"name":"Habiganj","slug":"habiganj","region":"86","country":"BD","latitude":"24.38044","longitude":"91.41299","population":88760},{"name":"H\u0101j\u012bganj","slug":"hajiganj","region":"84","country":"BD","latitude":"23.25191","longitude":"90.85508","population":44343},{"name":"H\u0101thaz\u0101ri","slug":"hathazari","region":"84","country":"BD","latitude":"22.50515","longitude":"91.81339","population":498179},{"name":"Ishwardi","slug":"ishwardi","region":"83","country":"BD","latitude":"24.12858","longitude":"89.06573","population":81995},{"name":"Jam\u0101lpur","slug":"jamalpur","region":"H","country":"BD","latitude":"24.91965","longitude":"89.94812","population":167900},{"name":"Jessore","slug":"jessore","region":"82","country":"BD","latitude":"23.16971","longitude":"89.21371","population":243987},{"name":"Jhingerg\u0101cha","slug":"jhingergacha","region":"82","country":"BD","latitude":"23.11134","longitude":"89.09061","population":41957},{"name":"Joypur H\u0101t","slug":"joypur hat","region":"83","country":"BD","latitude":"25.10147","longitude":"89.02734","population":73068},{"name":"Kafrul","slug":"kafrul","region":"81","country":"BD","latitude":"23.78822","longitude":"90.37359","population":339734},{"name":"Karnaphuli","slug":"karnaphuli","region":"84","country":"BD","latitude":"22.69056","longitude":"92.23472","population":203697},{"name":"Kesabpur","slug":"kesabpur","region":"82","country":"BD","latitude":"22.90725","longitude":"89.21954","population":30926},{"name":"Khagrachhari","slug":"khagrachhari","region":"84","country":"BD","latitude":"23.10787","longitude":"91.97007","population":50364},{"name":"Khulna","slug":"khulna","region":"82","country":"BD","latitude":"22.80979","longitude":"89.56439","population":1500689},{"name":"Kishorganj","slug":"kishorganj","region":"81","country":"BD","latitude":"24.43944","longitude":"90.78291","population":90690},{"name":"Kushtia","slug":"kushtia","region":"82","country":"BD","latitude":"23.9028","longitude":"89.11943","population":135724},{"name":"K\u0101lia","slug":"kalia","region":"82","country":"BD","latitude":"23.043","longitude":"89.63094","population":40492},{"name":"K\u0101l\u012bganj","slug":"kaliganj","region":"82","country":"BD","latitude":"23.40964","longitude":"89.13801","population":45631},{"name":"Lakshm\u012bpur","slug":"lakshmipur","region":"84","country":"BD","latitude":"22.9443","longitude":"90.83005","population":61703},{"name":"Lalmonirhat","slug":"lalmonirhat","region":"87","country":"BD","latitude":"25.91719","longitude":"89.44595","population":65127},{"name":"L\u0101ksh\u0101m","slug":"laksham","region":"84","country":"BD","latitude":"23.24018","longitude":"91.12143","population":82290},{"name":"L\u0101lmohan","slug":"lalmohan","region":"85","country":"BD","latitude":"22.33774","longitude":"90.73708","population":42220},{"name":"Madaripur","slug":"madaripur","region":"81","country":"BD","latitude":"23.17097","longitude":"90.20935","population":84789},{"name":"Maijdi","slug":"maijdi","region":"84","country":"BD","latitude":"22.86667","longitude":"91.1","population":132185},{"name":"Manikchari","slug":"manikchari","region":"84","country":"BD","latitude":"22.83957","longitude":"91.84128","population":24813},{"name":"Mathba","slug":"mathba","region":"85","country":"BD","latitude":"22.28616","longitude":"89.95883","population":29760},{"name":"Maulavi B\u0101z\u0101r","slug":"maulavi bazar","region":"86","country":"BD","latitude":"24.48888","longitude":"91.77075","population":57441},{"name":"Mehendiganj","slug":"mehendiganj","region":"85","country":"BD","latitude":"22.82257","longitude":"90.52859","population":39424},{"name":"Mirpur Model Thana","slug":"mirpur model thana","region":"81","country":"BD","latitude":"23.80931","longitude":"90.36093","population":546503},{"name":"Mirz\u0101pur","slug":"mirzapur","region":"81","country":"BD","latitude":"24.10287","longitude":"90.09841","population":41137},{"name":"Mohammadpur","slug":"mohammadpur","region":"83","country":"BD","latitude":"24.89843","longitude":"88.52844","population":527571},{"name":"Morrelgonj","slug":"morrelgonj","region":"82","country":"BD","latitude":"22.45566","longitude":"89.85584","population":31647},{"name":"Motijheel","slug":"motijheel","region":"81","country":"BD","latitude":"23.72772","longitude":"90.41919","population":202308},{"name":"Mukt\u0101g\u0101cha","slug":"muktagacha","region":"H","country":"BD","latitude":"24.76484","longitude":"90.25698","population":24684},{"name":"Mymensingh","slug":"mymensingh","region":"H","country":"BD","latitude":"24.75636","longitude":"90.40646","population":225126},{"name":"M\u0101nikganj","slug":"manikganj","region":"81","country":"BD","latitude":"23.85768","longitude":"90.00957","population":71698},{"name":"M\u0101tuail","slug":"matuail","region":"81","country":"BD","latitude":"23.71211","longitude":"90.45983","population":34310},{"name":"Nab\u012bnagar","slug":"nabinagar","region":"84","country":"BD","latitude":"23.88791","longitude":"90.96792","population":31671},{"name":"Nagar Nalu\u0101kot","slug":"nagar naluakot","region":"81","country":"BD","latitude":"24.15608","longitude":"90.7728","population":273000},{"name":"Nageswari","slug":"nageswari","region":"87","country":"BD","latitude":"25.96817","longitude":"89.69153","population":49425},{"name":"Narail","slug":"narail","region":"82","country":"BD","latitude":"23.15509","longitude":"89.49515","population":55112},{"name":"Narayanganj","slug":"narayanganj","region":"81","country":"BD","latitude":"23.61352","longitude":"90.50298","population":223622},{"name":"Narsingdi","slug":"narsingdi","region":"81","country":"BD","latitude":"23.92298","longitude":"90.71768","population":281080},{"name":"Natona","slug":"natona","region":"85","country":"BD","latitude":"22.05128","longitude":"90.03197","population":19705},{"name":"Natore","slug":"natore","region":"83","country":"BD","latitude":"24.41112","longitude":"88.98673","population":369138},{"name":"Naw\u0101bganj","slug":"nawabganj","region":"83","country":"BD","latitude":"24.59025","longitude":"88.27444","population":142361},{"name":"Netrakona","slug":"netrakona","region":"H","country":"BD","latitude":"24.88352","longitude":"90.72898","population":79016},{"name":"N\u0101garpur","slug":"nagarpur","region":"81","country":"BD","latitude":"24.05783","longitude":"89.87696","population":238422},{"name":"N\u0101lchiti","slug":"nalchiti","region":"85","country":"BD","latitude":"22.63696","longitude":"90.27195","population":38703},{"name":"Pallabi","slug":"pallabi","region":"81","country":"BD","latitude":"23.825","longitude":"90.37","population":597574},{"name":"Paltan","slug":"paltan","region":"81","country":"BD","latitude":"23.73625","longitude":"90.41426","population":184492},{"name":"Panchagarh","slug":"panchagarh","region":"87","country":"BD","latitude":"26.33338","longitude":"88.55777","population":48531},{"name":"Paotana Hat","slug":"paotana hat","region":"87","country":"BD","latitude":"25.66473","longitude":"89.5026","population":45911},{"name":"Parbatipur","slug":"parbatipur","region":"87","country":"BD","latitude":"25.66369","longitude":"88.93093","population":48020},{"name":"Patiya","slug":"patiya","region":"84","country":"BD","latitude":"22.29543","longitude":"91.979","population":51360},{"name":"Patuakhali","slug":"patuakhali","region":"85","country":"BD","latitude":"22.36833","longitude":"90.3458","population":65000},{"name":"Phultala","slug":"phultala","region":"82","country":"BD","latitude":"22.71673","longitude":"89.51194","population":37985},{"name":"Pirojpur","slug":"pirojpur","region":"85","country":"BD","latitude":"22.57965","longitude":"89.97521","population":54418},{"name":"Puthia","slug":"puthia","region":"83","country":"BD","latitude":"24.36537","longitude":"88.83431","population":159406},{"name":"P\u0101bna","slug":"pabna","region":"83","country":"BD","latitude":"24.00644","longitude":"89.2372","population":186781},{"name":"P\u0101lang","slug":"palang","region":"81","country":"BD","latitude":"23.21824","longitude":"90.35076","population":67652},{"name":"P\u0101r Naogaon","slug":"par naogaon","region":"83","country":"BD","latitude":"24.80418","longitude":"88.94875","population":192464},{"name":"P\u012brgaaj","slug":"pirgaaj","region":"87","country":"BD","latitude":"25.85587","longitude":"88.35943","population":34606},{"name":"Rajshahi","slug":"rajshahi","region":"83","country":"BD","latitude":"24.374","longitude":"88.60114","population":763580},{"name":"Ramna Maidan","slug":"ramna maidan","region":"81","country":"BD","latitude":"23.73333","longitude":"90.4","population":143677},{"name":"Rangamati","slug":"rangamati","region":"84","country":"BD","latitude":"22.64317","longitude":"92.19186","population":106069},{"name":"Rangpur","slug":"rangpur","region":"87","country":"BD","latitude":"25.74664","longitude":"89.25166","population":1031388},{"name":"Raoj\u0101n","slug":"raojan","region":"84","country":"BD","latitude":"22.53511","longitude":"91.91919","population":25708},{"name":"R\u0101ipur","slug":"raipur","region":"84","country":"BD","latitude":"23.0391","longitude":"90.76808","population":64652},{"name":"R\u0101mganj","slug":"ramganj","region":"84","country":"BD","latitude":"23.1006","longitude":"90.84989","population":55241},{"name":"Saidpur","slug":"saidpur","region":"87","country":"BD","latitude":"25.77769","longitude":"88.89169","population":199422},{"name":"Sakhipur","slug":"sakhipur","region":"81","country":"BD","latitude":"24.31988","longitude":"90.16943","population":40869},{"name":"Sandw\u012bp","slug":"sandwip","region":"84","country":"BD","latitude":"22.51409","longitude":"91.45491","population":52152},{"name":"Sarankhola","slug":"sarankhola","region":"82","country":"BD","latitude":"22.31006","longitude":"89.79113","population":36470},{"name":"Sarish\u0101b\u0101ri","slug":"sarishabari","region":"H","country":"BD","latitude":"24.75127","longitude":"89.83126","population":81325},{"name":"Savar","slug":"savar","region":"81","country":"BD","latitude":"23.84858","longitude":"90.25002","population":286008},{"name":"Sherpur","slug":"sherpur","region":"H","country":"BD","latitude":"25.01881","longitude":"90.01751","population":107419},{"name":"Shibganj","slug":"shibganj","region":"83","country":"BD","latitude":"25.00146","longitude":"89.32266","population":378701},{"name":"Shibganj","slug":"shibganj","region":"83","country":"BD","latitude":"24.68501","longitude":"88.15638","population":35961},{"name":"Sh\u0101hb\u0101zpur Town","slug":"shahbazpur town","region":"84","country":"BD","latitude":"24.05296","longitude":"91.17193","population":29757},{"name":"Sh\u0101hz\u0101dpur","slug":"shahzadpur","region":"83","country":"BD","latitude":"24.17687","longitude":"89.5988","population":102420},{"name":"Sirajganj","slug":"sirajganj","region":"83","country":"BD","latitude":"24.45771","longitude":"89.70802","population":127481},{"name":"Son\u0101rgaon","slug":"sonargaon","region":"81","country":"BD","latitude":"23.65","longitude":"90.61667","population":130000},{"name":"Srimangal","slug":"srimangal","region":"86","country":"BD","latitude":"24.30652","longitude":"91.72955","population":23332},{"name":"Sun\u0101mganj","slug":"sunamganj","region":"86","country":"BD","latitude":"25.06889","longitude":"91.40243","population":74570},{"name":"Sylhet","slug":"sylhet","region":"86","country":"BD","latitude":"24.89904","longitude":"91.87198","population":237000},{"name":"S\u0101tkania","slug":"satkania","region":"84","country":"BD","latitude":"22.07639","longitude":"92.04955","population":52005},{"name":"S\u0101tkhira","slug":"satkhira","region":"82","country":"BD","latitude":"22.70817","longitude":"89.07185","population":128918},{"name":"Taluker Char Doani","slug":"taluker char doani","region":"82","country":"BD","latitude":"22.14002","longitude":"89.94137","population":24563},{"name":"Tangail","slug":"tangail","region":"81","country":"BD","latitude":"24.24984","longitude":"89.91655","population":180144},{"name":"Tekn\u0101f","slug":"teknaf","region":"84","country":"BD","latitude":"20.85829","longitude":"92.29773","population":40557},{"name":"Th\u0101kurgaon","slug":"thakurgaon","region":"87","country":"BD","latitude":"26.03097","longitude":"88.46989","population":71096},{"name":"Tungi","slug":"tungi","region":"81","country":"BD","latitude":"23.89154","longitude":"90.40232","population":337579},{"name":"Tungipara","slug":"tungipara","region":"81","country":"BD","latitude":"22.89983","longitude":"89.90326","population":114482},{"name":"Uttar Char Fasson","slug":"uttar char fasson","region":"82","country":"BD","latitude":"22.22647","longitude":"90.71275","population":48305}]