[{"name":"Al Muharraq","slug":"al muharraq","region":"15","country":"BH","latitude":"26.25722","longitude":"50.61194","population":176583},{"name":"Ar Rif\u0101\u2018","slug":"ar rifa'","region":"17","country":"BH","latitude":"26.13","longitude":"50.555","population":115495},{"name":"D\u0101r Kulayb","slug":"dar kulayb","region":"17","country":"BH","latitude":"26.06861","longitude":"50.50389","population":65466},{"name":"Jidd \u1e28af\u015f","slug":"jidd hafs","region":"16","country":"BH","latitude":"26.21861","longitude":"50.54778","population":66588},{"name":"Mad\u012bnat \u1e28amad","slug":"madinat hamad","region":"19","country":"BH","latitude":"26.11528","longitude":"50.50694","population":133550},{"name":"Mad\u012bnat \u2018\u012as\u00e1","slug":"madinat `isa","region":"17","country":"BH","latitude":"26.17361","longitude":"50.54778","population":38090},{"name":"Manama","slug":"manama","region":"16","country":"BH","latitude":"26.22787","longitude":"50.58565","population":147074},{"name":"Sitrah","slug":"sitrah","region":"16","country":"BH","latitude":"26.15472","longitude":"50.62056","population":72601}]