[{"name":"Bandar Seri Begawan","slug":"bandar seri begawan","region":"02","country":"BN","latitude":"4.89035","longitude":"114.94006","population":64409},{"name":"Kuala Belait","slug":"kuala belait","region":"01","country":"BN","latitude":"4.58361","longitude":"114.2312","population":31178},{"name":"Liang","slug":"liang","region":"01","country":"BN","latitude":"4.67747","longitude":"114.49587","population":16813},{"name":"Mentiri","slug":"mentiri","region":"02","country":"BN","latitude":"4.97058","longitude":"115.02078","population":39324},{"name":"Sengkurong","slug":"sengkurong","region":"02","country":"BN","latitude":"4.88333","longitude":"114.83333","population":40972},{"name":"Serasa","slug":"serasa","region":"02","country":"BN","latitude":"5.01761","longitude":"115.05798","population":18569},{"name":"Seria","slug":"seria","region":"01","country":"BN","latitude":"4.60637","longitude":"114.32476","population":30097},{"name":"Tutong","slug":"tutong","region":"04","country":"BN","latitude":"4.80278","longitude":"114.64917","population":19151}]