[{"name":"Abreus","slug":"abreus","region":"08","country":"CU","latitude":"22.27797","longitude":"-80.56931","population":16711},{"name":"Aguada de Pasajeros","slug":"aguada de pasajeros","region":"08","country":"CU","latitude":"22.3852","longitude":"-80.84792","population":23606},{"name":"Alamar","slug":"alamar","region":"02","country":"CU","latitude":"23.15794","longitude":"-82.27837","population":100000},{"name":"Almendares","slug":"almendares","region":"02","country":"CU","latitude":"23.11012","longitude":"-82.42322","population":240000},{"name":"Alqu\u00edzar","slug":"alquizar","region":"AR","country":"CU","latitude":"22.80517","longitude":"-82.58392","population":15275},{"name":"Amancio","slug":"amancio","region":"13","country":"CU","latitude":"20.81914","longitude":"-77.57958","population":41523},{"name":"Arroyo Naranjo","slug":"arroyo naranjo","region":"02","country":"CU","latitude":"23.03811","longitude":"-82.37703","population":210053},{"name":"Artemisa","slug":"artemisa","region":"AR","country":"CU","latitude":"22.81366","longitude":"-82.75814","population":68073},{"name":"Bah\u00eda Honda","slug":"bahia honda","region":"AR","country":"CU","latitude":"22.90332","longitude":"-83.15994","population":19834},{"name":"Balc\u00f3n de la Lisa","slug":"balcon de la lisa","region":"02","country":"CU","latitude":"23.05346","longitude":"-82.4476","population":147415},{"name":"Banes","slug":"banes","region":"12","country":"CU","latitude":"20.96116","longitude":"-75.722","population":53104},{"name":"Baracoa","slug":"baracoa","region":"10","country":"CU","latitude":"20.34711","longitude":"-74.49624","population":48362},{"name":"Baragu\u00e1","slug":"baragua","region":"07","country":"CU","latitude":"21.68216","longitude":"-78.62567","population":15268},{"name":"Bartolom\u00e9 Mas\u00f3","slug":"bartolome maso","region":"09","country":"CU","latitude":"20.16635","longitude":"-76.94291","population":53024},{"name":"Bauta","slug":"bauta","region":"AR","country":"CU","latitude":"22.98226","longitude":"-82.54719","population":45768},{"name":"Bayamo","slug":"bayamo","region":"09","country":"CU","latitude":"20.37368","longitude":"-76.64272","population":192632},{"name":"Bejucal","slug":"bejucal","region":"MA","country":"CU","latitude":"22.92861","longitude":"-82.38861","population":18123},{"name":"Boyeros","slug":"boyeros","region":"02","country":"CU","latitude":"23.0072","longitude":"-82.4017","population":188593},{"name":"Cabaigu\u00e1n","slug":"cabaiguan","region":"14","country":"CU","latitude":"22.07874","longitude":"-79.49726","population":44515},{"name":"Cacocum","slug":"cacocum","region":"12","country":"CU","latitude":"20.73775","longitude":"-76.32574","population":42623},{"name":"Caibari\u00e9n","slug":"caibarien","region":"16","country":"CU","latitude":"22.51996","longitude":"-79.46599","population":39140},{"name":"Calimete","slug":"calimete","region":"03","country":"CU","latitude":"22.5342","longitude":"-80.91105","population":23255},{"name":"Camag\u00fcey","slug":"camagueey","region":"05","country":"CU","latitude":"21.38083","longitude":"-77.91694","population":347562},{"name":"Camajuan\u00ed","slug":"camajuani","region":"16","country":"CU","latitude":"22.48333","longitude":"-79.75","population":35515},{"name":"Campechuela","slug":"campechuela","region":"09","country":"CU","latitude":"20.23329","longitude":"-77.2799","population":25069},{"name":"Cauto Cristo","slug":"cauto cristo","region":"09","country":"CU","latitude":"20.55709","longitude":"-76.4727","population":21159},{"name":"Centro Habana","slug":"centro habana","region":"02","country":"CU","latitude":"23.13833","longitude":"-82.36417","population":158151},{"name":"Cerro","slug":"cerro","region":"02","country":"CU","latitude":"23.10809","longitude":"-82.3866","population":132351},{"name":"Chambas","slug":"chambas","region":"07","country":"CU","latitude":"22.19534","longitude":"-78.9123","population":24114},{"name":"Ciego de \u00c1vila","slug":"ciego de avila","region":"07","country":"CU","latitude":"21.8422","longitude":"-78.76034","population":142027},{"name":"Cienfuegos","slug":"cienfuegos","region":"08","country":"CU","latitude":"22.14681","longitude":"-80.4481","population":186644},{"name":"Cifuentes","slug":"cifuentes","region":"16","country":"CU","latitude":"22.6493","longitude":"-80.04935","population":40142},{"name":"Ciro Redondo","slug":"ciro redondo","region":"07","country":"CU","latitude":"22.01921","longitude":"-78.70365","population":29560},{"name":"Ciudad Camilo Cienfuegos","slug":"ciudad camilo cienfuegos","region":"02","country":"CU","latitude":"23.16076","longitude":"-82.32798","population":178041},{"name":"Coj\u00edmar","slug":"cojimar","region":"02","country":"CU","latitude":"23.16481","longitude":"-82.30116","population":20390},{"name":"Colombia","slug":"colombia","region":"13","country":"CU","latitude":"20.98812","longitude":"-77.42598","population":20096},{"name":"Col\u00f3n","slug":"colon","region":"03","country":"CU","latitude":"22.72064","longitude":"-80.90492","population":63882},{"name":"Condado","slug":"condado","region":"14","country":"CU","latitude":"21.8767","longitude":"-79.84014","population":38248},{"name":"Consolaci\u00f3n del Sur","slug":"consolacion del sur","region":"01","country":"CU","latitude":"22.50419","longitude":"-83.51442","population":69857},{"name":"Contramaestre","slug":"contramaestre","region":"15","country":"CU","latitude":"20.29879","longitude":"-76.24511","population":70438},{"name":"Corralillo","slug":"corralillo","region":"16","country":"CU","latitude":"22.98212","longitude":"-80.58556","population":51881},{"name":"Cruces","slug":"cruces","region":"08","country":"CU","latitude":"22.34203","longitude":"-80.27021","population":24906},{"name":"Cueto","slug":"cueto","region":"12","country":"CU","latitude":"20.64855","longitude":"-75.92967","population":26527},{"name":"Cumanayagua","slug":"cumanayagua","region":"08","country":"CU","latitude":"22.15247","longitude":"-80.20354","population":38687},{"name":"C\u00e1rdenas","slug":"cardenas","region":"03","country":"CU","latitude":"23.03661","longitude":"-81.20596","population":98515},{"name":"Diez de Octubre","slug":"diez de octubre","region":"02","country":"CU","latitude":"23.0881","longitude":"-82.3597","population":227293},{"name":"Encrucijada","slug":"encrucijada","region":"16","country":"CU","latitude":"22.61802","longitude":"-79.86603","population":26155},{"name":"Esmeralda","slug":"esmeralda","region":"05","country":"CU","latitude":"21.85139","longitude":"-78.11725","population":20274},{"name":"Florencia","slug":"florencia","region":"07","country":"CU","latitude":"22.1461","longitude":"-78.97328","population":19811},{"name":"Florida","slug":"florida","region":"05","country":"CU","latitude":"21.52536","longitude":"-78.22579","population":63007},{"name":"Fomento","slug":"fomento","region":"14","country":"CU","latitude":"22.10475","longitude":"-79.72141","population":19991},{"name":"Fontanar","slug":"fontanar","region":"02","country":"CU","latitude":"23.02389","longitude":"-82.408","population":178601},{"name":"Gibara","slug":"gibara","region":"12","country":"CU","latitude":"21.10988","longitude":"-76.13145","population":27603},{"name":"Guanabacoa","slug":"guanabacoa","region":"02","country":"CU","latitude":"23.12518","longitude":"-82.30067","population":112964},{"name":"Guanajay","slug":"guanajay","region":"AR","country":"CU","latitude":"22.92616","longitude":"-82.68687","population":25258},{"name":"Guane","slug":"guane","region":"01","country":"CU","latitude":"22.20179","longitude":"-84.08484","population":16548},{"name":"Guant\u00e1namo","slug":"guantanamo","region":"10","country":"CU","latitude":"20.14444","longitude":"-75.20917","population":272801},{"name":"Guisa","slug":"guisa","region":"09","country":"CU","latitude":"20.25494","longitude":"-76.5393","population":18408},{"name":"Gu\u00e1imaro","slug":"guaimaro","region":"05","country":"CU","latitude":"21.05222","longitude":"-77.3499","population":39358},{"name":"G\u00fcines","slug":"gueines","region":"MA","country":"CU","latitude":"22.83727","longitude":"-82.02641","population":68935},{"name":"G\u00fcira de Melena","slug":"gueira de melena","region":"AR","country":"CU","latitude":"22.79613","longitude":"-82.50667","population":69879},{"name":"Havana","slug":"havana","region":"02","country":"CU","latitude":"23.13302","longitude":"-82.38304","population":2163824},{"name":"Holgu\u00edn","slug":"holguin","region":"12","country":"CU","latitude":"20.88722","longitude":"-76.26306","population":319102},{"name":"Jag\u00fcey Grande","slug":"jagueey grande","region":"03","country":"CU","latitude":"22.52694","longitude":"-81.12861","population":54363},{"name":"Jaruco","slug":"jaruco","region":"MA","country":"CU","latitude":"23.04419","longitude":"-82.00919","population":20207},{"name":"Jatibonico","slug":"jatibonico","region":"14","country":"CU","latitude":"21.94333","longitude":"-79.16906","population":19644},{"name":"Jes\u00fas Men\u00e9ndez","slug":"jesus menendez","region":"13","country":"CU","latitude":"21.16139","longitude":"-76.47919","population":51002},{"name":"Jiguan\u00ed","slug":"jiguani","region":"09","country":"CU","latitude":"20.36785","longitude":"-76.42741","population":41106},{"name":"Jimaguay\u00fa","slug":"jimaguayu","region":"05","country":"CU","latitude":"21.24224","longitude":"-77.82625","population":21169},{"name":"Jobabo","slug":"jobabo","region":"12","country":"CU","latitude":"20.96917","longitude":"-76.29944","population":17804},{"name":"Jobabo","slug":"jobabo","region":"13","country":"CU","latitude":"20.90748","longitude":"-77.28194","population":49403},{"name":"Jovellanos","slug":"jovellanos","region":"03","country":"CU","latitude":"22.80375","longitude":"-81.19127","population":47164},{"name":"La Habana Vieja","slug":"la habana vieja","region":"02","country":"CU","latitude":"23.13028","longitude":"-82.35306","population":95383},{"name":"La Salud","slug":"la salud","region":"MA","country":"CU","latitude":"22.87199","longitude":"-82.42328","population":28796},{"name":"La Sierpe","slug":"la sierpe","region":"14","country":"CU","latitude":"21.77241","longitude":"-79.26832","population":16937},{"name":"Lajas","slug":"lajas","region":"08","country":"CU","latitude":"22.41479","longitude":"-80.2931","population":22602},{"name":"Las Tunas","slug":"las tunas","region":"13","country":"CU","latitude":"20.96135","longitude":"-76.95192","population":203684},{"name":"Limonar","slug":"limonar","region":"03","country":"CU","latitude":"22.95035","longitude":"-81.41059","population":25421},{"name":"Los Palacios","slug":"los palacios","region":"01","country":"CU","latitude":"22.58882","longitude":"-83.24671","population":25703},{"name":"Madruga","slug":"madruga","region":"MA","country":"CU","latitude":"22.91","longitude":"-81.85639","population":33798},{"name":"Mais\u00ed","slug":"maisi","region":"10","country":"CU","latitude":"20.24673","longitude":"-74.15181","population":28276},{"name":"Manicaragua","slug":"manicaragua","region":"16","country":"CU","latitude":"22.15021","longitude":"-79.97867","population":41532},{"name":"Mantilla","slug":"mantilla","region":"02","country":"CU","latitude":"23.06794","longitude":"-82.34143","population":206918},{"name":"Manzanillo","slug":"manzanillo","region":"09","country":"CU","latitude":"20.34173","longitude":"-77.12126","population":128188},{"name":"Marianao","slug":"marianao","region":"02","country":"CU","latitude":"23.07385","longitude":"-82.4189","population":134057},{"name":"Mariel","slug":"mariel","region":"AR","country":"CU","latitude":"22.98931","longitude":"-82.75376","population":28987},{"name":"Matanzas","slug":"matanzas","region":"03","country":"CU","latitude":"23.04388","longitude":"-81.58284","population":146733},{"name":"Media Luna","slug":"media luna","region":"09","country":"CU","latitude":"20.14298","longitude":"-77.43532","population":16713},{"name":"Minas","slug":"minas","region":"05","country":"CU","latitude":"21.48802","longitude":"-77.61033","population":20863},{"name":"Minas de Matahambre","slug":"minas de matahambre","region":"01","country":"CU","latitude":"22.58691","longitude":"-83.94551","population":34419},{"name":"Moa","slug":"moa","region":"12","country":"CU","latitude":"20.65776","longitude":"-74.95075","population":92852},{"name":"Mor\u00f3n","slug":"moron","region":"07","country":"CU","latitude":"22.10774","longitude":"-78.62667","population":66060},{"name":"Naranjito","slug":"naranjito","region":"02","country":"CU","latitude":"23.07939","longitude":"-82.3769","population":27209},{"name":"Niquero","slug":"niquero","region":"09","country":"CU","latitude":"20.04698","longitude":"-77.58089","population":18771},{"name":"Nueva Gerona","slug":"nueva gerona","region":"04","country":"CU","latitude":"21.88759","longitude":"-82.80662","population":20264},{"name":"Nuevitas","slug":"nuevitas","region":"05","country":"CU","latitude":"21.54585","longitude":"-77.26504","population":54022},{"name":"Palma Soriano","slug":"palma soriano","region":"15","country":"CU","latitude":"20.2113","longitude":"-75.99362","population":102826},{"name":"Palmira","slug":"palmira","region":"08","country":"CU","latitude":"22.24126","longitude":"-80.3911","population":23078},{"name":"Pedro Betancourt","slug":"pedro betancourt","region":"03","country":"CU","latitude":"22.72709","longitude":"-81.28963","population":26761},{"name":"Perico","slug":"perico","region":"03","country":"CU","latitude":"22.76987","longitude":"-81.0183","population":24073},{"name":"Pil\u00f3n","slug":"pilon","region":"09","country":"CU","latitude":"19.90553","longitude":"-77.32152","population":28752},{"name":"Pinar del R\u00edo","slug":"pinar del rio","region":"01","country":"CU","latitude":"22.41649","longitude":"-83.69657","population":186990},{"name":"Placetas","slug":"placetas","region":"16","country":"CU","latitude":"22.31184","longitude":"-79.6544","population":55408},{"name":"Plaza de la Revoluci\u00f3n","slug":"plaza de la revolucion","region":"02","country":"CU","latitude":"23.11936","longitude":"-82.39197","population":139135},{"name":"Primero de Enero","slug":"primero de enero","region":"07","country":"CU","latitude":"21.94501","longitude":"-78.4313","population":17934},{"name":"Puerto Padre","slug":"puerto padre","region":"13","country":"CU","latitude":"21.19517","longitude":"-76.60358","population":76838},{"name":"Ranchuelo","slug":"ranchuelo","region":"16","country":"CU","latitude":"22.37266","longitude":"-80.15046","population":43695},{"name":"Regla","slug":"regla","region":"02","country":"CU","latitude":"23.125","longitude":"-82.33194","population":44431},{"name":"Remedios","slug":"remedios","region":"16","country":"CU","latitude":"22.49502","longitude":"-79.54548","population":34108},{"name":"Rodas","slug":"rodas","region":"08","country":"CU","latitude":"22.34184","longitude":"-80.55596","population":19212},{"name":"R\u00edo Cauto","slug":"rio cauto","region":"09","country":"CU","latitude":"20.55971","longitude":"-76.91673","population":23737},{"name":"R\u00edo Guayabal de Yateras","slug":"rio guayabal de yateras","region":"10","country":"CU","latitude":"20.36667","longitude":"-75.01667","population":25753},{"name":"Sagua de T\u00e1namo","slug":"sagua de tanamo","region":"12","country":"CU","latitude":"20.58269","longitude":"-75.24116","population":18282},{"name":"Sagua la Grande","slug":"sagua la grande","region":"16","country":"CU","latitude":"22.80667","longitude":"-80.07556","population":62073},{"name":"San Antonio de los Ba\u00f1os","slug":"san antonio de los banos","region":"AR","country":"CU","latitude":"22.89018","longitude":"-82.50099","population":42724},{"name":"San Cristobal","slug":"san cristobal","region":"AR","country":"CU","latitude":"22.71658","longitude":"-83.05647","population":59579},{"name":"San Germ\u00e1n","slug":"san german","region":"12","country":"CU","latitude":"20.60009","longitude":"-76.13364","population":43892},{"name":"San Jos\u00e9 de las Lajas","slug":"san jose de las lajas","region":"MA","country":"CU","latitude":"22.96121","longitude":"-82.15151","population":54847},{"name":"San Luis","slug":"san luis","region":"15","country":"CU","latitude":"20.18809","longitude":"-75.85031","population":67293},{"name":"San Miguel del Padr\u00f3n","slug":"san miguel del padron","region":"02","country":"CU","latitude":"23.09544","longitude":"-82.32669","population":159273},{"name":"Sancti Sp\u00edritus","slug":"sancti spiritus","region":"14","country":"CU","latitude":"21.93429","longitude":"-79.4398","population":127069},{"name":"Santa Clara","slug":"santa clara","region":"16","country":"CU","latitude":"22.40711","longitude":"-79.96581","population":250512},{"name":"Santa Cruz del Norte","slug":"santa cruz del norte","region":"MA","country":"CU","latitude":"23.15356","longitude":"-81.92262","population":18402},{"name":"Santa Cruz del Sur","slug":"santa cruz del sur","region":"05","country":"CU","latitude":"20.71633","longitude":"-77.99816","population":34601},{"name":"Santiago de Cuba","slug":"santiago de cuba","region":"15","country":"CU","latitude":"20.02287","longitude":"-75.82171","population":555865},{"name":"Santiago de las Vegas","slug":"santiago de las vegas","region":"02","country":"CU","latitude":"22.97","longitude":"-82.38694","population":35241},{"name":"Santo Domingo","slug":"santo domingo","region":"16","country":"CU","latitude":"22.58677","longitude":"-80.24261","population":45476},{"name":"Sibanic\u00fa","slug":"sibanicu","region":"05","country":"CU","latitude":"21.23631","longitude":"-77.52561","population":16856},{"name":"Trinidad","slug":"trinidad","region":"14","country":"CU","latitude":"21.80224","longitude":"-79.98467","population":60206},{"name":"Uni\u00f3n de Reyes","slug":"union de reyes","region":"03","country":"CU","latitude":"22.79505","longitude":"-81.53617","population":33646},{"name":"Varadero","slug":"varadero","region":"03","country":"CU","latitude":"23.15678","longitude":"-81.24441","population":20000},{"name":"Vedado","slug":"vedado","region":"02","country":"CU","latitude":"23.13767","longitude":"-82.39339","population":108369},{"name":"Vedado del Cotorro","slug":"vedado del cotorro","region":"02","country":"CU","latitude":"23.05","longitude":"-82.25","population":74650},{"name":"Venezuela","slug":"venezuela","region":"07","country":"CU","latitude":"21.73748","longitude":"-78.79336","population":16601},{"name":"Vertientes","slug":"vertientes","region":"05","country":"CU","latitude":"21.25817","longitude":"-78.14979","population":29704},{"name":"Vi\u00f1ales","slug":"vinales","region":"01","country":"CU","latitude":"22.61892","longitude":"-83.70694","population":27129},{"name":"V\u00edbora","slug":"vibora","region":"02","country":"CU","latitude":"23.09387","longitude":"-82.37191","population":23118},{"name":"V\u00edbora Park","slug":"vibora park","region":"02","country":"CU","latitude":"23.08105","longitude":"-82.35448","population":23000},{"name":"Yaguajay","slug":"yaguajay","region":"14","country":"CU","latitude":"22.32691","longitude":"-79.23567","population":42218},{"name":"Yara","slug":"yara","region":"09","country":"CU","latitude":"20.27465","longitude":"-76.95132","population":28944}]