[{"name":"Ali Sabih","slug":"ali sabih","region":"01","country":"DJ","latitude":"11.15583","longitude":"42.7125","population":50006},{"name":"Arta","slug":"arta","region":"08","country":"DJ","latitude":"11.52639","longitude":"42.85194","population":17477},{"name":"Dikhil","slug":"dikhil","region":"06","country":"DJ","latitude":"11.10454","longitude":"42.36971","population":32801},{"name":"Djibouti","slug":"djibouti","region":"07","country":"DJ","latitude":"11.58901","longitude":"43.14503","population":626512},{"name":"Obock","slug":"obock","region":"04","country":"DJ","latitude":"11.96693","longitude":"43.28835","population":15429},{"name":"Tadjoura","slug":"tadjoura","region":"05","country":"DJ","latitude":"11.78778","longitude":"42.88222","population":19533}]