[{"name":"Aabenraa","slug":"aabenraa","region":"21","country":"DK","latitude":"55.04434","longitude":"9.41741","population":16401},{"name":"Aalborg","slug":"aalborg","region":"19","country":"DK","latitude":"57.048","longitude":"9.9187","population":142937},{"name":"Albertslund","slug":"albertslund","region":"17","country":"DK","latitude":"55.65691","longitude":"12.36381","population":30000},{"name":"Aller\u00f8d","slug":"allerod","region":"17","country":"DK","latitude":"55.87035","longitude":"12.35737","population":25867},{"name":"Aved\u00f8re","slug":"avedore","region":"17","country":"DK","latitude":"55.62722","longitude":"12.45644","population":53443},{"name":"Ballerup","slug":"ballerup","region":"17","country":"DK","latitude":"55.73165","longitude":"12.36328","population":40000},{"name":"Birker\u00f8d","slug":"birkerod","region":"17","country":"DK","latitude":"55.84759","longitude":"12.42791","population":20877},{"name":"Br\u00f8ndbyvester","slug":"brondbyvester","region":"17","country":"DK","latitude":"55.6455","longitude":"12.41008","population":20000},{"name":"Charlottenlund","slug":"charlottenlund","region":"17","country":"DK","latitude":"55.75238","longitude":"12.5745","population":40000},{"name":"Copenhagen","slug":"copenhagen","region":"17","country":"DK","latitude":"55.67594","longitude":"12.56553","population":1153615},{"name":"Esbjerg","slug":"esbjerg","region":"21","country":"DK","latitude":"55.47028","longitude":"8.45187","population":71698},{"name":"Farum","slug":"farum","region":"17","country":"DK","latitude":"55.80858","longitude":"12.36066","population":20312},{"name":"Fredericia","slug":"fredericia","region":"21","country":"DK","latitude":"55.56568","longitude":"9.75257","population":40886},{"name":"Frederiksberg","slug":"frederiksberg","region":"17","country":"DK","latitude":"55.67938","longitude":"12.53463","population":95029},{"name":"Frederikshavn","slug":"frederikshavn","region":"19","country":"DK","latitude":"57.44073","longitude":"10.53661","population":22672},{"name":"Frederikssund","slug":"frederikssund","region":"17","country":"DK","latitude":"55.83956","longitude":"12.06896","population":16850},{"name":"Glostrup","slug":"glostrup","region":"17","country":"DK","latitude":"55.6666","longitude":"12.40377","population":23128},{"name":"Greve","slug":"greve","region":"20","country":"DK","latitude":"55.58333","longitude":"12.3","population":47671},{"name":"Haderslev","slug":"haderslev","region":"21","country":"DK","latitude":"55.24943","longitude":"9.48771","population":22011},{"name":"Hedensted","slug":"hedensted","region":"18","country":"DK","latitude":"55.77043","longitude":"9.7011","population":47099},{"name":"Helsing\u00f8r","slug":"helsingor","region":"17","country":"DK","latitude":"56.03606","longitude":"12.6136","population":35048},{"name":"Herning","slug":"herning","region":"18","country":"DK","latitude":"56.13615","longitude":"8.97662","population":50565},{"name":"Hiller\u00f8d","slug":"hillerod","region":"17","country":"DK","latitude":"55.92791","longitude":"12.30081","population":35357},{"name":"Hj\u00f8rring","slug":"hjorring","region":"19","country":"DK","latitude":"57.46417","longitude":"9.98229","population":25644},{"name":"Holb\u00e6k","slug":"holbaek","region":"20","country":"DK","latitude":"55.7175","longitude":"11.71279","population":29608},{"name":"Holstebro","slug":"holstebro","region":"18","country":"DK","latitude":"56.36009","longitude":"8.61607","population":32072},{"name":"Horsens","slug":"horsens","region":"18","country":"DK","latitude":"55.86066","longitude":"9.85034","population":61074},{"name":"Hvidovre","slug":"hvidovre","region":"17","country":"DK","latitude":"55.64297","longitude":"12.47708","population":53527},{"name":"H\u00f8rsholm","slug":"horsholm","region":"17","country":"DK","latitude":"55.88098","longitude":"12.50111","population":47680},{"name":"Indre By","slug":"indre by","region":"17","country":"DK","latitude":"55.67772","longitude":"12.57302","population":26223},{"name":"Ish\u00f8j","slug":"ishoj","region":"17","country":"DK","latitude":"55.61543","longitude":"12.35182","population":19453},{"name":"Kalundborg","slug":"kalundborg","region":"20","country":"DK","latitude":"55.67954","longitude":"11.08864","population":16211},{"name":"Klinteby Frihed","slug":"klinteby frihed","region":"20","country":"DK","latitude":"55.19705","longitude":"11.59603","population":53443},{"name":"Kolding","slug":"kolding","region":"21","country":"DK","latitude":"55.4904","longitude":"9.47216","population":61638},{"name":"K\u00f8ge","slug":"koge","region":"20","country":"DK","latitude":"55.45802","longitude":"12.18214","population":38304},{"name":"Liller\u00f8d","slug":"lillerod","region":"17","country":"DK","latitude":"55.87496","longitude":"12.34579","population":16741},{"name":"Middelfart","slug":"middelfart","region":"21","country":"DK","latitude":"55.50591","longitude":"9.73054","population":16277},{"name":"Nyborg","slug":"nyborg","region":"21","country":"DK","latitude":"55.31274","longitude":"10.78964","population":17525},{"name":"Nyk\u00f8bing Falster","slug":"nykobing falster","region":"20","country":"DK","latitude":"54.76906","longitude":"11.87425","population":19976},{"name":"N\u00e6stved","slug":"naestved","region":"20","country":"DK","latitude":"55.22992","longitude":"11.76092","population":44331},{"name":"N\u00f8rresundby","slug":"norresundby","region":"19","country":"DK","latitude":"57.05877","longitude":"9.92284","population":23718},{"name":"Odense","slug":"odense","region":"21","country":"DK","latitude":"55.39594","longitude":"10.38831","population":180863},{"name":"Randers","slug":"randers","region":"18","country":"DK","latitude":"56.4607","longitude":"10.03639","population":62802},{"name":"Ringsted","slug":"ringsted","region":"20","country":"DK","latitude":"55.4426","longitude":"11.79011","population":23086},{"name":"Roskilde","slug":"roskilde","region":"20","country":"DK","latitude":"55.64152","longitude":"12.08035","population":51916},{"name":"R\u00f8dovre","slug":"rodovre","region":"17","country":"DK","latitude":"55.68062","longitude":"12.45373","population":40652},{"name":"Silkeborg","slug":"silkeborg","region":"18","country":"DK","latitude":"56.1697","longitude":"9.54508","population":49747},{"name":"Skive","slug":"skive","region":"18","country":"DK","latitude":"56.56699","longitude":"9.02707","population":20190},{"name":"Slagelse","slug":"slagelse","region":"20","country":"DK","latitude":"55.40276","longitude":"11.35459","population":31896},{"name":"Solr\u00f8d Strand","slug":"solrod strand","region":"20","country":"DK","latitude":"55.53285","longitude":"12.22227","population":17337},{"name":"Stenl\u00f8se","slug":"stenlose","region":"17","country":"DK","latitude":"55.76828","longitude":"12.19723","population":19998},{"name":"Svendborg","slug":"svendborg","region":"21","country":"DK","latitude":"55.05982","longitude":"10.60677","population":27300},{"name":"S\u00f8nderborg","slug":"sonderborg","region":"21","country":"DK","latitude":"54.90896","longitude":"9.78917","population":27766},{"name":"Taastrup","slug":"taastrup","region":"17","country":"DK","latitude":"55.65006","longitude":"12.3016","population":35238},{"name":"Tilst","slug":"tilst","region":"18","country":"DK","latitude":"56.19376","longitude":"10.11283","population":15617},{"name":"T\u00f8nder","slug":"tonder","region":"21","country":"DK","latitude":"54.93306","longitude":"8.86674","population":16401},{"name":"Valby","slug":"valby","region":"17","country":"DK","latitude":"55.66613","longitude":"12.51388","population":46161},{"name":"Vallensb\u00e6k","slug":"vallensbaek","region":"17","country":"DK","latitude":"55.62199","longitude":"12.38511","population":16515},{"name":"Vanl\u00f8se","slug":"vanlose","region":"17","country":"DK","latitude":"55.68361","longitude":"12.48713","population":37115},{"name":"Vejle","slug":"vejle","region":"21","country":"DK","latitude":"55.70927","longitude":"9.5357","population":60231},{"name":"Viborg","slug":"viborg","region":"18","country":"DK","latitude":"56.45319","longitude":"9.40201","population":41239},{"name":"Viby","slug":"viby","region":"18","country":"DK","latitude":"56.12259","longitude":"10.15145","population":31756},{"name":"Vordingborg","slug":"vordingborg","region":"20","country":"DK","latitude":"55.00801","longitude":"11.91057","population":17868},{"name":"\u00c5rhus","slug":"arhus","region":"18","country":"DK","latitude":"56.15674","longitude":"10.21076","population":285273}]