[{"name":"Asmara","slug":"asmara","region":"05","country":"ER","latitude":"15.33805","longitude":"38.93184","population":563930},{"name":"Assab","slug":"assab","region":"03","country":"ER","latitude":"13.00917","longitude":"42.73944","population":21300},{"name":"Barentu","slug":"barentu","region":"04","country":"ER","latitude":"15.10582","longitude":"37.59067","population":15891},{"name":"Himora","slug":"himora","region":"04","country":"ER","latitude":"14.30427","longitude":"36.60601","population":46100},{"name":"Keren","slug":"keren","region":"01","country":"ER","latitude":"15.77792","longitude":"38.45107","population":74800},{"name":"Massawa","slug":"massawa","region":"06","country":"ER","latitude":"15.60811","longitude":"39.47455","population":23100},{"name":"Mendefera","slug":"mendefera","region":"02","country":"ER","latitude":"14.88722","longitude":"38.81528","population":17781}]