[{"name":"Akhaltsikhe","slug":"akhaltsikhe","region":"72","country":"GE","latitude":"41.63952","longitude":"42.98604","population":17445},{"name":"Batumi","slug":"batumi","region":"04","country":"GE","latitude":"41.64077","longitude":"41.6306","population":186949},{"name":"Gori","slug":"gori","region":"73","country":"GE","latitude":"41.98532","longitude":"44.1129","population":41933},{"name":"Khashuri","slug":"khashuri","region":"73","country":"GE","latitude":"41.99733","longitude":"43.59905","population":23949},{"name":"Kobuleti","slug":"kobuleti","region":"04","country":"GE","latitude":"41.83283","longitude":"41.77823","population":17538},{"name":"Kutaisi","slug":"kutaisi","region":"66","country":"GE","latitude":"42.26791","longitude":"42.69459","population":135201},{"name":"Marneuli","slug":"marneuli","region":"68","country":"GE","latitude":"41.48758","longitude":"44.79845","population":26400},{"name":"Poti","slug":"poti","region":"71","country":"GE","latitude":"42.14272","longitude":"41.67384","population":41175},{"name":"Rustavi","slug":"rustavi","region":"68","country":"GE","latitude":"41.56271","longitude":"44.9787","population":128249},{"name":"Samtredia","slug":"samtredia","region":"66","country":"GE","latitude":"42.1537","longitude":"42.33517","population":20633},{"name":"Sokhumi","slug":"sokhumi","region":"02","country":"GE","latitude":"43.00697","longitude":"40.9893","population":65439},{"name":"Stantsiya Novyy Afon","slug":"stantsiya novyy afon","region":"02","country":"GE","latitude":"43.08056","longitude":"40.83833","population":26636},{"name":"Tbilisi","slug":"tbilisi","region":"51","country":"GE","latitude":"41.69143","longitude":"44.83412","population":1049498},{"name":"Telavi","slug":"telavi","region":"67","country":"GE","latitude":"41.91957","longitude":"45.47002","population":19875},{"name":"Ts\u2019khinvali","slug":"ts'khinvali","region":"73","country":"GE","latitude":"42.22764","longitude":"43.96861","population":32180},{"name":"Zestaponi","slug":"zestaponi","region":"66","country":"GE","latitude":"42.10752","longitude":"43.03291","population":20183},{"name":"Zugdidi","slug":"zugdidi","region":"71","country":"GE","latitude":"42.5084","longitude":"41.86796","population":40067}]