[{"name":"Cayenne","slug":"cayenne","region":"GF","country":"GF","latitude":"4.9381","longitude":"-52.33455","population":61550},{"name":"Kourou","slug":"kourou","region":"GF","country":"GF","latitude":"5.16281","longitude":"-52.64265","population":24029},{"name":"Matoury","slug":"matoury","region":"GF","country":"GF","latitude":"4.84921","longitude":"-52.32355","population":26350},{"name":"R\u00e9mire-Montjoly","slug":"remire-montjoly","region":"GF","country":"GF","latitude":"4.91667","longitude":"-52.26667","population":19029},{"name":"Saint-Laurent-du-Maroni","slug":"saint-laurent-du-maroni","region":"GF","country":"GF","latitude":"5.50153","longitude":"-54.02916","population":24287}]