[{"name":"Albad\u00e9ria","slug":"albaderia","region":"F","country":"GN","latitude":"9.55","longitude":"-10.1","population":17147},{"name":"Arfa Moussa\u00efa","slug":"arfa moussaia","region":"F","country":"GN","latitude":"10.76667","longitude":"-11.36667","population":16561},{"name":"Banko","slug":"banko","region":"F","country":"GN","latitude":"10.71667","longitude":"-10.71667","population":23638},{"name":"Beyla","slug":"beyla","region":"N","country":"GN","latitude":"8.69011","longitude":"-8.64869","population":19848},{"name":"Bissikrima","slug":"bissikrima","region":"F","country":"GN","latitude":"10.85","longitude":"-10.93333","population":28840},{"name":"Bok\u00e9","slug":"boke","region":"B","country":"GN","latitude":"10.93217","longitude":"-14.29055","population":63736},{"name":"Camayenne","slug":"camayenne","region":"04","country":"GN","latitude":"9.535","longitude":"-13.68778","population":1871242},{"name":"Conakry","slug":"conakry","region":"04","country":"GN","latitude":"9.53795","longitude":"-13.67729","population":1928389},{"name":"Coyah","slug":"coyah","region":"D","country":"GN","latitude":"9.70643","longitude":"-13.38465","population":77103},{"name":"Dabola","slug":"dabola","region":"F","country":"GN","latitude":"10.7433","longitude":"-11.10778","population":29449},{"name":"Dinguiraye","slug":"dinguiraye","region":"F","country":"GN","latitude":"11.29062","longitude":"-10.7121","population":20993},{"name":"Dixinn","slug":"dixinn","region":"04","country":"GN","latitude":"9.55111","longitude":"-13.67306","population":137287},{"name":"Dogomet","slug":"dogomet","region":"F","country":"GN","latitude":"10.58906","longitude":"-11.17752","population":27748},{"name":"Donghol-Sigon","slug":"donghol-sigon","region":"L","country":"GN","latitude":"11.8","longitude":"-12.2167","population":25222},{"name":"Douako","slug":"douako","region":"K","country":"GN","latitude":"9.73333","longitude":"-10.18333","population":23416},{"name":"Dubr\u00e9ka","slug":"dubreka","region":"D","country":"GN","latitude":"9.79111","longitude":"-13.52333","population":182296},{"name":"Faranah","slug":"faranah","region":"F","country":"GN","latitude":"10.04036","longitude":"-10.74343","population":70181},{"name":"For\u00e9cariah","slug":"forecariah","region":"D","country":"GN","latitude":"9.43056","longitude":"-13.08806","population":23350},{"name":"Fria","slug":"fria","region":"B","country":"GN","latitude":"10.36676","longitude":"-13.58253","population":64169},{"name":"Gueckedou","slug":"gueckedou","region":"N","country":"GN","latitude":"8.56744","longitude":"-10.1336","population":79140},{"name":"Kamabi","slug":"kamabi","region":"B","country":"GN","latitude":"12.4","longitude":"-13.41667","population":16178},{"name":"Kamsar","slug":"kamsar","region":"B","country":"GN","latitude":"10.65","longitude":"-14.61667","population":113350},{"name":"Kankan","slug":"kankan","region":"K","country":"GN","latitude":"10.38542","longitude":"-9.30568","population":221428},{"name":"Kindia","slug":"kindia","region":"D","country":"GN","latitude":"10.05692","longitude":"-12.86576","population":161024},{"name":"Kintinian","slug":"kintinian","region":"K","country":"GN","latitude":"11.6","longitude":"-9.38333","population":27969},{"name":"Kissidougou","slug":"kissidougou","region":"F","country":"GN","latitude":"9.1848","longitude":"-10.09987","population":116019},{"name":"Kolaboui","slug":"kolaboui","region":"B","country":"GN","latitude":"10.79569","longitude":"-14.39966","population":57251},{"name":"Kolent\u00e9","slug":"kolente","region":"D","country":"GN","latitude":"10.28578","longitude":"-12.43699","population":31312},{"name":"Koumbia","slug":"koumbia","region":"B","country":"GN","latitude":"11.8","longitude":"-13.5","population":45970},{"name":"Koundara","slug":"koundara","region":"B","country":"GN","latitude":"12.48333","longitude":"-13.3","population":22326},{"name":"Kouroussa","slug":"kouroussa","region":"K","country":"GN","latitude":"10.65","longitude":"-9.88333","population":36295},{"name":"K\u00e9rouan\u00e9","slug":"kerouane","region":"K","country":"GN","latitude":"9.26667","longitude":"-9.01667","population":26990},{"name":"Lab\u00e9","slug":"labe","region":"L","country":"GN","latitude":"11.31823","longitude":"-12.28332","population":107571},{"name":"Lola","slug":"lola","region":"N","country":"GN","latitude":"7.8","longitude":"-8.53333","population":32555},{"name":"Macenta","slug":"macenta","region":"N","country":"GN","latitude":"8.54351","longitude":"-9.47099","population":68020},{"name":"Mamou","slug":"mamou","region":"M","country":"GN","latitude":"10.37546","longitude":"-12.09148","population":79109},{"name":"Mandiana","slug":"mandiana","region":"K","country":"GN","latitude":"10.62577","longitude":"-8.69413","population":19110},{"name":"Man\u00e9ah","slug":"maneah","region":"D","country":"GN","latitude":"9.73333","longitude":"-13.41667","population":194297},{"name":"Moussadou","slug":"moussadou","region":"N","country":"GN","latitude":"8.76667","longitude":"-8.61667","population":16725},{"name":"Nz\u00e9r\u00e9kor\u00e9","slug":"nzerekore","region":"N","country":"GN","latitude":"7.75624","longitude":"-8.8179","population":226426},{"name":"Pita","slug":"pita","region":"M","country":"GN","latitude":"11.05915","longitude":"-12.39498","population":25355},{"name":"Sangar\u00e9di","slug":"sangaredi","region":"B","country":"GN","latitude":"11.1","longitude":"-13.76667","population":54824},{"name":"Siguiri","slug":"siguiri","region":"K","country":"GN","latitude":"11.42282","longitude":"-9.16852","population":148018},{"name":"Tougu\u00e9","slug":"tougue","region":"L","country":"GN","latitude":"11.44503","longitude":"-11.66422","population":25531},{"name":"T\u00e9lim\u00e9l\u00e9","slug":"telimele","region":"D","country":"GN","latitude":"10.9","longitude":"-13.03333","population":30311},{"name":"Wendou Borou","slug":"wendou borou","region":"B","country":"GN","latitude":"11.43333","longitude":"-13.88333","population":25150},{"name":"Yende Millimou","slug":"yende millimou","region":"F","country":"GN","latitude":"8.88722","longitude":"-10.17222","population":20372}]