[{"name":"Acre","slug":"acre","region":"03","country":"IL","latitude":"32.92814","longitude":"35.07647","population":51420},{"name":"Afula","slug":"afula","region":"03","country":"IL","latitude":"32.60907","longitude":"35.2892","population":44930},{"name":"Arad","slug":"arad","region":"01","country":"IL","latitude":"31.25882","longitude":"35.21282","population":27967},{"name":"Ariel","slug":"ariel","region":"WE","country":"IL","latitude":"32.1065","longitude":"35.18449","population":20540},{"name":"Ashdod","slug":"ashdod","region":"01","country":"IL","latitude":"31.79213","longitude":"34.64966","population":226838},{"name":"Ashkelon","slug":"ashkelon","region":"01","country":"IL","latitude":"31.66926","longitude":"34.57149","population":144073},{"name":"Bat Yam","slug":"bat yam","region":"05","country":"IL","latitude":"32.02379","longitude":"34.75185","population":129012},{"name":"Beersheba","slug":"beersheba","region":"01","country":"IL","latitude":"31.25181","longitude":"34.7913","population":186600},{"name":"Bet Shemesh","slug":"bet shemesh","region":"06","country":"IL","latitude":"31.73072","longitude":"34.99293","population":124957},{"name":"Bet She\u2019an","slug":"bet she'an","region":"03","country":"IL","latitude":"32.49728","longitude":"35.49632","population":16800},{"name":"Be\u2019er Ya\u2018aqov","slug":"be'er ya'aqov","region":"02","country":"IL","latitude":"31.93864","longitude":"34.83749","population":27768},{"name":"Binyamina","slug":"binyamina","region":"04","country":"IL","latitude":"32.5232","longitude":"34.94499","population":15847},{"name":"Binyamina-Giv'at Ada","slug":"binyamina-giv'at ada","region":"04","country":"IL","latitude":"32.51824","longitude":"34.95398","population":15847},{"name":"Bnei Brak","slug":"bnei brak","region":"05","country":"IL","latitude":"32.08074","longitude":"34.8338","population":214444},{"name":"B\u0101qa el Gharb\u012bya","slug":"baqa el gharbiya","region":"04","country":"IL","latitude":"32.41806","longitude":"35.04312","population":29950},{"name":"Daliyat al Karmel","slug":"daliyat al karmel","region":"04","country":"IL","latitude":"32.69383","longitude":"35.04686","population":25000},{"name":"Dimona","slug":"dimona","region":"01","country":"IL","latitude":"31.07079","longitude":"35.03269","population":36192},{"name":"Eilat","slug":"eilat","region":"01","country":"IL","latitude":"29.55805","longitude":"34.94821","population":52299},{"name":"El\u2018ad","slug":"el'ad","region":"02","country":"IL","latitude":"32.04984","longitude":"34.95382","population":48763},{"name":"Er Reina","slug":"er reina","region":"03","country":"IL","latitude":"32.72339","longitude":"35.31622","population":15621},{"name":"E\u1e6d \u1e6caiyiba","slug":"et taiyiba","region":"02","country":"IL","latitude":"32.26616","longitude":"35.00893","population":43957},{"name":"E\u1e6d \u1e6c\u012bra","slug":"et tira","region":"02","country":"IL","latitude":"32.2341","longitude":"34.95023","population":26552},{"name":"Gan Yavne","slug":"gan yavne","region":"02","country":"IL","latitude":"31.78737","longitude":"34.70659","population":23869},{"name":"Ganei Tikva","slug":"ganei tikva","region":"02","country":"IL","latitude":"32.05971","longitude":"34.8732","population":25093},{"name":"Gedera","slug":"gedera","region":"02","country":"IL","latitude":"31.81456","longitude":"34.77998","population":30798},{"name":"Giv'at Shmuel","slug":"giv'at shmuel","region":"05","country":"IL","latitude":"32.07817","longitude":"34.84858","population":28628},{"name":"Giv`at H\u0331ananya","slug":"giv`at hananya","region":"06","country":"IL","latitude":"31.76667","longitude":"35.23333","population":15500},{"name":"Givatayim","slug":"givatayim","region":"05","country":"IL","latitude":"32.07225","longitude":"34.81253","population":60644},{"name":"Hadera","slug":"hadera","region":"04","country":"IL","latitude":"32.44192","longitude":"34.9039","population":97335},{"name":"Haifa","slug":"haifa","region":"04","country":"IL","latitude":"32.81303","longitude":"34.99928","population":285316},{"name":"Herzliya","slug":"herzliya","region":"05","country":"IL","latitude":"32.16627","longitude":"34.82536","population":97470},{"name":"Hod HaSharon","slug":"hod hasharon","region":"02","country":"IL","latitude":"32.15934","longitude":"34.8932","population":63175},{"name":"H\u0331olon","slug":"holon","region":"05","country":"IL","latitude":"32.01034","longitude":"34.77918","population":196282},{"name":"H\u0331ura","slug":"hura","region":"01","country":"IL","latitude":"31.30084","longitude":"34.93606","population":21558},{"name":"Jaffa","slug":"jaffa","region":"05","country":"IL","latitude":"32.05043","longitude":"34.75224","population":100000},{"name":"Jerusalem","slug":"jerusalem","region":"06","country":"IL","latitude":"31.76904","longitude":"35.21633","population":971800},{"name":"Judeida Makr","slug":"judeida makr","region":"03","country":"IL","latitude":"32.9282","longitude":"35.15705","population":21163},{"name":"Kadima Zoran","slug":"kadima zoran","region":"02","country":"IL","latitude":"32.27782","longitude":"34.9194","population":22490},{"name":"Kafr Kann\u0101","slug":"kafr kanna","region":"03","country":"IL","latitude":"32.7466","longitude":"35.34242","population":22751},{"name":"Kafr Mand\u0101","slug":"kafr manda","region":"03","country":"IL","latitude":"32.81034","longitude":"35.26009","population":20188},{"name":"Kafr Qari\u2018","slug":"kafr qari'","region":"04","country":"IL","latitude":"32.50666","longitude":"35.05392","population":19018},{"name":"Kafr Q\u0101sim","slug":"kafr qasim","region":"02","country":"IL","latitude":"32.11406","longitude":"34.97624","population":23823},{"name":"Karmi\u2019el","slug":"karmi'el","region":"03","country":"IL","latitude":"32.91708","longitude":"35.30501","population":46252},{"name":"Kfar Saba","slug":"kfar saba","region":"02","country":"IL","latitude":"32.175","longitude":"34.90694","population":110456},{"name":"Kfar Yona","slug":"kfaryona","region":"02","country":"IL","latitude":"32.31669","longitude":"34.93507","population":24778},{"name":"Kiryat Gat","slug":"kiryat gat","region":"01","country":"IL","latitude":"31.60998","longitude":"34.76422","population":61817},{"name":"Kiryat Ono","slug":"kiryat ono","region":"05","country":"IL","latitude":"32.06124","longitude":"34.85618","population":39986},{"name":"Kuseifa","slug":"kuseifa","region":"01","country":"IL","latitude":"31.24535","longitude":"35.0931","population":21079},{"name":"Lod","slug":"lod","region":"02","country":"IL","latitude":"31.9467","longitude":"34.8903","population":77223},{"name":"Magh\u0101r","slug":"maghar","region":"03","country":"IL","latitude":"32.88984","longitude":"35.40703","population":22957},{"name":"Majd el Kur\u016bm","slug":"majd el kurum","region":"03","country":"IL","latitude":"32.92186","longitude":"35.25568","population":15455},{"name":"Mevasseret Tsiyyon","slug":"mevasserettsiyyon","region":"06","country":"IL","latitude":"31.80186","longitude":"35.15072","population":24052},{"name":"Migdal Ha\u2018Emeq","slug":"migdal ha'emeq","region":"03","country":"IL","latitude":"32.67597","longitude":"35.23986","population":25675},{"name":"Modiin Ilit","slug":"modiin ilit","region":"06","country":"IL","latitude":"31.93221","longitude":"35.04416","population":76374},{"name":"Modi\u2018in Makkabbim Re\u2018ut","slug":"modi'in makkabbim re'ut","region":"02","country":"IL","latitude":"31.89385","longitude":"35.01504","population":93277},{"name":"Nahariyya","slug":"nahariyya","region":"03","country":"IL","latitude":"33.00892","longitude":"35.09814","population":58096},{"name":"Nazareth","slug":"nazareth","region":"03","country":"IL","latitude":"32.70087","longitude":"35.29719","population":77445},{"name":"Na\u1e95erat \u2018Illit","slug":"nazerat 'illit","region":"03","country":"IL","latitude":"32.70816","longitude":"35.32469","population":43556},{"name":"Nesher","slug":"nesher","region":"04","country":"IL","latitude":"32.76622","longitude":"35.04425","population":24148},{"name":"Ness Ziona","slug":"ness ziona","region":"02","country":"IL","latitude":"31.92933","longitude":"34.79868","population":50351},{"name":"Netanya","slug":"netanya","region":"02","country":"IL","latitude":"32.33291","longitude":"34.85992","population":228204},{"name":"Netivot","slug":"netivot","region":"01","country":"IL","latitude":"31.42305","longitude":"34.58911","population":43732},{"name":"Ofaqim","slug":"ofaqim","region":"01","country":"IL","latitude":"31.3141","longitude":"34.62025","population":34666},{"name":"Or Akiva","slug":"or akiva","region":"04","country":"IL","latitude":"32.5064","longitude":"34.92087","population":18972},{"name":"Or Yehuda","slug":"or yehuda","region":"05","country":"IL","latitude":"32.02923","longitude":"34.85788","population":36813},{"name":"Pard\u00e9s H\u0331anna Karkur","slug":"pardes hanna karkur","region":"04","country":"IL","latitude":"32.47408","longitude":"34.97781","population":44840},{"name":"Peta\u1e96 Tiqva","slug":"petah tiqva","region":"02","country":"IL","latitude":"32.08707","longitude":"34.88747","population":253529},{"name":"Qalansuwa","slug":"qalansuwa","region":"02","country":"IL","latitude":"32.28493","longitude":"34.98106","population":16898},{"name":"Qiryat Ata","slug":"qiryat ata","region":"04","country":"IL","latitude":"32.81149","longitude":"35.11323","population":59030},{"name":"Qiryat Bialik","slug":"qiryat bialik","region":"04","country":"IL","latitude":"32.8275","longitude":"35.08583","population":43955},{"name":"Qiryat HaYovel","slug":"qiryat hayovel","region":"06","country":"IL","latitude":"31.76667","longitude":"35.16667","population":25000},{"name":"Qiryat Mal\u2019akhi","slug":"qiryat mal'akhi","region":"01","country":"IL","latitude":"31.72888","longitude":"34.74632","population":25362},{"name":"Qiryat Motsqin","slug":"qiryatmotsqin","region":"04","country":"IL","latitude":"32.83706","longitude":"35.0776","population":43303},{"name":"Qiryat Shmona","slug":"qiryatshmona","region":"03","country":"IL","latitude":"33.20733","longitude":"35.57212","population":22512},{"name":"Qiryat Tiv\u2018on","slug":"qiryat tiv'on","region":"04","country":"IL","latitude":"32.71618","longitude":"35.12494","population":18130},{"name":"Qiryat Yam","slug":"qiryat yam","region":"04","country":"IL","latitude":"32.84966","longitude":"35.06973","population":39897},{"name":"Ra'anana","slug":"ra'anana","region":"02","country":"IL","latitude":"32.1836","longitude":"34.87386","population":75421},{"name":"Rahat","slug":"rahat","region":"01","country":"IL","latitude":"31.39547","longitude":"34.75699","population":19586},{"name":"Ramat Gan","slug":"ramat gan","region":"05","country":"IL","latitude":"32.08227","longitude":"34.81065","population":170822},{"name":"Ramat HaSharon","slug":"ramat hasharon","region":"05","country":"IL","latitude":"32.14613","longitude":"34.8394","population":47245},{"name":"Ramla","slug":"ramla","region":"02","country":"IL","latitude":"31.92624","longitude":"34.8635","population":76246},{"name":"Re\u1e96ovot","slug":"rehovot","region":"02","country":"IL","latitude":"31.89421","longitude":"34.81199","population":149392},{"name":"Rishon LeTsiyyon","slug":"rishon letsiyyon","region":"02","country":"IL","latitude":"31.97102","longitude":"34.78939","population":258535},{"name":"Rosh Ha\u2018Ayin","slug":"rosh ha'ayin","region":"02","country":"IL","latitude":"32.09556","longitude":"34.95664","population":72881},{"name":"Safed","slug":"safed","region":"03","country":"IL","latitude":"32.96465","longitude":"35.496","population":36094},{"name":"Sakhn\u012bn","slug":"sakhnin","region":"03","country":"IL","latitude":"32.86422","longitude":"35.29707","population":31702},{"name":"Sderot","slug":"sderot","region":"01","country":"IL","latitude":"31.525","longitude":"34.59693","population":27635},{"name":"Shefar\u2018am","slug":"shefar'am","region":"03","country":"IL","latitude":"32.80583","longitude":"35.16895","population":42137},{"name":"Shoham","slug":"shoham","region":"02","country":"IL","latitude":"31.99866","longitude":"34.94559","population":20740},{"name":"Tamra","slug":"tamra","region":"03","country":"IL","latitude":"32.85301","longitude":"35.1987","population":25917},{"name":"Tel Aviv","slug":"tel aviv","region":"05","country":"IL","latitude":"32.08088","longitude":"34.78057","population":432892},{"name":"Tel Sheva\u2018","slug":"tel sheva'","region":"01","country":"IL","latitude":"31.24864","longitude":"34.86007","population":20204},{"name":"Tiberias","slug":"tiberias","region":"03","country":"IL","latitude":"32.79221","longitude":"35.53124","population":44779},{"name":"Tirat Karmel","slug":"tirat karmel","region":"04","country":"IL","latitude":"32.76021","longitude":"34.97183","population":27822},{"name":"Umm el Fa\u1e25m","slug":"umm el fahm","region":"04","country":"IL","latitude":"32.51725","longitude":"35.15349","population":56109},{"name":"West Jerusalem","slug":"west jerusalem","region":"06","country":"IL","latitude":"31.78199","longitude":"35.21961","population":400000},{"name":"Yavn\u00e9","slug":"yavne","region":"02","country":"IL","latitude":"31.87808","longitude":"34.73983","population":47585},{"name":"Yehud","slug":"yehud","region":"02","country":"IL","latitude":"32.03317","longitude":"34.89091","population":25600},{"name":"Yehud-Monosson","slug":"yehud-monosson","region":"05","country":"IL","latitude":"32.0284","longitude":"34.8796","population":29312},{"name":"Yirk\u0101","slug":"yirka","region":"03","country":"IL","latitude":"32.95435","longitude":"35.21197","population":17171},{"name":"Yoqne\u2018am \u2018Illit","slug":"yoqne'am 'illit","region":"03","country":"IL","latitude":"32.65385","longitude":"35.10382","population":23796},{"name":"Y\u0101f\u0101","slug":"yafa","region":"03","country":"IL","latitude":"32.68923","longitude":"35.27832","population":18905},{"name":"Zikhron Ya\u2018aqov","slug":"zikhron ya'aqov","region":"04","country":"IL","latitude":"32.56645","longitude":"34.95628","population":23206},{"name":"maalot Tarsh\u012bh\u0101","slug":"maalot tarshiha","region":"03","country":"IL","latitude":"33.01667","longitude":"35.26667","population":21836},{"name":"\u2018Ar\u2018ara","slug":"'ar'ara","region":"04","country":"IL","latitude":"32.49553","longitude":"35.09411","population":24904},{"name":"\u2018Ar\u2018ara BaNegev","slug":"'ar'ara banegev","region":"01","country":"IL","latitude":"31.16046","longitude":"35.02274","population":17640}]