[{"name":"Abdu Rahiman Nagar","slug":"abdu rahiman nagar","region":"13","country":"IN","latitude":"11.06983","longitude":"75.93879","population":41993},{"name":"Abhay\u0101puri","slug":"abhayapuri","region":"03","country":"IN","latitude":"26.32255","longitude":"90.68526","population":15847},{"name":"Abohar","slug":"abohar","region":"23","country":"IN","latitude":"30.14453","longitude":"74.19552","population":145302},{"name":"Abrama","slug":"abrama","region":"09","country":"IN","latitude":"20.85865","longitude":"72.90648","population":21000},{"name":"Achalpur","slug":"achalpur","region":"16","country":"IN","latitude":"21.25665","longitude":"77.51006","population":112311},{"name":"Achampet","slug":"achampet","region":"40","country":"IN","latitude":"16.3982","longitude":"78.63758","population":20721},{"name":"Achhnera","slug":"achhnera","region":"36","country":"IN","latitude":"27.17826","longitude":"77.75674","population":20532},{"name":"Achh\u012bbal","slug":"achhibal","region":"12","country":"IN","latitude":"33.68409","longitude":"75.21835","population":17556},{"name":"Adampur","slug":"adampur","region":"23","country":"IN","latitude":"31.43224","longitude":"75.71484","population":20922},{"name":"Adampur","slug":"adampur","region":"10","country":"IN","latitude":"29.28026","longitude":"75.46818","population":25531},{"name":"Addanki","slug":"addanki","region":"02","country":"IN","latitude":"15.81061","longitude":"79.97338","population":28547},{"name":"Adich\u0101nall\u016br","slug":"adichanallur","region":"13","country":"IN","latitude":"8.88049","longitude":"76.71558","population":27240},{"name":"Adirampattinam","slug":"adirampattinam","region":"25","country":"IN","latitude":"10.34059","longitude":"79.37905","population":31066},{"name":"Adiyanuthu","slug":"adiyanuthu","region":"25","country":"IN","latitude":"10.33075","longitude":"77.98118","population":17851},{"name":"Adoni","slug":"adoni","region":"02","country":"IN","latitude":"15.62788","longitude":"77.27495","population":184625},{"name":"Adra","slug":"adra","region":"28","country":"IN","latitude":"23.49668","longitude":"86.68363","population":22159},{"name":"Ad\u016br","slug":"adur","region":"13","country":"IN","latitude":"9.15595","longitude":"76.73192","population":29652},{"name":"Afzalgarh","slug":"afzalgarh","region":"36","country":"IN","latitude":"29.3937","longitude":"78.67393","population":27753},{"name":"Afzalpur","slug":"afzalpur","region":"19","country":"IN","latitude":"17.19986","longitude":"76.36018","population":27088},{"name":"Agar","slug":"agar","region":"35","country":"IN","latitude":"23.71177","longitude":"76.01571","population":37917},{"name":"Agaram","slug":"agaram","region":"25","country":"IN","latitude":"10.44325","longitude":"77.94848","population":15610},{"name":"Agartala","slug":"agartala","region":"26","country":"IN","latitude":"23.83605","longitude":"91.27939","population":400004},{"name":"Agra","slug":"agra","region":"36","country":"IN","latitude":"27.18333","longitude":"78.01667","population":1430055},{"name":"Ahilyanagar","slug":"ahilyanagar","region":"16","country":"IN","latitude":"19.09457","longitude":"74.73843","population":367140},{"name":"Ahmadpur","slug":"ahmadpur","region":"16","country":"IN","latitude":"18.70622","longitude":"76.93731","population":43936},{"name":"Ahmedabad","slug":"ahmedabad","region":"09","country":"IN","latitude":"23.02579","longitude":"72.58727","population":6357693},{"name":"Ahmedgarh","slug":"ahmedgarh","region":"23","country":"IN","latitude":"30.67731","longitude":"75.82633","population":31302},{"name":"Ahor","slug":"ahor","region":"24","country":"IN","latitude":"25.3687","longitude":"72.78038","population":16867},{"name":"Ahraura","slug":"ahraura","region":"36","country":"IN","latitude":"25.01579","longitude":"83.03294","population":25075},{"name":"Ahwa","slug":"ahwa","region":"09","country":"IN","latitude":"20.75718","longitude":"73.68626","population":15004},{"name":"Ah\u012bw\u0101ra","slug":"ahiwara","region":"37","country":"IN","latitude":"21.35799","longitude":"81.41794","population":20384},{"name":"Airoli","slug":"airoli","region":"16","country":"IN","latitude":"19.15096","longitude":"72.99625","population":100000},{"name":"Aistala","slug":"aistala","region":"28","country":"IN","latitude":"23.18","longitude":"88.58","population":19425},{"name":"Aizawl","slug":"aizawl","region":"31","country":"IN","latitude":"23.72894","longitude":"92.71791","population":293416},{"name":"Ajaigarh","slug":"ajaigarh","region":"35","country":"IN","latitude":"24.89879","longitude":"80.25921","population":16656},{"name":"Ajara","slug":"ajara","region":"16","country":"IN","latitude":"16.11601","longitude":"74.21097","population":17257},{"name":"Ajeetgarh","slug":"ajeetgarh","region":"24","country":"IN","latitude":"27.41933","longitude":"75.82143","population":15414},{"name":"Ajmer","slug":"ajmer","region":"24","country":"IN","latitude":"26.4521","longitude":"74.63867","population":542321},{"name":"Ajn\u0101la","slug":"ajnala","region":"23","country":"IN","latitude":"31.84473","longitude":"74.76295","population":21107},{"name":"Aj\u0101n\u016br","slug":"ajanur","region":"13","country":"IN","latitude":"12.33614","longitude":"75.09297","population":33079},{"name":"Akalkot","slug":"akalkot","region":"16","country":"IN","latitude":"17.52532","longitude":"76.20611","population":40103},{"name":"Akalkuva","slug":"akalkuva","region":"16","country":"IN","latitude":"21.5543","longitude":"74.01922","population":17840},{"name":"Akaltara","slug":"akaltara","region":"37","country":"IN","latitude":"22.02463","longitude":"82.42641","population":22712},{"name":"Akbarpur","slug":"akbarpur","region":"36","country":"IN","latitude":"26.42953","longitude":"82.53431","population":36865},{"name":"Akbarpur","slug":"akbarpur","region":"36","country":"IN","latitude":"26.38371","longitude":"79.94926","population":18835},{"name":"Akhn\u016br","slug":"akhnur","region":"12","country":"IN","latitude":"32.8955","longitude":"74.73486","population":20756},{"name":"Akiv\u012bdu","slug":"akividu","region":"02","country":"IN","latitude":"16.58225","longitude":"81.38112","population":40413},{"name":"Akkarampalle","slug":"akkarampalle","region":"02","country":"IN","latitude":"13.65","longitude":"79.42","population":44219},{"name":"Aklera","slug":"aklera","region":"24","country":"IN","latitude":"24.41288","longitude":"76.56719","population":26240},{"name":"Akl\u016bj","slug":"akluj","region":"16","country":"IN","latitude":"17.89241","longitude":"75.02138","population":39972},{"name":"Akola","slug":"akola","region":"16","country":"IN","latitude":"20.70957","longitude":"76.9981","population":428857},{"name":"Akot","slug":"akot","region":"16","country":"IN","latitude":"21.0963","longitude":"77.0588","population":92637},{"name":"Aland","slug":"aland","region":"19","country":"IN","latitude":"17.56425","longitude":"76.56854","population":42371},{"name":"Alandi","slug":"alandi","region":"16","country":"IN","latitude":"18.67756","longitude":"73.89868","population":28645},{"name":"Alandur","slug":"alandur","region":"25","country":"IN","latitude":"13.0025","longitude":"80.20611","population":164430},{"name":"Alang","slug":"alang","region":"09","country":"IN","latitude":"21.39878","longitude":"72.17544","population":18480},{"name":"Alangad","slug":"alangad","region":"13","country":"IN","latitude":"10.10192","longitude":"76.29104","population":47329},{"name":"Alang\u0101yam","slug":"alangayam","region":"25","country":"IN","latitude":"12.62235","longitude":"78.75207","population":18327},{"name":"Alappuzha","slug":"alappuzha","region":"13","country":"IN","latitude":"9.49004","longitude":"76.3264","population":240991},{"name":"Alatt\u016br","slug":"alattur","region":"13","country":"IN","latitude":"10.65","longitude":"76.53333","population":26720},{"name":"Aleng\u0101d","slug":"alengad","region":"13","country":"IN","latitude":"10.11901","longitude":"76.30226","population":47329},{"name":"Ali","slug":"ali","region":"07","country":"IN","latitude":"28.5161","longitude":"77.30993","population":27169},{"name":"Alirajpur","slug":"alirajpur","region":"35","country":"IN","latitude":"22.30393","longitude":"74.35568","population":28498},{"name":"Allapuram","slug":"allapuram","region":"25","country":"IN","latitude":"12.89509","longitude":"79.12786","population":31211},{"name":"Allinagaram","slug":"allinagaram","region":"25","country":"IN","latitude":"10.02737","longitude":"77.47815","population":94453},{"name":"Almora","slug":"almora","region":"39","country":"IN","latitude":"29.59713","longitude":"79.65911","population":32442},{"name":"Aln\u0101var","slug":"alnavar","region":"19","country":"IN","latitude":"15.42727","longitude":"74.74111","population":17228},{"name":"Along","slug":"along","region":"30","country":"IN","latitude":"28.16951","longitude":"94.8006","population":18425},{"name":"Alot","slug":"alot","region":"35","country":"IN","latitude":"23.76336","longitude":"75.55662","population":24115},{"name":"Aluva","slug":"aluva","region":"13","country":"IN","latitude":"10.10764","longitude":"76.35158","population":24108},{"name":"Alwar","slug":"alwar","region":"24","country":"IN","latitude":"27.56246","longitude":"76.625","population":322568},{"name":"Alwaye","slug":"alwaye","region":"13","country":"IN","latitude":"10.10649","longitude":"76.35484","population":23703},{"name":"Al\u012bb\u0101g","slug":"alibag","region":"16","country":"IN","latitude":"18.64813","longitude":"72.87579","population":20752},{"name":"Al\u012bganj","slug":"aliganj","region":"36","country":"IN","latitude":"27.49358","longitude":"79.17127","population":26652},{"name":"Al\u012bgarh","slug":"aligarh","region":"36","country":"IN","latitude":"27.88145","longitude":"78.07464","population":753207},{"name":"Al\u012bpur","slug":"alipur","region":"07","country":"IN","latitude":"28.79862","longitude":"77.13314","population":20736},{"name":"Al\u012bpur Du\u0101r","slug":"alipur duar","region":"28","country":"IN","latitude":"26.4835","longitude":"89.52286","population":65232},{"name":"Amalner","slug":"amalner","region":"16","country":"IN","latitude":"21.03983","longitude":"75.05887","population":97369},{"name":"Amal\u0101puram","slug":"amalapuram","region":"02","country":"IN","latitude":"16.57868","longitude":"82.00609","population":53231},{"name":"Amaravati","slug":"amaravati","region":"02","country":"IN","latitude":"16.514","longitude":"80.516","population":103000},{"name":"Amarpur","slug":"amarpur","region":"34","country":"IN","latitude":"25.03967","longitude":"86.90247","population":25336},{"name":"Amarp\u0101tan","slug":"amarpatan","region":"35","country":"IN","latitude":"24.31371","longitude":"80.97703","population":19409},{"name":"Ambad","slug":"ambad","region":"16","country":"IN","latitude":"19.61301","longitude":"75.78906","population":31553},{"name":"Ambaji","slug":"ambaji","region":"09","country":"IN","latitude":"24.33174","longitude":"72.84564","population":17753},{"name":"Ambala Sadar","slug":"ambala sadar","region":"10","country":"IN","latitude":"30.33544","longitude":"76.86265","population":104974},{"name":"Amball\u016br","slug":"amballur","region":"13","country":"IN","latitude":"10.43431","longitude":"76.26341","population":29341},{"name":"Ambarnath","slug":"ambarnath","region":"16","country":"IN","latitude":"19.2","longitude":"73.16667","population":253475},{"name":"Ambasamudram","slug":"ambasamudram","region":"25","country":"IN","latitude":"8.71068","longitude":"77.4519","population":35645},{"name":"Ambattur","slug":"ambattur","region":"25","country":"IN","latitude":"13.09818","longitude":"80.16152","population":466205},{"name":"Ambik\u0101pur","slug":"ambikapur","region":"37","country":"IN","latitude":"23.11892","longitude":"83.19537","population":121071},{"name":"Ambik\u0101puram","slug":"ambikapuram","region":"13","country":"IN","latitude":"10.79385","longitude":"76.65303","population":28592},{"name":"Ambur","slug":"ambur","region":"25","country":"IN","latitude":"12.79163","longitude":"78.71644","population":114608},{"name":"Amb\u0101h","slug":"ambah","region":"35","country":"IN","latitude":"26.70423","longitude":"78.22678","population":47177},{"name":"Amb\u0101jog\u0101i","slug":"ambajogai","region":"16","country":"IN","latitude":"18.73312","longitude":"76.38616","population":74114},{"name":"Amb\u0101la","slug":"ambala","region":"10","country":"IN","latitude":"30.36099","longitude":"76.79782","population":195153},{"name":"Amet","slug":"amet","region":"24","country":"IN","latitude":"25.30609","longitude":"73.9258","population":17434},{"name":"Amla","slug":"amla","region":"35","country":"IN","latitude":"21.92485","longitude":"78.12786","population":30215},{"name":"Amlai","slug":"amlai","region":"35","country":"IN","latitude":"23.19838","longitude":"81.58064","population":30354},{"name":"Ammainaickanur","slug":"ammainaickanur","region":"25","country":"IN","latitude":"10.16707","longitude":"77.91318","population":19257},{"name":"Amod","slug":"amod","region":"09","country":"IN","latitude":"21.99317","longitude":"72.87047","population":18742},{"name":"Amravati","slug":"amravati","region":"16","country":"IN","latitude":"20.93333","longitude":"77.75","population":647057},{"name":"Amreli","slug":"amreli","region":"09","country":"IN","latitude":"21.59983","longitude":"71.21169","population":117967},{"name":"Amritsar","slug":"amritsar","region":"23","country":"IN","latitude":"31.62234","longitude":"74.87534","population":1159227},{"name":"Amroha","slug":"amroha","region":"36","country":"IN","latitude":"28.90314","longitude":"78.46984","population":176253},{"name":"Amroli","slug":"amroli","region":"09","country":"IN","latitude":"21.25084","longitude":"72.83878","population":17082},{"name":"Amud\u0101lavalasa","slug":"amudalavalasa","region":"02","country":"IN","latitude":"18.41025","longitude":"83.90295","population":39799},{"name":"Am\u012bngarh","slug":"amingarh","region":"19","country":"IN","latitude":"16.05662","longitude":"75.94773","population":15073},{"name":"Am\u012bnpur","slug":"aminpur","region":"40","country":"IN","latitude":"17.5242","longitude":"78.32273","population":36452},{"name":"Anaimalai","slug":"anaimalai","region":"25","country":"IN","latitude":"10.58303","longitude":"76.93441","population":17208},{"name":"Anakapalle","slug":"anakapalle","region":"02","country":"IN","latitude":"17.69134","longitude":"83.00395","population":86519},{"name":"Anakaputhur","slug":"anakaputhur","region":"25","country":"IN","latitude":"12.9828","longitude":"80.1264","population":48050},{"name":"Anand","slug":"anand","region":"09","country":"IN","latitude":"22.55251","longitude":"72.9552","population":209410},{"name":"Anandpur","slug":"anandpur","region":"23","country":"IN","latitude":"31.23926","longitude":"76.50253","population":16282},{"name":"Anandpur","slug":"anandpur","region":"21","country":"IN","latitude":"21.21411","longitude":"86.12492","population":39585},{"name":"Anantapur","slug":"anantapur","region":"02","country":"IN","latitude":"14.67784","longitude":"77.60813","population":267161},{"name":"Anantnag","slug":"anantnag","region":"12","country":"IN","latitude":"33.73068","longitude":"75.15418","population":150592},{"name":"Ancharakandy","slug":"ancharakandy","region":"13","country":"IN","latitude":"11.8841","longitude":"75.48501","population":23030},{"name":"Andada","slug":"andada","region":"09","country":"IN","latitude":"21.65588","longitude":"73.02151","population":16730},{"name":"Andipalayam","slug":"andipalayam","region":"25","country":"IN","latitude":"11.09246","longitude":"77.31225","population":25539},{"name":"Andol","slug":"andol","region":"40","country":"IN","latitude":"17.81458","longitude":"78.07713","population":24645},{"name":"Anekal","slug":"anekal","region":"19","country":"IN","latitude":"12.7111","longitude":"77.69557","population":44260},{"name":"Angam\u0101li","slug":"angamali","region":"13","country":"IN","latitude":"10.19055","longitude":"76.38789","population":34399},{"name":"Angul","slug":"angul","region":"21","country":"IN","latitude":"20.84089","longitude":"85.10192","population":44386},{"name":"Anjad","slug":"anjad","region":"35","country":"IN","latitude":"22.04171","longitude":"75.05519","population":26289},{"name":"Anjangaon","slug":"anjangaon","region":"16","country":"IN","latitude":"21.16516","longitude":"77.3091","population":56380},{"name":"Anj\u0101r","slug":"anjar","region":"09","country":"IN","latitude":"23.11316","longitude":"70.02671","population":87183},{"name":"Anklav","slug":"anklav","region":"09","country":"IN","latitude":"22.37738","longitude":"73.00072","population":21003},{"name":"Ankleshwar","slug":"ankleshwar","region":"09","country":"IN","latitude":"21.63236","longitude":"72.99001","population":89457},{"name":"Anklesvar INA","slug":"anklesvar ina","region":"09","country":"IN","latitude":"21.61675","longitude":"73.02759","population":24789},{"name":"Ankola","slug":"ankola","region":"19","country":"IN","latitude":"14.66049","longitude":"74.3047","population":22249},{"name":"Annigeri","slug":"annigeri","region":"19","country":"IN","latitude":"15.42513","longitude":"75.4335","population":28267},{"name":"Annur","slug":"annur","region":"25","country":"IN","latitude":"11.23616","longitude":"77.10514","population":20079},{"name":"Ann\u0101malainagar","slug":"annamalainagar","region":"25","country":"IN","latitude":"11.4","longitude":"79.73333","population":16289},{"name":"Anshing","slug":"anshing","region":"16","country":"IN","latitude":"20.0409","longitude":"77.31501","population":19000},{"name":"Anta","slug":"anta","region":"24","country":"IN","latitude":"25.15","longitude":"76.3","population":32377},{"name":"Anthiyur","slug":"anthiyur","region":"25","country":"IN","latitude":"11.57506","longitude":"77.59043","population":21086},{"name":"Anupp\u0101nadi","slug":"anuppanadi","region":"25","country":"IN","latitude":"9.90396","longitude":"78.14326","population":26158},{"name":"An\u016bpgarh","slug":"anupgarh","region":"24","country":"IN","latitude":"29.19111","longitude":"73.20861","population":33309},{"name":"An\u016bppur","slug":"anuppur","region":"35","country":"IN","latitude":"23.10344","longitude":"81.69083","population":19899},{"name":"An\u016bpshahr","slug":"anupshahr","region":"36","country":"IN","latitude":"28.35748","longitude":"78.26914","population":25306},{"name":"Aonla","slug":"aonla","region":"36","country":"IN","latitude":"28.27402","longitude":"79.16521","population":50011},{"name":"Arakkonam","slug":"arakkonam","region":"25","country":"IN","latitude":"13.08449","longitude":"79.67053","population":79080},{"name":"Aramboli","slug":"aramboli","region":"25","country":"IN","latitude":"8.24962","longitude":"77.52161","population":22846},{"name":"Arang","slug":"arang","region":"37","country":"IN","latitude":"21.19639","longitude":"81.96912","population":19091},{"name":"Arant\u0101ngi","slug":"arantangi","region":"25","country":"IN","latitude":"10.17235","longitude":"78.99118","population":40814},{"name":"Arcot","slug":"arcot","region":"25","country":"IN","latitude":"12.90569","longitude":"79.31897","population":55955},{"name":"Areraj","slug":"areraj","region":"34","country":"IN","latitude":"26.5503","longitude":"84.6801","population":26014},{"name":"Ariyallur","slug":"ariyallur","region":"13","country":"IN","latitude":"11.08328","longitude":"75.84904","population":22558},{"name":"Ariyal\u016br","slug":"ariyalur","region":"25","country":"IN","latitude":"11.13849","longitude":"79.07556","population":29144},{"name":"Ariy\u0101nkuppam","slug":"ariyankuppam","region":"22","country":"IN","latitude":"11.89532","longitude":"79.80709","population":29808},{"name":"Arkalg\u016bd","slug":"arkalgud","region":"19","country":"IN","latitude":"12.76171","longitude":"76.06035","population":16810},{"name":"Arni","slug":"arni","region":"25","country":"IN","latitude":"12.66771","longitude":"79.28529","population":63671},{"name":"Aroor","slug":"aroor","region":"13","country":"IN","latitude":"9.8694","longitude":"76.30498","population":39214},{"name":"Arrah","slug":"arrah","region":"34","country":"IN","latitude":"25.55629","longitude":"84.66335","population":261430},{"name":"Arsikere","slug":"arsikere","region":"19","country":"IN","latitude":"13.31446","longitude":"76.25704","population":53216},{"name":"Arukutti","slug":"arukutti","region":"13","country":"IN","latitude":"9.86667","longitude":"76.35","population":17944},{"name":"Arumanai","slug":"arumanai","region":"25","country":"IN","latitude":"8.36696","longitude":"77.24333","population":16283},{"name":"Arumuganeri","slug":"arumuganeri","region":"25","country":"IN","latitude":"8.5688","longitude":"78.09091","population":27266},{"name":"Aruppukkottai","slug":"aruppukkottai","region":"25","country":"IN","latitude":"9.5096","longitude":"78.09588","population":87722},{"name":"Arwal","slug":"arwal","region":"34","country":"IN","latitude":"25.24281","longitude":"84.66571","population":51849},{"name":"Ar\u0101mb\u0101gh","slug":"arambagh","region":"28","country":"IN","latitude":"22.88333","longitude":"87.78333","population":60639},{"name":"Ar\u0101ria","slug":"araria","region":"34","country":"IN","latitude":"26.14934","longitude":"87.51323","population":79021},{"name":"Ashoknagar","slug":"ashoknagar","region":"35","country":"IN","latitude":"24.57578","longitude":"77.73123","population":81828},{"name":"Ashoknagar Kalyangarh","slug":"ashoknagar kalyangarh","region":"28","country":"IN","latitude":"22.86416","longitude":"88.63701","population":111475},{"name":"Ashta","slug":"ashta","region":"35","country":"IN","latitude":"23.01754","longitude":"76.72208","population":53184},{"name":"Ashta","slug":"ashta","region":"16","country":"IN","latitude":"16.94943","longitude":"74.40936","population":37105},{"name":"Asif\u0101b\u0101d","slug":"asifabad","region":"40","country":"IN","latitude":"19.35851","longitude":"79.28415","population":23059},{"name":"As\u0101ra","slug":"asara","region":"36","country":"IN","latitude":"29.24714","longitude":"77.30886","population":15959},{"name":"Atarra","slug":"atarra","region":"36","country":"IN","latitude":"25.28618","longitude":"80.57155","population":46168},{"name":"Athani","slug":"athani","region":"19","country":"IN","latitude":"16.72613","longitude":"75.06421","population":47842},{"name":"Athiyannur","slug":"athiyannur","region":"13","country":"IN","latitude":"8.393","longitude":"77.06371","population":40712},{"name":"Atholi","slug":"atholi","region":"13","country":"IN","latitude":"11.38853","longitude":"75.7597","population":28213},{"name":"Atmak\u016br","slug":"atmakur","region":"02","country":"IN","latitude":"15.88109","longitude":"78.58704","population":35137},{"name":"Atraul\u012b","slug":"atrauli","region":"36","country":"IN","latitude":"28.02964","longitude":"78.28571","population":47512},{"name":"Attibele","slug":"attibele","region":"19","country":"IN","latitude":"12.77809","longitude":"77.77259","population":20532},{"name":"Attili","slug":"attili","region":"02","country":"IN","latitude":"16.7","longitude":"81.6","population":68196},{"name":"Attimarappatti","slug":"attimarappatti","region":"25","country":"IN","latitude":"8.73988","longitude":"78.10534","population":22218},{"name":"Attingal","slug":"attingal","region":"13","country":"IN","latitude":"8.69609","longitude":"76.81507","population":37346},{"name":"Attur","slug":"attur","region":"25","country":"IN","latitude":"11.59414","longitude":"78.60143","population":61793},{"name":"Auhammadpur M\u0101jri","slug":"auhammadpur majri","region":"07","country":"IN","latitude":"28.72922","longitude":"77.03827","population":17462},{"name":"Auraiya","slug":"auraiya","region":"36","country":"IN","latitude":"26.46517","longitude":"79.50918","population":70508},{"name":"Aurangabad","slug":"aurangabad","region":"16","country":"IN","latitude":"19.87757","longitude":"75.34226","population":1175116},{"name":"Aurangabad Cantonment","slug":"aurangabad cantonment","region":"16","country":"IN","latitude":"19.87609","longitude":"75.29161","population":18051},{"name":"Aurang\u0101b\u0101d","slug":"aurangabad","region":"34","country":"IN","latitude":"24.75204","longitude":"84.3742","population":102244},{"name":"Aur\u0101d","slug":"aurad","region":"19","country":"IN","latitude":"18.25397","longitude":"77.41761","population":19849},{"name":"Ausa","slug":"ausa","region":"16","country":"IN","latitude":"18.24728","longitude":"76.4993","population":36118},{"name":"Avadi","slug":"avadi","region":"25","country":"IN","latitude":"13.1147","longitude":"80.10981","population":345996},{"name":"Aval\u0113palli","slug":"avalepalli","region":"25","country":"IN","latitude":"12.77137","longitude":"77.85941","population":17859},{"name":"Avanigadda","slug":"avanigadda","region":"02","country":"IN","latitude":"16.02148","longitude":"80.91808","population":25761},{"name":"Avaniy\u0101puram","slug":"avaniyapuram","region":"25","country":"IN","latitude":"9.88179","longitude":"78.11255","population":89635},{"name":"Avilala","slug":"avilala","region":"02","country":"IN","latitude":"13.61106","longitude":"79.4208","population":24839},{"name":"Avinashi","slug":"avinashi","region":"25","country":"IN","latitude":"11.19297","longitude":"77.26865","population":28868},{"name":"Aya Nagar","slug":"aya nagar","region":"07","country":"IN","latitude":"28.47202","longitude":"77.1327","population":33123},{"name":"Ayakudi","slug":"ayakudi","region":"25","country":"IN","latitude":"10.44992","longitude":"77.55198","population":27156},{"name":"Ayanavelikulangara Vadakku","slug":"ayanavelikulangara vadakku","region":"13","country":"IN","latitude":"9.04298","longitude":"76.52297","population":24268},{"name":"Aymanam","slug":"aymanam","region":"13","country":"IN","latitude":"9.60684","longitude":"76.50055","population":34470},{"name":"Ayodhya","slug":"ayodhya","region":"36","country":"IN","latitude":"26.79909","longitude":"82.2047","population":53293},{"name":"Ayyalur","slug":"ayyalur","region":"25","country":"IN","latitude":"10.48185","longitude":"78.15639","population":17100},{"name":"Ayyampett\u0101i","slug":"ayyampettai","region":"25","country":"IN","latitude":"10.90141","longitude":"79.17984","population":16263},{"name":"Azamgarh","slug":"azamgarh","region":"36","country":"IN","latitude":"26.06832","longitude":"83.18358","population":116644},{"name":"Azhikk\u014dd","slug":"azhikkod","region":"13","country":"IN","latitude":"11.91985","longitude":"75.33549","population":25195},{"name":"Azhiy\u016br","slug":"azhiyur","region":"13","country":"IN","latitude":"11.69348","longitude":"75.56013","population":30023},{"name":"Azhoor","slug":"azhoor","region":"13","country":"IN","latitude":"8.64415","longitude":"76.79897","population":27390},{"name":"Baben","slug":"baben","region":"09","country":"IN","latitude":"21.13725","longitude":"73.09647","population":15610},{"name":"Baberu","slug":"baberu","region":"36","country":"IN","latitude":"25.54711","longitude":"80.70443","population":15607},{"name":"Babl\u0101i","slug":"bablai","region":"10","country":"IN","latitude":"30.35729","longitude":"76.879","population":26412},{"name":"Babr\u0101la","slug":"babrala","region":"36","country":"IN","latitude":"28.26419","longitude":"78.4056","population":16670},{"name":"Bab\u012bna","slug":"babina","region":"36","country":"IN","latitude":"25.23947","longitude":"78.47028","population":35538},{"name":"Bacheli","slug":"bacheli","region":"37","country":"IN","latitude":"18.68435","longitude":"81.26861","population":21435},{"name":"Bachhraon","slug":"bachhraon","region":"36","country":"IN","latitude":"28.92694","longitude":"78.23456","population":29232},{"name":"Bada Barab\u012bl","slug":"bada barabil","region":"21","country":"IN","latitude":"22.11186","longitude":"85.38684","population":56870},{"name":"Bada Malhera","slug":"bada malhera","region":"35","country":"IN","latitude":"24.56412","longitude":"79.30712","population":18335},{"name":"Badagara","slug":"badagara","region":"13","country":"IN","latitude":"11.59776","longitude":"75.58142","population":76493},{"name":"Baddi","slug":"baddi","region":"11","country":"IN","latitude":"30.95783","longitude":"76.79136","population":29911},{"name":"Badg\u0101m","slug":"badgam","region":"12","country":"IN","latitude":"34.01524","longitude":"74.72074","population":15338},{"name":"Badi","slug":"badi","region":"35","country":"IN","latitude":"23.03667","longitude":"78.08417","population":19603},{"name":"Badlapur","slug":"badlapur","region":"16","country":"IN","latitude":"19.15516","longitude":"73.26553","population":174226},{"name":"Badn\u0101war","slug":"badnawar","region":"35","country":"IN","latitude":"23.02181","longitude":"75.23268","population":20917},{"name":"Badvel","slug":"badvel","region":"02","country":"IN","latitude":"14.7451","longitude":"79.06288","population":70626},{"name":"Bad\u0101mib\u0101gh","slug":"badamibagh","region":"12","country":"IN","latitude":"34.07381","longitude":"74.85276","population":22214},{"name":"Bad\u016bria","slug":"baduria","region":"28","country":"IN","latitude":"22.74431","longitude":"88.78655","population":49547},{"name":"Bagaha","slug":"bagaha","region":"34","country":"IN","latitude":"27.09918","longitude":"84.09003","population":112634},{"name":"Bagaha","slug":"bagaha","region":"34","country":"IN","latitude":"24.52898","longitude":"85.06019","population":91383},{"name":"Bagalkot","slug":"bagalkot","region":"19","country":"IN","latitude":"16.18673","longitude":"75.69614","population":111933},{"name":"Bagar","slug":"bagar","region":"24","country":"IN","latitude":"28.18784","longitude":"75.50012","population":15670},{"name":"Bagasra","slug":"bagasra","region":"09","country":"IN","latitude":"21.48719","longitude":"70.95516","population":34521},{"name":"Bagbera","slug":"bagbera","region":"38","country":"IN","latitude":"22.75948","longitude":"86.19049","population":78356},{"name":"Bagdogra","slug":"bagdogra","region":"28","country":"IN","latitude":"26.69929","longitude":"88.31177","population":17372},{"name":"Bagha Purana","slug":"bagha purana","region":"23","country":"IN","latitude":"30.68809","longitude":"75.09838","population":25206},{"name":"Bagru","slug":"bagru","region":"24","country":"IN","latitude":"26.81067","longitude":"75.54702","population":31229},{"name":"Bagul\u0101","slug":"bagula","region":"28","country":"IN","latitude":"23.33664","longitude":"88.64109","population":20999},{"name":"Bahadurgarh","slug":"bahadurgarh","region":"10","country":"IN","latitude":"28.69287","longitude":"76.93555","population":170767},{"name":"Baharampur","slug":"baharampur","region":"28","country":"IN","latitude":"24.10473","longitude":"88.25155","population":180547},{"name":"Baheri","slug":"baheri","region":"36","country":"IN","latitude":"28.77416","longitude":"79.4974","population":63953},{"name":"Bahjoi","slug":"bahjoi","region":"36","country":"IN","latitude":"28.39502","longitude":"78.62659","population":33752},{"name":"Bahraigh","slug":"bahraigh","region":"36","country":"IN","latitude":"27.57429","longitude":"81.59474","population":182218},{"name":"Bahula","slug":"bahula","region":"28","country":"IN","latitude":"23.65176","longitude":"87.16475","population":16264},{"name":"Bah\u0101durganj","slug":"bahadurganj","region":"34","country":"IN","latitude":"26.26172","longitude":"87.82443","population":36993},{"name":"Baidyab\u0101ti","slug":"baidyabati","region":"28","country":"IN","latitude":"22.78498","longitude":"88.32586","population":115504},{"name":"Baihar","slug":"baihar","region":"35","country":"IN","latitude":"22.10133","longitude":"80.54967","population":16650},{"name":"Baikunthpur","slug":"baikunthpur","region":"37","country":"IN","latitude":"23.26206","longitude":"82.56051","population":28431},{"name":"Bail-Hongal","slug":"bail-hongal","region":"19","country":"IN","latitude":"15.8137","longitude":"74.85895","population":49182},{"name":"Bair\u0101gnia","slug":"bairagnia","region":"34","country":"IN","latitude":"26.74063","longitude":"85.27323","population":42895},{"name":"Bakarw\u0101la","slug":"bakarwala","region":"07","country":"IN","latitude":"28.6678","longitude":"77.02011","population":18122},{"name":"Bakhri","slug":"bakhri","region":"34","country":"IN","latitude":"25.59889","longitude":"86.26074","population":40043},{"name":"Bakhtiarpur","slug":"bakhtiarpur","region":"34","country":"IN","latitude":"25.45598","longitude":"85.5329","population":47897},{"name":"Bakhtiy\u0101rpur","slug":"bakhtiyarpur","region":"34","country":"IN","latitude":"25.46179","longitude":"85.53179","population":34533},{"name":"Balakrishnapuram","slug":"balakrishnapuram","region":"25","country":"IN","latitude":"10.35909","longitude":"78.00261","population":25627},{"name":"Balar\u0101mpur","slug":"balarampur","region":"28","country":"IN","latitude":"23.09714","longitude":"86.22292","population":22847},{"name":"Balasore","slug":"balasore","region":"21","country":"IN","latitude":"21.49266","longitude":"86.93348","population":144373},{"name":"Balaungi","slug":"balaungi","region":"23","country":"IN","latitude":"30.73058","longitude":"76.69368","population":15982},{"name":"Baliguda","slug":"baliguda","region":"21","country":"IN","latitude":"20.19966","longitude":"83.90938","population":16611},{"name":"Ballari","slug":"ballari","region":"19","country":"IN","latitude":"15.14205","longitude":"76.92398","population":410445},{"name":"Ballarpur","slug":"ballarpur","region":"16","country":"IN","latitude":"19.84696","longitude":"79.34578","population":92146},{"name":"Ballia","slug":"ballia","region":"34","country":"IN","latitude":"25.42139","longitude":"86.31445","population":47550},{"name":"Balod","slug":"balod","region":"37","country":"IN","latitude":"20.73081","longitude":"81.20578","population":23648},{"name":"Baloda B\u0101z\u0101r","slug":"baloda bazar","region":"37","country":"IN","latitude":"21.65678","longitude":"82.16062","population":26632},{"name":"Balotra","slug":"balotra","region":"24","country":"IN","latitude":"25.83242","longitude":"72.24","population":74496},{"name":"Balr\u0101mpur","slug":"balrampur","region":"36","country":"IN","latitude":"27.42949","longitude":"82.18545","population":77396},{"name":"Balussheri","slug":"balussheri","region":"13","country":"IN","latitude":"11.44738","longitude":"75.82944","population":27363},{"name":"Bal\u0101ng\u012br","slug":"balangir","region":"21","country":"IN","latitude":"20.70419","longitude":"83.49029","population":98238},{"name":"Banat","slug":"banat","region":"36","country":"IN","latitude":"29.46355","longitude":"77.35478","population":21580},{"name":"Banda","slug":"banda","region":"35","country":"IN","latitude":"24.04488","longitude":"78.96094","population":30923},{"name":"Bandipura","slug":"bandipura","region":"12","country":"IN","latitude":"34.41728","longitude":"74.64308","population":37081},{"name":"Banga","slug":"banga","region":"23","country":"IN","latitude":"31.18874","longitude":"75.99495","population":20906},{"name":"Banganapalle","slug":"banganapalle","region":"02","country":"IN","latitude":"15.31771","longitude":"78.22669","population":25325},{"name":"Bangaon","slug":"bangaon","region":"34","country":"IN","latitude":"25.86728","longitude":"86.51152","population":60000},{"name":"Bangaon","slug":"bangaon","region":"28","country":"IN","latitude":"23.04553","longitude":"88.83084","population":111693},{"name":"Bangarapet","slug":"bangarapet","region":"19","country":"IN","latitude":"12.99116","longitude":"78.17804","population":44849},{"name":"Bangawan","slug":"bangawan","region":"35","country":"IN","latitude":"23.19259","longitude":"82.1272","population":20873},{"name":"Bankra","slug":"bankra","region":"28","country":"IN","latitude":"22.60291","longitude":"88.27751","population":56273},{"name":"Bank\u0101pur","slug":"bankapur","region":"19","country":"IN","latitude":"14.92295","longitude":"75.26221","population":22529},{"name":"Banmankhi","slug":"banmankhi","region":"34","country":"IN","latitude":"25.88857","longitude":"87.19421","population":26806},{"name":"Banmankhi Bazar","slug":"banmankhi bazar","region":"34","country":"IN","latitude":"25.88761","longitude":"87.19356","population":30336},{"name":"Bann\u016br","slug":"bannur","region":"19","country":"IN","latitude":"12.33295","longitude":"76.86201","population":25455},{"name":"Bantv\u0101l","slug":"bantval","region":"19","country":"IN","latitude":"12.8905","longitude":"75.03489","population":40155},{"name":"Ban\u016br","slug":"banur","region":"23","country":"IN","latitude":"30.55407","longitude":"76.71948","population":18775},{"name":"Bar Bigha","slug":"bar bigha","region":"34","country":"IN","latitude":"25.21855","longitude":"85.7332","population":41758},{"name":"Bara Uch\u0101na","slug":"bara uchana","region":"10","country":"IN","latitude":"29.46747","longitude":"76.17798","population":16815},{"name":"Baranagar","slug":"baranagar","region":"28","country":"IN","latitude":"22.64132","longitude":"88.37727","population":260072},{"name":"Barauli","slug":"barauli","region":"34","country":"IN","latitude":"26.38109","longitude":"84.58648","population":41877},{"name":"Barauni","slug":"barauni","region":"34","country":"IN","latitude":"25.4709","longitude":"85.976","population":71660},{"name":"Baraut","slug":"baraut","region":"36","country":"IN","latitude":"29.10199","longitude":"77.26334","population":93544},{"name":"Barbigha","slug":"barbigha","region":"34","country":"IN","latitude":"25.2167","longitude":"85.7333","population":46075},{"name":"Barbil","slug":"barbil","region":"21","country":"IN","latitude":"22.10194","longitude":"85.37752","population":66540},{"name":"Barddham\u0101n","slug":"barddhaman","region":"28","country":"IN","latitude":"23.25572","longitude":"87.85691","population":301725},{"name":"Bareilly","slug":"bareilly","region":"36","country":"IN","latitude":"28.36678","longitude":"79.43167","population":745435},{"name":"Bareja","slug":"bareja","region":"09","country":"IN","latitude":"22.84863","longitude":"72.59137","population":19690},{"name":"Bareli","slug":"bareli","region":"35","country":"IN","latitude":"23.00445","longitude":"78.2301","population":34663},{"name":"Bareta","slug":"bareta","region":"23","country":"IN","latitude":"29.86352","longitude":"75.69644","population":17432},{"name":"Bargarh","slug":"bargarh","region":"21","country":"IN","latitude":"21.33348","longitude":"83.61905","population":80625},{"name":"Bargi","slug":"bargi","region":"35","country":"IN","latitude":"22.99138","longitude":"79.8755","population":17588},{"name":"Barg\u016br","slug":"bargur","region":"25","country":"IN","latitude":"12.54288","longitude":"78.35735","population":16366},{"name":"Barhiya","slug":"barhiya","region":"34","country":"IN","latitude":"25.28814","longitude":"86.02055","population":43045},{"name":"Bari S\u0101dri","slug":"bari sadri","region":"24","country":"IN","latitude":"24.41339","longitude":"74.47331","population":15713},{"name":"Barip\u0101da","slug":"baripada","region":"21","country":"IN","latitude":"21.93458","longitude":"86.72852","population":116849},{"name":"Barjala","slug":"barjala","region":"26","country":"IN","latitude":"23.6182","longitude":"91.35596","population":17998},{"name":"Barki Saria","slug":"barki saria","region":"38","country":"IN","latitude":"24.17594","longitude":"85.88938","population":24134},{"name":"Bark\u0101 K\u0101n\u0101","slug":"barka kana","region":"38","country":"IN","latitude":"23.62118","longitude":"85.46748","population":18475},{"name":"Barnagar","slug":"barnagar","region":"35","country":"IN","latitude":"23.0489","longitude":"75.37804","population":36438},{"name":"Barn\u0101la","slug":"barnala","region":"23","country":"IN","latitude":"30.37451","longitude":"75.5487","population":116449},{"name":"Baroda","slug":"baroda","region":"35","country":"IN","latitude":"25.5","longitude":"76.65","population":18437},{"name":"Barpeta","slug":"barpeta","region":"03","country":"IN","latitude":"26.32293","longitude":"91.00632","population":48824},{"name":"Barpeta Road","slug":"barpeta road","region":"03","country":"IN","latitude":"26.50284","longitude":"90.96937","population":35571},{"name":"Barp\u0101li","slug":"barpali","region":"21","country":"IN","latitude":"21.19005","longitude":"83.58721","population":20850},{"name":"Barshi","slug":"barshi","region":"16","country":"IN","latitude":"18.23454","longitude":"75.69275","population":118722},{"name":"Baruipur","slug":"baruipur","region":"28","country":"IN","latitude":"22.36544","longitude":"88.4325","population":53128},{"name":"Barwala","slug":"barwala","region":"09","country":"IN","latitude":"22.21983","longitude":"72.06755","population":17951},{"name":"Barw\u0101h","slug":"barwah","region":"35","country":"IN","latitude":"22.25394","longitude":"76.03853","population":26459},{"name":"Barw\u0101la","slug":"barwala","region":"10","country":"IN","latitude":"29.36747","longitude":"75.90809","population":43384},{"name":"Barw\u0101ni","slug":"barwani","region":"35","country":"IN","latitude":"22.03232","longitude":"74.89982","population":55504},{"name":"Bar\u0101ra","slug":"barara","region":"10","country":"IN","latitude":"30.21465","longitude":"77.04025","population":21545},{"name":"Basavakalyan","slug":"basavakalyan","region":"19","country":"IN","latitude":"17.87445","longitude":"76.94972","population":69717},{"name":"Basavana B\u0101gev\u0101di","slug":"basavana bagevadi","region":"19","country":"IN","latitude":"16.57278","longitude":"75.97252","population":33198},{"name":"Basi","slug":"basi","region":"23","country":"IN","latitude":"30.6885","longitude":"76.40111","population":20288},{"name":"Basi","slug":"basi","region":"23","country":"IN","latitude":"30.58813","longitude":"76.84498","population":26295},{"name":"Basi","slug":"basi","region":"24","country":"IN","latitude":"26.8315","longitude":"76.04856","population":26029},{"name":"Basirhat City","slug":"basirhat city","region":"28","country":"IN","latitude":"22.66142","longitude":"88.85477","population":143007},{"name":"Basmat","slug":"basmat","region":"16","country":"IN","latitude":"19.32872","longitude":"77.15746","population":68846},{"name":"Basni","slug":"basni","region":"24","country":"IN","latitude":"27.17232","longitude":"73.64519","population":29187},{"name":"Basoda","slug":"basoda","region":"35","country":"IN","latitude":"23.85153","longitude":"77.93652","population":78289},{"name":"Bast\u012b","slug":"basti","region":"36","country":"IN","latitude":"26.78817","longitude":"82.71617","population":115115},{"name":"Basukinath","slug":"basukinath","region":"38","country":"IN","latitude":"24.39446","longitude":"87.08643","population":17123},{"name":"Baswa","slug":"baswa","region":"24","country":"IN","latitude":"27.14955","longitude":"76.58345","population":22515},{"name":"Bathinda","slug":"bathinda","region":"23","country":"IN","latitude":"30.20747","longitude":"74.93893","population":285788},{"name":"Bat\u0101la","slug":"batala","region":"23","country":"IN","latitude":"31.80921","longitude":"75.20294","population":158621},{"name":"Baud","slug":"baud","region":"21","country":"IN","latitude":"20.83773","longitude":"84.32618","population":20424},{"name":"Baw\u0101na","slug":"bawana","region":"07","country":"IN","latitude":"28.7982","longitude":"77.03431","population":73680},{"name":"Baw\u0101ni Khera","slug":"bawani khera","region":"10","country":"IN","latitude":"28.94919","longitude":"76.03108","population":20289},{"name":"Bayad","slug":"bayad","region":"09","country":"IN","latitude":"23.2234","longitude":"73.21491","population":17886},{"name":"Bay\u0101na","slug":"bayana","region":"24","country":"IN","latitude":"26.90791","longitude":"77.28985","population":38502},{"name":"Bedi","slug":"bedi","region":"09","country":"IN","latitude":"22.50143","longitude":"70.04363","population":21327},{"name":"Beed","slug":"beed","region":"16","country":"IN","latitude":"18.98921","longitude":"75.75634","population":146709},{"name":"Begamganj","slug":"begamganj","region":"35","country":"IN","latitude":"23.59917","longitude":"78.34064","population":34031},{"name":"Begampur","slug":"begampur","region":"07","country":"IN","latitude":"28.72655","longitude":"77.06689","population":53682},{"name":"Begusarai","slug":"begusarai","region":"34","country":"IN","latitude":"25.41853","longitude":"86.13389","population":252008},{"name":"Beg\u016bn","slug":"begun","region":"24","country":"IN","latitude":"24.98333","longitude":"75","population":20836},{"name":"Behat","slug":"behat","region":"36","country":"IN","latitude":"30.1718","longitude":"77.6139","population":18223},{"name":"Behror","slug":"behror","region":"24","country":"IN","latitude":"27.88832","longitude":"76.28108","population":29531},{"name":"Bela","slug":"bela","region":"36","country":"IN","latitude":"25.92058","longitude":"81.99629","population":73992},{"name":"Bela","slug":"bela","region":"34","country":"IN","latitude":"25.55707","longitude":"84.43078","population":26707},{"name":"Belagavi","slug":"belagavi","region":"19","country":"IN","latitude":"15.85212","longitude":"74.50447","population":490045},{"name":"Beld\u0101nga","slug":"beldanga","region":"28","country":"IN","latitude":"23.93428","longitude":"88.26018","population":27489},{"name":"Bellampalli","slug":"bellampalli","region":"40","country":"IN","latitude":"19.05577","longitude":"79.493","population":66660},{"name":"Belonia","slug":"belonia","region":"26","country":"IN","latitude":"23.25178","longitude":"91.45407","population":19996},{"name":"Belpahar","slug":"belpahar","region":"21","country":"IN","latitude":"21.8218","longitude":"83.8458","population":38993},{"name":"Belsand","slug":"belsand","region":"34","country":"IN","latitude":"26.44365","longitude":"85.40076","population":20566},{"name":"Bel\u016br","slug":"belur","region":"19","country":"IN","latitude":"13.16558","longitude":"75.86519","population":22484},{"name":"Bemet\u0101ra","slug":"bemetara","region":"37","country":"IN","latitude":"21.71556","longitude":"81.53423","population":28536},{"name":"Bengaluru","slug":"bengaluru","region":"19","country":"IN","latitude":"12.97194","longitude":"77.59369","population":8495492},{"name":"Benipur","slug":"benipur","region":"34","country":"IN","latitude":"26.05509","longitude":"86.14557","population":75317},{"name":"Beoh\u0101ri","slug":"beohari","region":"35","country":"IN","latitude":"24.02423","longitude":"81.37831","population":24545},{"name":"Berasia","slug":"berasia","region":"35","country":"IN","latitude":"23.63134","longitude":"77.43351","population":30951},{"name":"Beri Kh\u0101s","slug":"beri khas","region":"10","country":"IN","latitude":"28.70146","longitude":"76.57708","population":16727},{"name":"Bermo","slug":"bermo","region":"38","country":"IN","latitude":"23.78781","longitude":"85.93526","population":17401},{"name":"Betamcherla","slug":"betamcherla","region":"02","country":"IN","latitude":"15.45144","longitude":"78.14797","population":38994},{"name":"Betma","slug":"betma","region":"35","country":"IN","latitude":"22.68653","longitude":"75.61456","population":15999},{"name":"Bettiah","slug":"bettiah","region":"34","country":"IN","latitude":"26.80229","longitude":"84.50311","population":132209},{"name":"Bet\u016bl","slug":"betul","region":"35","country":"IN","latitude":"21.90056","longitude":"77.90229","population":103330},{"name":"Bewar","slug":"bewar","region":"36","country":"IN","latitude":"27.21869","longitude":"79.29761","population":23280},{"name":"Beypore","slug":"beypore","region":"13","country":"IN","latitude":"11.17151","longitude":"75.80611","population":70751},{"name":"Be\u0101war","slug":"beawar","region":"24","country":"IN","latitude":"26.10119","longitude":"74.32028","population":151152},{"name":"Bhabhua","slug":"bhabhua","region":"34","country":"IN","latitude":"25.04049","longitude":"83.60749","population":50179},{"name":"Bhach\u0101u","slug":"bhachau","region":"09","country":"IN","latitude":"23.29858","longitude":"70.34279","population":39532},{"name":"Bhadauni","slug":"bhadauni","region":"34","country":"IN","latitude":"24.87544","longitude":"85.53369","population":20739},{"name":"Bhadaur","slug":"bhadaur","region":"23","country":"IN","latitude":"30.47651","longitude":"75.33049","population":18561},{"name":"Bhadgaon","slug":"bhadgaon","region":"16","country":"IN","latitude":"20.66905","longitude":"75.22937","population":37214},{"name":"Bhadohi","slug":"bhadohi","region":"36","country":"IN","latitude":"25.39526","longitude":"82.5703","population":78568},{"name":"Bhadrak","slug":"bhadrak","region":"21","country":"IN","latitude":"21.05447","longitude":"86.5156","population":121338},{"name":"Bhadravati","slug":"bhadravati","region":"16","country":"IN","latitude":"20.1001","longitude":"79.11442","population":60565},{"name":"Bhadreswar","slug":"bhadreswar","region":"28","country":"IN","latitude":"22.82449","longitude":"88.33841","population":121662},{"name":"Bhadr\u0101chalam","slug":"bhadrachalam","region":"40","country":"IN","latitude":"17.66846","longitude":"80.88887","population":50087},{"name":"Bhadr\u0101vati","slug":"bhadravati","region":"19","country":"IN","latitude":"13.84846","longitude":"75.70502","population":163903},{"name":"Bhainsdehi","slug":"bhainsdehi","region":"35","country":"IN","latitude":"21.64491","longitude":"77.63023","population":16400},{"name":"Bhaisa","slug":"bhaisa","region":"40","country":"IN","latitude":"19.11285","longitude":"77.96336","population":49764},{"name":"Bhand\u0101ra","slug":"bhandara","region":"16","country":"IN","latitude":"21.16817","longitude":"79.64885","population":91845},{"name":"Bhanjanagar","slug":"bhanjanagar","region":"21","country":"IN","latitude":"19.92719","longitude":"84.58201","population":20647},{"name":"Bharanik\u0101vu Tekku","slug":"bharanikavu tekku","region":"13","country":"IN","latitude":"9.18485","longitude":"76.56076","population":15922},{"name":"Bharatpur","slug":"bharatpur","region":"24","country":"IN","latitude":"27.21731","longitude":"77.49009","population":252838},{"name":"Bharthana","slug":"bharthana","region":"36","country":"IN","latitude":"26.75231","longitude":"79.2218","population":41055},{"name":"Bharw\u0101ri","slug":"bharwari","region":"36","country":"IN","latitude":"25.56078","longitude":"81.49164","population":16411},{"name":"Bhar\u016bch","slug":"bharuch","region":"09","country":"IN","latitude":"21.69482","longitude":"72.9805","population":169007},{"name":"Bhati","slug":"bhati","region":"07","country":"IN","latitude":"28.42953","longitude":"77.22569","population":18864},{"name":"Bhatkal","slug":"bhatkal","region":"19","country":"IN","latitude":"13.98534","longitude":"74.55531","population":32000},{"name":"Bhattiprolu","slug":"bhattiprolu","region":"02","country":"IN","latitude":"16.1026","longitude":"80.78074","population":18001},{"name":"Bhauri","slug":"bhauri","region":"24","country":"IN","latitude":"24.66094","longitude":"72.91401","population":15312},{"name":"Bhavnagar","slug":"bhavnagar","region":"09","country":"IN","latitude":"21.76287","longitude":"72.15331","population":605882},{"name":"Bhav\u0101ni","slug":"bhavani","region":"25","country":"IN","latitude":"11.44553","longitude":"77.68215","population":39744},{"name":"Bhawanipur","slug":"bhawanipur","region":"34","country":"IN","latitude":"26.45352","longitude":"87.02744","population":27000},{"name":"Bhaw\u0101ni Mandi","slug":"bhawani mandi","region":"35","country":"IN","latitude":"24.41582","longitude":"75.83552","population":42283},{"name":"Bhaw\u0101nipatna","slug":"bhawanipatna","region":"21","country":"IN","latitude":"19.90717","longitude":"83.16697","population":69045},{"name":"Bhaw\u0101n\u012bgarh","slug":"bhawanigarh","region":"23","country":"IN","latitude":"30.26685","longitude":"76.03854","population":22320},{"name":"Bhayandar","slug":"bhayandar","region":"16","country":"IN","latitude":"19.30157","longitude":"72.85107","population":809378},{"name":"Bhelai","slug":"bhelai","region":"37","country":"IN","latitude":"22.3093","longitude":"82.60953","population":27158},{"name":"Bhetia","slug":"bhetia","region":"38","country":"IN","latitude":"22.79321","longitude":"86.14098","population":174355},{"name":"Bhikangaon","slug":"bhikangaon","region":"35","country":"IN","latitude":"21.86764","longitude":"75.96391","population":16217},{"name":"Bhikkiwind Utt\u0101r","slug":"bhikkiwind uttar","region":"23","country":"IN","latitude":"31.34943","longitude":"74.70271","population":20526},{"name":"Bhiksh\u0101nd\u0101rkovil","slug":"bhikshandarkovil","region":"25","country":"IN","latitude":"10.88266","longitude":"78.70456","population":17257},{"name":"Bhilai","slug":"bhilai","region":"37","country":"IN","latitude":"21.20919","longitude":"81.4285","population":627734},{"name":"Bhilai Charoda","slug":"bhilai charoda","region":"37","country":"IN","latitude":"21.22305","longitude":"81.45609","population":98008},{"name":"Bhiloda","slug":"bhiloda","region":"09","country":"IN","latitude":"23.7676","longitude":"73.24704","population":16074},{"name":"Bhilwara","slug":"bhilwara","region":"24","country":"IN","latitude":"25.34707","longitude":"74.64081","population":359483},{"name":"Bhimavaram","slug":"bhimavaram","region":"02","country":"IN","latitude":"16.54078","longitude":"81.52322","population":146961},{"name":"Bhind","slug":"bhind","region":"35","country":"IN","latitude":"26.56671","longitude":"78.78728","population":197585},{"name":"Bhind\u0101r","slug":"bhindar","region":"24","country":"IN","latitude":"24.50235","longitude":"74.18551","population":17878},{"name":"Bhinga","slug":"bhinga","region":"36","country":"IN","latitude":"27.70283","longitude":"81.9343","population":22016},{"name":"Bhitarw\u0101r","slug":"bhitarwar","region":"35","country":"IN","latitude":"25.79216","longitude":"78.11085","population":19096},{"name":"Bhiwadi","slug":"bhiwadi","region":"24","country":"IN","latitude":"28.21024","longitude":"76.86056","population":104921},{"name":"Bhiwandi","slug":"bhiwandi","region":"16","country":"IN","latitude":"19.30023","longitude":"73.05881","population":874032},{"name":"Bhiw\u0101ni","slug":"bhiwani","region":"10","country":"IN","latitude":"28.79304","longitude":"76.13968","population":196057},{"name":"Bhogpur","slug":"bhogpur","region":"23","country":"IN","latitude":"31.55442","longitude":"75.64271","population":18008},{"name":"Bhokar","slug":"bhokar","region":"16","country":"IN","latitude":"19.21933","longitude":"77.66962","population":32899},{"name":"Bhokardan","slug":"bhokardan","region":"16","country":"IN","latitude":"20.2583","longitude":"75.76997","population":24416},{"name":"Bholav","slug":"bholav","region":"09","country":"IN","latitude":"21.71974","longitude":"73.01098","population":24605},{"name":"Bhongaon","slug":"bhongaon","region":"36","country":"IN","latitude":"27.25515","longitude":"79.18118","population":29911},{"name":"Bhong\u012br","slug":"bhongir","region":"40","country":"IN","latitude":"17.51544","longitude":"78.88563","population":53339},{"name":"Bhoom","slug":"bhoom","region":"16","country":"IN","latitude":"18.45908","longitude":"75.65877","population":18561},{"name":"Bhopal","slug":"bhopal","region":"35","country":"IN","latitude":"23.25469","longitude":"77.40289","population":1798218},{"name":"Bhor","slug":"bhor","region":"16","country":"IN","latitude":"18.14861","longitude":"73.84336","population":18982},{"name":"Bhuban","slug":"bhuban","region":"21","country":"IN","latitude":"20.88197","longitude":"85.83334","population":22200},{"name":"Bhubaneswar","slug":"bhubaneswar","region":"21","country":"IN","latitude":"20.27241","longitude":"85.83385","population":885363},{"name":"Bhudgaon","slug":"bhudgaon","region":"16","country":"IN","latitude":"16.90742","longitude":"74.59954","population":15738},{"name":"Bhuj","slug":"bhuj","region":"09","country":"IN","latitude":"23.25397","longitude":"69.66928","population":148834},{"name":"Bhundsi","slug":"bhundsi","region":"10","country":"IN","latitude":"28.35051","longitude":"77.06144","population":17410},{"name":"Bhupalpally","slug":"bhupalpally","region":"40","country":"IN","latitude":"18.42866","longitude":"79.86385","population":42387},{"name":"Bhusawal","slug":"bhusawal","region":"16","country":"IN","latitude":"21.04365","longitude":"75.78506","population":187421},{"name":"Bhusawar","slug":"bhusawar","region":"24","country":"IN","latitude":"27.03895","longitude":"77.04849","population":19946},{"name":"Bhuw\u0101na","slug":"bhuwana","region":"24","country":"IN","latitude":"24.62143","longitude":"73.70818","population":17665},{"name":"Bh\u0101bhar","slug":"bhabhar","region":"09","country":"IN","latitude":"24.07165","longitude":"71.59745","population":21894},{"name":"Bh\u0101dra","slug":"bhadra","region":"24","country":"IN","latitude":"29.10298","longitude":"75.17138","population":40662},{"name":"Bh\u0101d\u0101sar","slug":"bhadasar","region":"24","country":"IN","latitude":"28.31457","longitude":"74.28952","population":33006},{"name":"Bh\u0101galpur","slug":"bhagalpur","region":"34","country":"IN","latitude":"25.24446","longitude":"86.97183","population":400146},{"name":"Bh\u0101lki","slug":"bhalki","region":"19","country":"IN","latitude":"18.04348","longitude":"77.206","population":40333},{"name":"Bh\u0101lswa Jahangirpur","slug":"bhalswa jahangirpur","region":"07","country":"IN","latitude":"28.73558","longitude":"77.16682","population":197148},{"name":"Bh\u0101nder","slug":"bhander","region":"35","country":"IN","latitude":"25.73581","longitude":"78.74555","population":25204},{"name":"Bh\u0101npura","slug":"bhanpura","region":"35","country":"IN","latitude":"24.513","longitude":"75.7469","population":21013},{"name":"Bh\u0101npur\u012b","slug":"bhanpuri","region":"37","country":"IN","latitude":"21.0919","longitude":"80.93218","population":17270},{"name":"Bh\u0101nvad","slug":"bhanvad","region":"09","country":"IN","latitude":"21.93053","longitude":"69.78081","population":22142},{"name":"Bh\u0101tp\u0101ra","slug":"bhatpara","region":"28","country":"IN","latitude":"22.86643","longitude":"88.40113","population":483129},{"name":"Bh\u0101t\u0101p\u0101ra","slug":"bhatapara","region":"37","country":"IN","latitude":"21.735","longitude":"81.94711","population":57537},{"name":"Bh\u0101y\u0101vadar","slug":"bhayavadar","region":"09","country":"IN","latitude":"21.85523","longitude":"70.24791","population":19458},{"name":"Bh\u012bkhi","slug":"bhikhi","region":"23","country":"IN","latitude":"30.05918","longitude":"75.535","population":17825},{"name":"Bh\u012bmunipatnam","slug":"bhimunipatnam","region":"02","country":"IN","latitude":"17.89017","longitude":"83.45203","population":55082},{"name":"Bh\u012bnm\u0101l","slug":"bhinmal","region":"24","country":"IN","latitude":"24.99944","longitude":"72.27141","population":47932},{"name":"Biaora","slug":"biaora","region":"35","country":"IN","latitude":"23.9205","longitude":"76.91074","population":49093},{"name":"Bicholim","slug":"bicholim","region":"33","country":"IN","latitude":"15.59319","longitude":"73.94571","population":16986},{"name":"Bidar","slug":"bidar","region":"19","country":"IN","latitude":"17.90802","longitude":"77.51524","population":216020},{"name":"Bidh\u016bna","slug":"bidhuna","region":"36","country":"IN","latitude":"26.80172","longitude":"79.50829","population":27158},{"name":"Biht\u0101","slug":"bihta","region":"34","country":"IN","latitude":"25.55885","longitude":"84.87141","population":47549},{"name":"Bih\u0101r Shar\u012bf","slug":"bihar sharif","region":"34","country":"IN","latitude":"25.20084","longitude":"85.52389","population":297268},{"name":"Bih\u0101r\u012bganj","slug":"bihariganj","region":"34","country":"IN","latitude":"25.73415","longitude":"86.98837","population":32805},{"name":"Bih\u0101t","slug":"bihat","region":"34","country":"IN","latitude":"25.42534","longitude":"86.02083","population":67952},{"name":"Bijaipur","slug":"bijaipur","region":"35","country":"IN","latitude":"26.05052","longitude":"77.37138","population":16964},{"name":"Bijaynagar","slug":"bijaynagar","region":"24","country":"IN","latitude":"25.92976","longitude":"74.64916","population":32124},{"name":"Bijbehara","slug":"bijbehara","region":"12","country":"IN","latitude":"33.79378","longitude":"75.107","population":24590},{"name":"Bijnor","slug":"bijnor","region":"36","country":"IN","latitude":"29.373","longitude":"78.13636","population":84593},{"name":"Bijuri","slug":"bijuri","region":"35","country":"IN","latitude":"23.25236","longitude":"82.11673","population":32682},{"name":"Bij\u0101war","slug":"bijawar","region":"35","country":"IN","latitude":"24.62351","longitude":"79.48994","population":20513},{"name":"Bikaner","slug":"bikaner","region":"24","country":"IN","latitude":"28.01762","longitude":"73.31495","population":644406},{"name":"Bikram","slug":"bikram","region":"34","country":"IN","latitude":"25.44708","longitude":"84.86261","population":22486},{"name":"Bikramganj","slug":"bikramganj","region":"34","country":"IN","latitude":"25.21073","longitude":"84.25508","population":48465},{"name":"Bilgi","slug":"bilgi","region":"19","country":"IN","latitude":"16.34714","longitude":"75.61804","population":17792},{"name":"Bilgr\u0101m","slug":"bilgram","region":"36","country":"IN","latitude":"27.17509","longitude":"80.03201","population":27173},{"name":"Bilhaur","slug":"bilhaur","region":"36","country":"IN","latitude":"26.84345","longitude":"80.06388","population":19333},{"name":"Bilimora","slug":"bilimora","region":"09","country":"IN","latitude":"20.76957","longitude":"72.96134","population":510879},{"name":"Bilsanda","slug":"bilsanda","region":"36","country":"IN","latitude":"28.24341","longitude":"79.95135","population":15538},{"name":"Bilsi","slug":"bilsi","region":"36","country":"IN","latitude":"28.12941","longitude":"78.9109","population":26320},{"name":"Bilthra","slug":"bilthra","region":"36","country":"IN","latitude":"26.12705","longitude":"83.89148","population":17228},{"name":"Bil\u0101ra","slug":"bilara","region":"24","country":"IN","latitude":"26.18067","longitude":"73.7055","population":41710},{"name":"Bil\u0101ri","slug":"bilari","region":"36","country":"IN","latitude":"28.62146","longitude":"78.80361","population":29666},{"name":"Bil\u0101sip\u0101ra","slug":"bilasipara","region":"03","country":"IN","latitude":"26.23285","longitude":"90.2341","population":37739},{"name":"Bil\u0101spur","slug":"bilaspur","region":"37","country":"IN","latitude":"22.08005","longitude":"82.15543","population":365579},{"name":"Bindki","slug":"bindki","region":"36","country":"IN","latitude":"26.03613","longitude":"80.57617","population":36058},{"name":"Binika","slug":"binika","region":"21","country":"IN","latitude":"21.02626","longitude":"83.81197","population":15765},{"name":"Birgaon","slug":"birgaon","region":"37","country":"IN","latitude":"21.30758","longitude":"81.62793","population":96294},{"name":"Birmitrapur","slug":"birmitrapur","region":"21","country":"IN","latitude":"22.4","longitude":"84.76667","population":33442},{"name":"Birpara","slug":"birpara","region":"28","country":"IN","latitude":"26.70421","longitude":"89.14547","population":30000},{"name":"Bir\u016br","slug":"birur","region":"19","country":"IN","latitude":"13.59723","longitude":"75.97167","population":23493},{"name":"Bisauli","slug":"bisauli","region":"36","country":"IN","latitude":"28.30772","longitude":"78.93678","population":32154},{"name":"Bishnupur","slug":"bishnupur","region":"28","country":"IN","latitude":"23.0738","longitude":"87.31991","population":64041},{"name":"Bishr\u0101mpur","slug":"bishrampur","region":"38","country":"IN","latitude":"24.25299","longitude":"83.92502","population":42925},{"name":"Biss\u0101u","slug":"bissau","region":"24","country":"IN","latitude":"28.24737","longitude":"75.07666","population":23227},{"name":"Biswanath Chariali","slug":"biswanath chariali","region":"03","country":"IN","latitude":"26.72577","longitude":"93.14659","population":19145},{"name":"Bisw\u0101n","slug":"biswan","region":"36","country":"IN","latitude":"27.49581","longitude":"80.99618","population":52516},{"name":"Bis\u0101lgarh","slug":"bisalgarh","region":"26","country":"IN","latitude":"23.67595","longitude":"91.28325","population":21085},{"name":"Bobbili","slug":"bobbili","region":"02","country":"IN","latitude":"18.57366","longitude":"83.35925","population":56819},{"name":"Bodh Gaya","slug":"bodh gaya","region":"34","country":"IN","latitude":"24.69808","longitude":"84.9869","population":38439},{"name":"Bodhan","slug":"bodhan","region":"40","country":"IN","latitude":"18.66208","longitude":"77.88581","population":77573},{"name":"Bodin\u0101yakkan\u016br","slug":"bodinayakkanur","region":"25","country":"IN","latitude":"10.01171","longitude":"77.34976","population":75680},{"name":"Bodr\u012b","slug":"bodri","region":"37","country":"IN","latitude":"22.02346","longitude":"82.11357","population":17481},{"name":"Bodup\u0101l","slug":"bodupal","region":"40","country":"IN","latitude":"17.41877","longitude":"78.58427","population":43692},{"name":"Boisar","slug":"boisar","region":"16","country":"IN","latitude":"19.80362","longitude":"72.75598","population":36151},{"name":"Bokaj\u0101n","slug":"bokajan","region":"03","country":"IN","latitude":"26.02131","longitude":"93.77945","population":19877},{"name":"Bok\u0101ro","slug":"bokaro","region":"38","country":"IN","latitude":"23.66934","longitude":"86.15161","population":564319},{"name":"Bolpur","slug":"bolpur","region":"28","country":"IN","latitude":"23.66278","longitude":"87.69695","population":70998},{"name":"Bol\u0101rum","slug":"bolarum","region":"40","country":"IN","latitude":"17.55606","longitude":"78.34824","population":34667},{"name":"Bommasandra Industrial Area","slug":"bommasandra industrial area","region":"19","country":"IN","latitude":"12.81774","longitude":"77.68415","population":15254},{"name":"Bongaigaon","slug":"bongaigaon","region":"03","country":"IN","latitude":"26.47703","longitude":"90.55815","population":67322},{"name":"Boothapandi","slug":"boothapandi","region":"25","country":"IN","latitude":"8.26586","longitude":"77.44606","population":15931},{"name":"Bopal","slug":"bopal","region":"09","country":"IN","latitude":"23.03341","longitude":"72.46723","population":37635},{"name":"Borgaon","slug":"borgaon","region":"16","country":"IN","latitude":"20.72272","longitude":"78.60392","population":19759},{"name":"Boriavi","slug":"boriavi","region":"09","country":"IN","latitude":"22.61124","longitude":"72.93283","population":19865},{"name":"Borivli","slug":"borivli","region":"16","country":"IN","latitude":"19.23496","longitude":"72.85976","population":609617},{"name":"Borsad","slug":"borsad","region":"09","country":"IN","latitude":"22.40788","longitude":"72.89817","population":63377},{"name":"Bor\u0101war","slug":"borawar","region":"24","country":"IN","latitude":"27.02366","longitude":"74.67579","population":24975},{"name":"Botad","slug":"botad","region":"09","country":"IN","latitude":"22.16917","longitude":"71.66671","population":130327},{"name":"Boyamp\u0101laiyam","slug":"boyampalaiyam","region":"25","country":"IN","latitude":"11.14875","longitude":"77.35368","population":40503},{"name":"Brahmapur","slug":"brahmapur","region":"21","country":"IN","latitude":"19.31151","longitude":"84.7929","population":356598},{"name":"Brajarajnagar","slug":"brajarajnagar","region":"21","country":"IN","latitude":"21.81667","longitude":"83.91667","population":80403},{"name":"Bramhapuri","slug":"bramhapuri","region":"16","country":"IN","latitude":"20.61107","longitude":"79.86103","population":36025},{"name":"Br\u0101hmana Periya Agrah\u0101ram","slug":"brahmana periya agraharam","region":"25","country":"IN","latitude":"11.36904","longitude":"77.70633","population":24798},{"name":"Br\u0101hman\u0101n di B\u0101ri","slug":"brahmanan di bari","region":"12","country":"IN","latitude":"32.64398","longitude":"74.91099","population":15453},{"name":"Budaun","slug":"budaun","region":"36","country":"IN","latitude":"28.03811","longitude":"79.12668","population":161555},{"name":"Budge Budge","slug":"budge budge","region":"28","country":"IN","latitude":"22.48275","longitude":"88.18176","population":76837},{"name":"Budhl\u0101da","slug":"budhlada","region":"23","country":"IN","latitude":"29.92799","longitude":"75.56205","population":26172},{"name":"Budhni","slug":"budhni","region":"35","country":"IN","latitude":"22.78659","longitude":"77.68109","population":16808},{"name":"Budh\u0101na","slug":"budhana","region":"36","country":"IN","latitude":"29.28805","longitude":"77.47534","population":35442},{"name":"Buguda","slug":"buguda","region":"21","country":"IN","latitude":"19.80806","longitude":"84.79084","population":15176},{"name":"Bulandshahr","slug":"bulandshahr","region":"36","country":"IN","latitude":"28.40392","longitude":"77.85773","population":198612},{"name":"Buld\u0101na","slug":"buldana","region":"16","country":"IN","latitude":"20.52933","longitude":"76.18457","population":67431},{"name":"Burhar","slug":"burhar","region":"35","country":"IN","latitude":"23.21494","longitude":"81.53204","population":19289},{"name":"Burh\u0101npur","slug":"burhanpur","region":"35","country":"IN","latitude":"21.30868","longitude":"76.23026","population":210886},{"name":"Burla","slug":"burla","region":"21","country":"IN","latitude":"21.50976","longitude":"83.87259","population":46698},{"name":"Bur\u0101ri","slug":"burari","region":"07","country":"IN","latitude":"28.7557","longitude":"77.19941","population":146190},{"name":"Buxar","slug":"buxar","region":"34","country":"IN","latitude":"25.57548","longitude":"83.98043","population":102861},{"name":"Byasanagar","slug":"byasanagar","region":"21","country":"IN","latitude":"20.95569","longitude":"86.12643","population":56946},{"name":"Byndoor","slug":"byndoor","region":"19","country":"IN","latitude":"13.86667","longitude":"74.63333","population":20323},{"name":"By\u0101dgi","slug":"byadgi","region":"19","country":"IN","latitude":"14.67325","longitude":"75.4868","population":30014},{"name":"B\u0101bai","slug":"babai","region":"35","country":"IN","latitude":"22.70256","longitude":"77.93494","population":16741},{"name":"B\u0101barpur","slug":"babarpur","region":"07","country":"IN","latitude":"28.68747","longitude":"77.28558","population":37058},{"name":"B\u0101bra","slug":"babra","region":"09","country":"IN","latitude":"21.84577","longitude":"71.30544","population":25270},{"name":"B\u0101da","slug":"bada","region":"24","country":"IN","latitude":"26.06479","longitude":"75.02155","population":20372},{"name":"B\u0101depalli","slug":"badepalli","region":"40","country":"IN","latitude":"16.7549","longitude":"78.14427","population":32598},{"name":"B\u0101dsh\u0101hpur","slug":"badshahpur","region":"10","country":"IN","latitude":"28.39317","longitude":"77.04919","population":15593},{"name":"B\u0101d\u0101mi","slug":"badami","region":"19","country":"IN","latitude":"15.91495","longitude":"75.67683","population":30943},{"name":"B\u0101gbahra","slug":"bagbahra","region":"37","country":"IN","latitude":"21.04606","longitude":"82.3864","population":19529},{"name":"B\u0101gepalli","slug":"bagepalli","region":"19","country":"IN","latitude":"13.78338","longitude":"77.79667","population":27011},{"name":"B\u0101ghpat","slug":"baghpat","region":"36","country":"IN","latitude":"28.94485","longitude":"77.21865","population":41766},{"name":"B\u0101h","slug":"bah","region":"36","country":"IN","latitude":"26.86912","longitude":"78.59385","population":15359},{"name":"B\u0101li","slug":"bali","region":"28","country":"IN","latitude":"22.64859","longitude":"88.34115","population":296973},{"name":"B\u0101li","slug":"bali","region":"24","country":"IN","latitude":"25.19725","longitude":"73.29117","population":19880},{"name":"B\u0101lugaon","slug":"balugaon","region":"21","country":"IN","latitude":"20.17838","longitude":"85.11327","population":17238},{"name":"B\u0101lug\u0101n","slug":"balugan","region":"21","country":"IN","latitude":"19.73333","longitude":"85.21667","population":17645},{"name":"B\u0101lurgh\u0101t","slug":"balurghat","region":"28","country":"IN","latitude":"25.22099","longitude":"88.77732","population":153279},{"name":"B\u0101l\u0101chor","slug":"balachor","region":"23","country":"IN","latitude":"31.06062","longitude":"76.30166","population":21631},{"name":"B\u0101l\u0101gh\u0101t","slug":"balaghat","region":"35","country":"IN","latitude":"21.8156","longitude":"80.18845","population":84261},{"name":"B\u0101l\u0101pur","slug":"balapur","region":"16","country":"IN","latitude":"20.66612","longitude":"76.77386","population":44594},{"name":"B\u0101maur","slug":"bamaur","region":"35","country":"IN","latitude":"26.33895","longitude":"78.10104","population":32838},{"name":"B\u0101mor Kal\u0101n","slug":"bamor kalan","region":"35","country":"IN","latitude":"24.89298","longitude":"78.15105","population":27860},{"name":"B\u0101napur","slug":"banapur","region":"21","country":"IN","latitude":"19.77889","longitude":"85.17033","population":17499},{"name":"B\u0101nda","slug":"banda","region":"36","country":"IN","latitude":"25.47758","longitude":"80.33491","population":152218},{"name":"B\u0101nd\u012bk\u016bi","slug":"bandikui","region":"24","country":"IN","latitude":"27.05087","longitude":"76.57325","population":44664},{"name":"B\u0101ngarda","slug":"bangarda","region":"35","country":"IN","latitude":"22.7592","longitude":"75.79536","population":15761},{"name":"B\u0101ngarda Chhota","slug":"bangarda chhota","region":"35","country":"IN","latitude":"22.74354","longitude":"75.81448","population":64213},{"name":"B\u0101ngarmau","slug":"bangarmau","region":"36","country":"IN","latitude":"26.8912","longitude":"80.21149","population":37425},{"name":"B\u0101nk","slug":"bank","region":"35","country":"IN","latitude":"22.70296","longitude":"75.8039","population":18534},{"name":"B\u0101nka","slug":"banka","region":"34","country":"IN","latitude":"24.88091","longitude":"86.92257","population":45977},{"name":"B\u0101nki","slug":"banki","region":"21","country":"IN","latitude":"20.37912","longitude":"85.52953","population":17521},{"name":"B\u0101nkura","slug":"bankura","region":"28","country":"IN","latitude":"23.23241","longitude":"87.0716","population":133966},{"name":"B\u0101nsb\u0101ria","slug":"bansbaria","region":"28","country":"IN","latitude":"22.95387","longitude":"88.40098","population":108474},{"name":"B\u0101nsd\u012bh","slug":"bansdih","region":"36","country":"IN","latitude":"25.88377","longitude":"84.21827","population":21457},{"name":"B\u0101nsi","slug":"bansi","region":"36","country":"IN","latitude":"27.17749","longitude":"82.93442","population":39926},{"name":"B\u0101nsw\u0101da","slug":"banswada","region":"40","country":"IN","latitude":"18.37725","longitude":"77.88007","population":28384},{"name":"B\u0101nsw\u0101ra","slug":"banswara","region":"24","country":"IN","latitude":"23.54109","longitude":"74.4425","population":101017},{"name":"B\u0101ntva","slug":"bantva","region":"09","country":"IN","latitude":"21.48815","longitude":"70.07576","population":15291},{"name":"B\u0101ola","slug":"baola","region":"09","country":"IN","latitude":"22.82844","longitude":"72.36364","population":42458},{"name":"B\u0101onl\u012b","slug":"baonli","region":"24","country":"IN","latitude":"26.32611","longitude":"76.22829","population":15300},{"name":"B\u0101patla","slug":"bapatla","region":"02","country":"IN","latitude":"15.90422","longitude":"80.46743","population":70777},{"name":"B\u0101prola","slug":"baprola","region":"07","country":"IN","latitude":"28.64133","longitude":"77.01415","population":52744},{"name":"B\u0101ram\u016bla","slug":"baramula","region":"12","country":"IN","latitude":"34.209","longitude":"74.34285","population":77276},{"name":"B\u0101rdoli","slug":"bardoli","region":"09","country":"IN","latitude":"21.12297","longitude":"73.11151","population":60821},{"name":"B\u0101rh","slug":"barh","region":"34","country":"IN","latitude":"25.48339","longitude":"85.70928","population":61470},{"name":"B\u0101ri","slug":"bari","region":"24","country":"IN","latitude":"26.64661","longitude":"77.61634","population":62721},{"name":"B\u0101rmer","slug":"barmer","region":"24","country":"IN","latitude":"25.74572","longitude":"71.39211","population":96225},{"name":"B\u0101runi","slug":"baruni","region":"34","country":"IN","latitude":"25.47509","longitude":"85.96813","population":84888},{"name":"B\u0101r\u0101kpur","slug":"barakpur","region":"28","country":"IN","latitude":"22.76602","longitude":"88.36336","population":148174},{"name":"B\u0101r\u0101mati","slug":"baramati","region":"16","country":"IN","latitude":"18.15174","longitude":"74.57767","population":54415},{"name":"B\u0101r\u0101n","slug":"baran","region":"24","country":"IN","latitude":"25.1","longitude":"76.51667","population":117992},{"name":"B\u0101r\u0101sat","slug":"barasat","region":"28","country":"IN","latitude":"22.72154","longitude":"88.48198","population":298127},{"name":"B\u0101spalli","slug":"baspalli","region":"40","country":"IN","latitude":"17.53909","longitude":"78.36355","population":27563},{"name":"B\u0101sudebpur","slug":"basudebpur","region":"21","country":"IN","latitude":"21.11974","longitude":"86.72896","population":33690},{"name":"B\u0101wal","slug":"bawal","region":"10","country":"IN","latitude":"28.07184","longitude":"76.58312","population":16776},{"name":"B\u0101zpur","slug":"bazpur","region":"39","country":"IN","latitude":"29.15299","longitude":"79.10814","population":23900},{"name":"B\u012bd\u0101sar","slug":"bidasar","region":"24","country":"IN","latitude":"27.83598","longitude":"74.31776","population":35683},{"name":"B\u012bj\u0101pur","slug":"bijapur","region":"37","country":"IN","latitude":"18.79387","longitude":"80.81599","population":16129},{"name":"B\u012bl\u0101spur","slug":"bilaspur","region":"36","country":"IN","latitude":"28.88655","longitude":"79.2703","population":39873},{"name":"B\u012bna","slug":"bina","region":"35","country":"IN","latitude":"24.17161","longitude":"78.18755","population":64529},{"name":"B\u012brpur","slug":"birpur","region":"34","country":"IN","latitude":"26.50823","longitude":"87.01194","population":19932},{"name":"B\u012bsalpur","slug":"bisalpur","region":"36","country":"IN","latitude":"28.29253","longitude":"79.80472","population":68355},{"name":"B\u016bndi","slug":"bundi","region":"24","country":"IN","latitude":"25.43855","longitude":"75.63735","population":104919},{"name":"B\u016bndu","slug":"bundu","region":"38","country":"IN","latitude":"23.16095","longitude":"85.59007","population":21054},{"name":"Calangute","slug":"calangute","region":"33","country":"IN","latitude":"15.5439","longitude":"73.7553","population":17446},{"name":"Canning","slug":"canning","region":"28","country":"IN","latitude":"22.31399","longitude":"88.66508","population":42132},{"name":"Chakapara","slug":"chakapara","region":"28","country":"IN","latitude":"22.63222","longitude":"88.34861","population":27320},{"name":"Chakl\u0101si","slug":"chaklasi","region":"09","country":"IN","latitude":"22.6532","longitude":"72.94497","population":39581},{"name":"Chakradharpur","slug":"chakradharpur","region":"38","country":"IN","latitude":"22.67611","longitude":"85.62892","population":56531},{"name":"Chaksu","slug":"chaksu","region":"24","country":"IN","latitude":"26.6051","longitude":"75.94814","population":33432},{"name":"Chalisgaon","slug":"chalisgaon","region":"16","country":"IN","latitude":"20.45781","longitude":"75.01596","population":97551},{"name":"Challakere","slug":"challakere","region":"19","country":"IN","latitude":"14.318","longitude":"76.65165","population":55194},{"name":"Challapalle","slug":"challapalle","region":"02","country":"IN","latitude":"16.11756","longitude":"80.93139","population":16841},{"name":"Chalthan","slug":"chalthan","region":"09","country":"IN","latitude":"21.15421","longitude":"72.96141","population":21795},{"name":"Chal\u0101la","slug":"chalala","region":"09","country":"IN","latitude":"21.41073","longitude":"71.16621","population":17081},{"name":"Chamba","slug":"chamba","region":"11","country":"IN","latitude":"32.55531","longitude":"76.12647","population":21502},{"name":"Chamrajnagar","slug":"chamrajnagar","region":"19","country":"IN","latitude":"11.92312","longitude":"76.93949","population":69875},{"name":"Chanaje","slug":"chanaje","region":"16","country":"IN","latitude":"18.86131","longitude":"72.95257","population":16714},{"name":"Chandannagar","slug":"chandannagar","region":"28","country":"IN","latitude":"22.86225","longitude":"88.36796","population":180623},{"name":"Chandauli","slug":"chandauli","region":"36","country":"IN","latitude":"25.25803","longitude":"83.26825","population":25035},{"name":"Chanderi","slug":"chanderi","region":"35","country":"IN","latitude":"24.71312","longitude":"78.13809","population":33081},{"name":"Chandia","slug":"chandia","region":"35","country":"IN","latitude":"23.65647","longitude":"80.70911","population":15891},{"name":"Chandigarh","slug":"chandigarh","region":"05","country":"IN","latitude":"30.73629","longitude":"76.7884","population":970602},{"name":"Chandili","slug":"chandili","region":"21","country":"IN","latitude":"19.24665","longitude":"83.40577","population":18552},{"name":"Chandrakona","slug":"chandrakona","region":"28","country":"IN","latitude":"22.73333","longitude":"87.51667","population":21855},{"name":"Chandrapura","slug":"chandrapura","region":"38","country":"IN","latitude":"23.74877","longitude":"86.11955","population":27425},{"name":"Chanduasi","slug":"chanduasi","region":"36","country":"IN","latitude":"28.45178","longitude":"78.78277","population":112635},{"name":"Changan\u0101cheri","slug":"changanacheri","region":"13","country":"IN","latitude":"9.44203","longitude":"76.53604","population":51430},{"name":"Channagiri","slug":"channagiri","region":"19","country":"IN","latitude":"14.02399","longitude":"75.92577","population":21313},{"name":"Channapatna","slug":"channapatna","region":"19","country":"IN","latitude":"12.65143","longitude":"77.20672","population":71942},{"name":"Channar\u0101yapatna","slug":"channarayapatna","region":"19","country":"IN","latitude":"12.90642","longitude":"76.38775","population":40417},{"name":"Chanod","slug":"chanod","region":"09","country":"IN","latitude":"20.34673","longitude":"72.92825","population":18776},{"name":"Chanpatia","slug":"chanpatia","region":"34","country":"IN","latitude":"26.94442","longitude":"84.5377","population":27095},{"name":"Charipara","slug":"charipara","region":"26","country":"IN","latitude":"23.80914","longitude":"91.24805","population":19598},{"name":"Charkhi D\u0101dri","slug":"charkhi dadri","region":"10","country":"IN","latitude":"28.59166","longitude":"76.27161","population":56337},{"name":"Charkh\u0101ri","slug":"charkhari","region":"36","country":"IN","latitude":"25.40304","longitude":"79.74877","population":24881},{"name":"Charth\u0101wal","slug":"charthawal","region":"36","country":"IN","latitude":"29.54687","longitude":"77.59438","population":19942},{"name":"Chas","slug":"chas","region":"38","country":"IN","latitude":"23.63556","longitude":"86.16712","population":141640},{"name":"Chatr\u0101","slug":"chatra","region":"38","country":"IN","latitude":"24.20645","longitude":"84.87085","population":49985},{"name":"Chaumu","slug":"chaumu","region":"24","country":"IN","latitude":"27.16955","longitude":"75.72226","population":64417},{"name":"Chaut\u0101pal","slug":"chautapal","region":"40","country":"IN","latitude":"17.25799","longitude":"78.89776","population":19092},{"name":"Chavara","slug":"chavara","region":"13","country":"IN","latitude":"8.96727","longitude":"76.54188","population":42655},{"name":"Chekki\u0101d","slug":"chekkiad","region":"13","country":"IN","latitude":"11.71733","longitude":"75.6419","population":24246},{"name":"Chelamartam","slug":"chelamartam","region":"13","country":"IN","latitude":"10.13711","longitude":"76.45696","population":16844},{"name":"Chelambra","slug":"chelambra","region":"13","country":"IN","latitude":"11.15086","longitude":"75.87192","population":34149},{"name":"Chelora","slug":"chelora","region":"13","country":"IN","latitude":"11.89494","longitude":"75.43959","population":20952},{"name":"Chemmumiahpet","slug":"chemmumiahpet","region":"02","country":"IN","latitude":"14.46289","longitude":"78.81191","population":31416},{"name":"Chendamangalam","slug":"chendamangalam","region":"13","country":"IN","latitude":"10.16322","longitude":"76.23456","population":29326},{"name":"Chendrappini","slug":"chendrappini","region":"13","country":"IN","latitude":"10.35552","longitude":"76.1282","population":16404},{"name":"Chengala","slug":"chengala","region":"13","country":"IN","latitude":"12.49839","longitude":"75.0503","population":15588},{"name":"Chengalam","slug":"chengalam","region":"13","country":"IN","latitude":"9.59657","longitude":"76.46776","population":16111},{"name":"Chengalpattu","slug":"chengalpattu","region":"25","country":"IN","latitude":"12.69184","longitude":"79.97661","population":65689},{"name":"Chengam","slug":"chengam","region":"25","country":"IN","latitude":"12.30889","longitude":"78.79137","population":26980},{"name":"Chengaman\u0101d","slug":"chengamanad","region":"13","country":"IN","latitude":"10.15409","longitude":"76.34159","population":29576},{"name":"Chengann\u016br","slug":"chengannur","region":"13","country":"IN","latitude":"9.31575","longitude":"76.61513","population":25043},{"name":"Chennai","slug":"chennai","region":"25","country":"IN","latitude":"13.08784","longitude":"80.27847","population":4681087},{"name":"Chennimalai","slug":"chennimalai","region":"25","country":"IN","latitude":"11.16378","longitude":"77.60388","population":16268},{"name":"Cheppad","slug":"cheppad","region":"13","country":"IN","latitude":"9.23458","longitude":"76.47326","population":20052},{"name":"Cheranell\u016br","slug":"cheranellur","region":"13","country":"IN","latitude":"10.05428","longitude":"76.2896","population":30594},{"name":"Cheranmahadevi","slug":"cheranmahadevi","region":"25","country":"IN","latitude":"8.67547","longitude":"77.56957","population":18327},{"name":"Cheriyamundam","slug":"cheriyamundam","region":"13","country":"IN","latitude":"10.94764","longitude":"75.95643","population":31212},{"name":"Cherpulassery","slug":"cherpulassery","region":"13","country":"IN","latitude":"10.87655","longitude":"76.30932","population":30000},{"name":"Cherthala","slug":"cherthala","region":"13","country":"IN","latitude":"9.68444","longitude":"76.33558","population":45827},{"name":"Cherukavu","slug":"cherukavu","region":"13","country":"IN","latitude":"11.17307","longitude":"75.90858","population":30126},{"name":"Cherukunnu","slug":"cherukunnu","region":"13","country":"IN","latitude":"11.99564","longitude":"75.28717","population":16111},{"name":"Cheruthazham","slug":"cheruthazham","region":"13","country":"IN","latitude":"12.08097","longitude":"75.26272","population":29348},{"name":"Cheruvannur","slug":"cheruvannur","region":"13","country":"IN","latitude":"11.19033","longitude":"75.82833","population":61614},{"name":"Chetput","slug":"chetput","region":"25","country":"IN","latitude":"12.46399","longitude":"79.3484","population":19827},{"name":"Chetput","slug":"chetput","region":"25","country":"IN","latitude":"13.07","longitude":"80.24083","population":18326},{"name":"Chettin\u0101yakkanpatti","slug":"chettinayakkanpatti","region":"25","country":"IN","latitude":"10.39399","longitude":"77.9754","population":17701},{"name":"Chettip\u0101laiyam","slug":"chettipalaiyam","region":"25","country":"IN","latitude":"10.91248","longitude":"77.03699","population":24080},{"name":"Chettip\u0101laiyam","slug":"chettipalaiyam","region":"25","country":"IN","latitude":"11.16669","longitude":"77.33502","population":37620},{"name":"Chetwayi","slug":"chetwayi","region":"13","country":"IN","latitude":"10.52885","longitude":"76.04793","population":38011},{"name":"Chevvoor","slug":"chevvoor","region":"13","country":"IN","latitude":"10.45862","longitude":"76.2088","population":16086},{"name":"Cheyyar","slug":"cheyyar","region":"25","country":"IN","latitude":"12.66052","longitude":"79.54308","population":37802},{"name":"Chhabra","slug":"chhabra","region":"24","country":"IN","latitude":"24.66472","longitude":"76.84379","population":32285},{"name":"Chhala","slug":"chhala","region":"09","country":"IN","latitude":"23.30779","longitude":"72.77404","population":17323},{"name":"Chhaner\u0101","slug":"chhanera","region":"35","country":"IN","latitude":"21.96097","longitude":"76.69494","population":22052},{"name":"Chhaprauli","slug":"chhaprauli","region":"36","country":"IN","latitude":"29.20989","longitude":"77.17454","population":19224},{"name":"Chharra","slug":"chharra","region":"36","country":"IN","latitude":"27.9247","longitude":"78.40102","population":24535},{"name":"Chhatarpur","slug":"chhatarpur","region":"07","country":"IN","latitude":"28.49849","longitude":"77.18254","population":46776},{"name":"Chhatarpur","slug":"chhatarpur","region":"35","country":"IN","latitude":"24.9177","longitude":"79.58871","population":142128},{"name":"Chhatrapur","slug":"chhatrapur","region":"21","country":"IN","latitude":"19.35574","longitude":"84.98359","population":22027},{"name":"Chhaya","slug":"chhaya","region":"09","country":"IN","latitude":"21.62878","longitude":"69.63386","population":47699},{"name":"Chhibr\u0101mau","slug":"chhibramau","region":"36","country":"IN","latitude":"27.14872","longitude":"79.50078","population":57071},{"name":"Chhindw\u0101ra","slug":"chhindwara","region":"35","country":"IN","latitude":"22.05697","longitude":"78.93958","population":175052},{"name":"Chhipa Barod","slug":"chhipa barod","region":"24","country":"IN","latitude":"24.62361","longitude":"76.70783","population":18837},{"name":"Chhiri","slug":"chhiri","region":"09","country":"IN","latitude":"20.37782","longitude":"72.9411","population":18829},{"name":"Chhota Gobindpur","slug":"chhota gobindpur","region":"38","country":"IN","latitude":"22.74588","longitude":"86.25886","population":31843},{"name":"Chhota Udepur","slug":"chhota udepur","region":"09","country":"IN","latitude":"22.30401","longitude":"74.0158","population":25787},{"name":"Chhoti S\u0101dri","slug":"chhoti sadri","region":"24","country":"IN","latitude":"24.38145","longitude":"74.7012","population":18360},{"name":"Chh\u0101par","slug":"chhapar","region":"24","country":"IN","latitude":"27.819","longitude":"74.43936","population":19744},{"name":"Chh\u0101ta","slug":"chhata","region":"36","country":"IN","latitude":"27.72374","longitude":"77.5081","population":21260},{"name":"Chh\u0101t\u0101pur","slug":"chhatapur","region":"34","country":"IN","latitude":"26.21965","longitude":"87.00479","population":23425},{"name":"Chicholi","slug":"chicholi","region":"16","country":"IN","latitude":"21.46926","longitude":"79.70151","population":18864},{"name":"Chicholi","slug":"chicholi","region":"16","country":"IN","latitude":"21.26644","longitude":"79.11559","population":18469},{"name":"Chidambaram","slug":"chidambaram","region":"25","country":"IN","latitude":"11.39933","longitude":"79.69144","population":62153},{"name":"Chidawa","slug":"chidawa","region":"24","country":"IN","latitude":"28.23937","longitude":"75.64035","population":43953},{"name":"Chik Ball\u0101pur","slug":"chik ballapur","region":"19","country":"IN","latitude":"13.43512","longitude":"77.72787","population":63652},{"name":"Chikhli","slug":"chikhli","region":"16","country":"IN","latitude":"20.35046","longitude":"76.25774","population":57889},{"name":"Chikmagal\u016br","slug":"chikmagalur","region":"19","country":"IN","latitude":"13.32231","longitude":"75.774","population":121484},{"name":"Chikn\u0101yakanhalli","slug":"chiknayakanhalli","region":"19","country":"IN","latitude":"13.41609","longitude":"76.62063","population":24292},{"name":"Chikodi","slug":"chikodi","region":"19","country":"IN","latitude":"16.42898","longitude":"74.58591","population":38307},{"name":"Chilakal\u016brupet","slug":"chilakalurupet","region":"02","country":"IN","latitude":"16.08987","longitude":"80.16705","population":101398},{"name":"Chilla Soroda B\u0101ngar","slug":"chilla soroda bangar","region":"07","country":"IN","latitude":"28.59572","longitude":"77.30189","population":83217},{"name":"Chillup\u0101r","slug":"chillupar","region":"36","country":"IN","latitude":"26.28221","longitude":"83.5064","population":20518},{"name":"Chimbel","slug":"chimbel","region":"33","country":"IN","latitude":"15.49261","longitude":"73.87474","population":15289},{"name":"Chincholi","slug":"chincholi","region":"19","country":"IN","latitude":"17.46508","longitude":"77.41874","population":20897},{"name":"Chinna Salem","slug":"chinna salem","region":"25","country":"IN","latitude":"11.63422","longitude":"78.87412","population":25106},{"name":"Chinna \u0100nd\u0101nkovil","slug":"chinna andankovil","region":"25","country":"IN","latitude":"10.9511","longitude":"78.0681","population":19779},{"name":"Chinnachowk","slug":"chinnachowk","region":"02","country":"IN","latitude":"14.47516","longitude":"78.8354","population":64053},{"name":"Chinnalapatti","slug":"chinnalapatti","region":"25","country":"IN","latitude":"10.28481","longitude":"77.92332","population":26285},{"name":"Chinnaman\u016br","slug":"chinnamanur","region":"25","country":"IN","latitude":"9.83999","longitude":"77.38109","population":42305},{"name":"Chinnav\u0101dampatti","slug":"chinnavadampatti","region":"25","country":"IN","latitude":"11.06149","longitude":"76.98377","population":20122},{"name":"Chinn\u016br","slug":"chinnur","region":"40","country":"IN","latitude":"18.85779","longitude":"79.7956","population":23579},{"name":"Chintamani","slug":"chintamani","region":"19","country":"IN","latitude":"13.40051","longitude":"78.05172","population":76068},{"name":"Chipl\u016bn","slug":"chiplun","region":"16","country":"IN","latitude":"17.53339","longitude":"73.50935","population":55139},{"name":"Chirakkal","slug":"chirakkal","region":"13","country":"IN","latitude":"11.91257","longitude":"75.36102","population":45601},{"name":"Chirkunda","slug":"chirkunda","region":"38","country":"IN","latitude":"23.74771","longitude":"86.78804","population":45508},{"name":"Chirmiri","slug":"chirmiri","region":"37","country":"IN","latitude":"23.19073","longitude":"82.35314","population":100800},{"name":"Chitaguppa","slug":"chitaguppa","region":"19","country":"IN","latitude":"17.69737","longitude":"77.21525","population":25298},{"name":"Chitarpur","slug":"chitarpur","region":"38","country":"IN","latitude":"23.57283","longitude":"85.65355","population":22837},{"name":"Chitradurga","slug":"chitradurga","region":"19","country":"IN","latitude":"14.22262","longitude":"76.40038","population":145853},{"name":"Chitrakoot Dham","slug":"chitrakoot dham","region":"36","country":"IN","latitude":"25.21473","longitude":"80.91645","population":23316},{"name":"Chittaranjan","slug":"chittaranjan","region":"28","country":"IN","latitude":"23.85681","longitude":"86.90324","population":45305},{"name":"Chittoor","slug":"chittoor","region":"02","country":"IN","latitude":"13.21055","longitude":"79.0956","population":160722},{"name":"Chittorgarh","slug":"chittorgarh","region":"24","country":"IN","latitude":"24.88963","longitude":"74.62403","population":116406},{"name":"Chitt\u016br","slug":"chittur","region":"13","country":"IN","latitude":"10.69967","longitude":"76.7471","population":32298},{"name":"Chockli","slug":"chockli","region":"13","country":"IN","latitude":"11.72745","longitude":"75.55509","population":33732},{"name":"Chodavaram","slug":"chodavaram","region":"02","country":"IN","latitude":"17.82884","longitude":"82.93526","population":29000},{"name":"Chokkan\u0101thapuram","slug":"chokkanathapuram","region":"25","country":"IN","latitude":"9.99207","longitude":"77.35657","population":15625},{"name":"Choornikkara","slug":"choornikkara","region":"13","country":"IN","latitude":"10.08788","longitude":"76.3411","population":43207},{"name":"Chopda","slug":"chopda","region":"16","country":"IN","latitude":"21.24578","longitude":"75.29946","population":72783},{"name":"Chorw\u0101d","slug":"chorwad","region":"09","country":"IN","latitude":"21.02947","longitude":"70.23302","population":22720},{"name":"Chotila","slug":"chotila","region":"09","country":"IN","latitude":"22.42347","longitude":"71.19641","population":21364},{"name":"Choudwar","slug":"choudwar","region":"21","country":"IN","latitude":"20.53917","longitude":"85.91512","population":52999},{"name":"Chumukedima","slug":"chumukedima","region":"20","country":"IN","latitude":"25.82483","longitude":"93.77592","population":25885},{"name":"Chunchupally","slug":"chunchupally","region":"40","country":"IN","latitude":"17.52333","longitude":"80.60405","population":19944},{"name":"Chun\u0101r","slug":"chunar","region":"36","country":"IN","latitude":"25.12776","longitude":"82.8821","population":36459},{"name":"Churi","slug":"churi","region":"38","country":"IN","latitude":"23.65491","longitude":"85.01281","population":24876},{"name":"Chur\u0101ch\u0101ndpur","slug":"churachandpur","region":"17","country":"IN","latitude":"24.33353","longitude":"93.66999","population":47774},{"name":"Ch\u0101chaura","slug":"chachaura","region":"35","country":"IN","latitude":"24.17583","longitude":"76.99957","population":21860},{"name":"Ch\u0101kan","slug":"chakan","region":"16","country":"IN","latitude":"18.76059","longitude":"73.86351","population":41113},{"name":"Ch\u0101kia","slug":"chakia","region":"34","country":"IN","latitude":"26.41598","longitude":"85.04665","population":20686},{"name":"Ch\u0101kuli\u0101","slug":"chakulia","region":"38","country":"IN","latitude":"22.48301","longitude":"86.71793","population":16306},{"name":"Ch\u0101lakilak\u0101kara","slug":"chalakilakakara","region":"13","country":"IN","latitude":"11.85404","longitude":"75.43869","population":17088},{"name":"Ch\u0101mpa","slug":"champa","region":"37","country":"IN","latitude":"22.03532","longitude":"82.64234","population":45256},{"name":"Ch\u0101nasma","slug":"chanasma","region":"09","country":"IN","latitude":"23.71472","longitude":"72.11279","population":15932},{"name":"Ch\u0101nda","slug":"chanda","region":"16","country":"IN","latitude":"19.95076","longitude":"79.29523","population":328351},{"name":"Ch\u0101ndor","slug":"chandor","region":"16","country":"IN","latitude":"20.3306","longitude":"74.24467","population":25341},{"name":"Ch\u0101ndpur","slug":"chandpur","region":"36","country":"IN","latitude":"29.13489","longitude":"78.27187","population":73555},{"name":"Ch\u0101ndur","slug":"chandur","region":"16","country":"IN","latitude":"19.73444","longitude":"79.17167","population":26755},{"name":"Ch\u0101nd\u0101meta","slug":"chandameta","region":"35","country":"IN","latitude":"22.19093","longitude":"78.73032","population":16497},{"name":"Ch\u0101nd\u016br","slug":"chandur","region":"16","country":"IN","latitude":"20.81408","longitude":"77.98015","population":19776},{"name":"Ch\u0101nd\u016br B\u0101z\u0101r","slug":"chandur bazar","region":"16","country":"IN","latitude":"21.23853","longitude":"77.74713","population":18780},{"name":"Ch\u0101par","slug":"chapar","region":"03","country":"IN","latitude":"26.27266","longitude":"90.44556","population":20322},{"name":"Ch\u0101pra","slug":"chapra","region":"34","country":"IN","latitude":"25.78031","longitude":"84.74709","population":202352},{"name":"Ch\u0101\u012bb\u0101sa","slug":"chaibasa","region":"38","country":"IN","latitude":"22.55038","longitude":"85.80249","population":69565},{"name":"Ch\u0113manch\u0113ri","slug":"chemancheri","region":"13","country":"IN","latitude":"11.40482","longitude":"75.72363","population":34819},{"name":"Ch\u012bka","slug":"chika","region":"10","country":"IN","latitude":"30.04891","longitude":"76.343","population":38952},{"name":"Ch\u012bpurupalle","slug":"chipurupalle","region":"02","country":"IN","latitude":"18.31142","longitude":"83.56846","population":25898},