[{"name":"Ab\u016b Ghurayb","slug":"abu ghurayb","region":"07","country":"IQ","latitude":"33.30563","longitude":"44.18477","population":900000},{"name":"Ad Dujayl","slug":"ad dujayl","region":"18","country":"IQ","latitude":"33.84667","longitude":"44.23444","population":26362},{"name":"Al Ba\u015frah al Qad\u012bmah","slug":"al basrah al qadimah","region":"02","country":"IQ","latitude":"30.50316","longitude":"47.81507","population":2015483},{"name":"Al Diwaniyah","slug":"al diwaniyah","region":"04","country":"IQ","latitude":"31.99289","longitude":"44.92552","population":318801},{"name":"Al Fall\u016bjah","slug":"al fallujah","region":"01","country":"IQ","latitude":"33.34913","longitude":"43.78599","population":190159},{"name":"Al F\u0101w","slug":"al faw","region":"02","country":"IQ","latitude":"29.97421","longitude":"48.47309","population":104569},{"name":"Al Hillah","slug":"al hillah","region":"06","country":"IQ","latitude":"32.46367","longitude":"44.41963","population":455700},{"name":"Al Hind\u012byah","slug":"al hindiyah","region":"12","country":"IQ","latitude":"32.54193","longitude":"44.22469","population":84100},{"name":"Al H\u0101rithah","slug":"al harithah","region":"02","country":"IQ","latitude":"30.58481","longitude":"47.76114","population":92395},{"name":"Al Mad\u012bnah","slug":"al madinah","region":"02","country":"IQ","latitude":"30.96324","longitude":"47.26998","population":255000},{"name":"Al Maw\u015fil al Jad\u012bdah","slug":"al mawsil al jadidah","region":"15","country":"IQ","latitude":"36.33271","longitude":"43.10555","population":2065597},{"name":"Al Ma\u1e29m\u016bd\u012byah","slug":"al mahmudiyah","region":"07","country":"IQ","latitude":"33.06221","longitude":"44.36564","population":350000},{"name":"Al Ma\u1e29\u0101w\u012bl","slug":"al mahawil","region":"06","country":"IQ","latitude":"32.66138","longitude":"44.40854","population":31200},{"name":"Al Miqd\u0101d\u012byah","slug":"al miqdadiyah","region":"10","country":"IQ","latitude":"33.97861","longitude":"44.93694","population":155968},{"name":"Al Mishkh\u0101b","slug":"al mishkhab","region":"17","country":"IQ","latitude":"31.80437","longitude":"44.4893","population":23189},{"name":"Al Musayyib","slug":"al musayyib","region":"06","country":"IQ","latitude":"32.77872","longitude":"44.29005","population":57300},{"name":"Al Qurnah","slug":"al qurnah","region":"02","country":"IQ","latitude":"31.01547","longitude":"47.43362","population":286073},{"name":"Al Q\u0101\u2019im","slug":"al qa'im","region":"01","country":"IQ","latitude":"34.39251","longitude":"40.98945","population":74100},{"name":"Al \u1e28ayy","slug":"al hayy","region":"16","country":"IQ","latitude":"32.17419","longitude":"46.04345","population":78272},{"name":"Al \u2018Am\u0101rah","slug":"al 'amarah","region":"14","country":"IQ","latitude":"31.83561","longitude":"47.14483","population":323302},{"name":"Al \u2018Az\u012bz\u012byah","slug":"al 'aziziyah","region":"16","country":"IQ","latitude":"32.90941","longitude":"45.06359","population":44751},{"name":"Al-Hamdaniya","slug":"al-hamdaniya","region":"15","country":"IQ","latitude":"36.27093","longitude":"43.37758","population":50000},{"name":"Al-Kut","slug":"al-kut","region":"16","country":"IQ","latitude":"32.5128","longitude":"45.81817","population":315162},{"name":"An Nu\u2018m\u0101n\u012byah","slug":"an nu'maniyah","region":"16","country":"IQ","latitude":"32.55621","longitude":"45.41293","population":110000},{"name":"Ar Rumaythah","slug":"ar rumaythah","region":"03","country":"IQ","latitude":"31.52845","longitude":"45.20377","population":47248},{"name":"Ar Ru\u0163bah","slug":"ar rutbah","region":"01","country":"IQ","latitude":"33.03718","longitude":"40.28586","population":22370},{"name":"As Samawah","slug":"as samawah","region":"03","country":"IQ","latitude":"31.33198","longitude":"45.2944","population":152890},{"name":"Ash Sharq\u0101t","slug":"ash sharqat","region":"18","country":"IQ","latitude":"35.51722","longitude":"43.22806","population":160000},{"name":"Ash Sha\u0163rah","slug":"ash shatrah","region":"09","country":"IQ","latitude":"31.40906","longitude":"46.1727","population":182175},{"name":"Ash Sh\u0101m\u012byah","slug":"ash shamiyah","region":"04","country":"IQ","latitude":"31.96257","longitude":"44.60075","population":57661},{"name":"Az Zubayr","slug":"az zubayr","region":"02","country":"IQ","latitude":"30.39213","longitude":"47.70175","population":122676},{"name":"A\u015f \u015euwayrah","slug":"as suwayrah","region":"16","country":"IQ","latitude":"32.92556","longitude":"44.77583","population":77200},{"name":"Baghdad","slug":"baghdad","region":"07","country":"IQ","latitude":"33.34058","longitude":"44.40088","population":7216000},{"name":"Balad","slug":"balad","region":"18","country":"IQ","latitude":"34.01485","longitude":"44.14574","population":42088},{"name":"Baqubah","slug":"baqubah","region":"10","country":"IQ","latitude":"33.75403","longitude":"44.60518","population":152550},{"name":"Basrah","slug":"basrah","region":"02","country":"IQ","latitude":"30.50852","longitude":"47.7804","population":1326564},{"name":"Batifa","slug":"batifa","region":"08","country":"IQ","latitude":"37.17454","longitude":"43.01233","population":28000},{"name":"Bayj\u012b","slug":"bayji","region":"18","country":"IQ","latitude":"34.92915","longitude":"43.48878","population":173677},{"name":"Baynjiwayn","slug":"baynjiwayn","region":"05","country":"IQ","latitude":"35.62054","longitude":"45.94908","population":27116},{"name":"Dihok","slug":"dihok","region":"08","country":"IQ","latitude":"36.86608","longitude":"42.9879","population":340900},{"name":"Erbil","slug":"erbil","region":"11","country":"IQ","latitude":"36.19117","longitude":"44.00943","population":1612700},{"name":"Hajiawa","slug":"hajiawa","region":"05","country":"IQ","latitude":"36.23579","longitude":"44.79469","population":80000},{"name":"Halabja","slug":"halabja","region":"19","country":"IQ","latitude":"35.17778","longitude":"45.98611","population":57333},{"name":"H\u012bt","slug":"hit","region":"01","country":"IQ","latitude":"33.63664","longitude":"42.82768","population":31901},{"name":"Jamjam\u0101l","slug":"jamjamal","region":"05","country":"IQ","latitude":"35.53356","longitude":"44.8343","population":75634},{"name":"Karbala","slug":"karbala","region":"12","country":"IQ","latitude":"32.61603","longitude":"44.02488","population":1218732},{"name":"Kelar","slug":"kelar","region":"05","country":"IQ","latitude":"34.62805","longitude":"45.31852","population":250000},{"name":"Kh\u0101li\u015f","slug":"khalis","region":"10","country":"IQ","latitude":"33.80809","longitude":"44.53343","population":70046},{"name":"Kh\u0101naq\u012bn","slug":"khanaqin","region":"10","country":"IQ","latitude":"34.3482","longitude":"45.39065","population":175000},{"name":"Kifr\u012b","slug":"kifri","region":"10","country":"IQ","latitude":"34.68963","longitude":"44.96057","population":30143},{"name":"Kirkuk","slug":"kirkuk","region":"13","country":"IQ","latitude":"35.46806","longitude":"44.39222","population":1031000},{"name":"Koysinceq","slug":"koysinceq","region":"11","country":"IQ","latitude":"36.08289","longitude":"44.62873","population":44987},{"name":"Kufa","slug":"kufa","region":"17","country":"IQ","latitude":"32.05114","longitude":"44.44017","population":110000},{"name":"Mandal\u012b","slug":"mandali","region":"10","country":"IQ","latitude":"33.7481","longitude":"45.55503","population":29785},{"name":"Mosul","slug":"mosul","region":"15","country":"IQ","latitude":"36.335","longitude":"43.11889","population":1683000},{"name":"Nahiyat Ghammas","slug":"nahiyat ghammas","region":"04","country":"IQ","latitude":"31.74311","longitude":"44.6196","population":30909},{"name":"Najaf","slug":"najaf","region":"17","country":"IQ","latitude":"32.02594","longitude":"44.34625","population":482576},{"name":"Nasiriyah","slug":"nasiriyah","region":"09","country":"IQ","latitude":"31.05799","longitude":"46.25726","population":558400},{"name":"N\u0101\u1e29iyat al Fuh\u016bd","slug":"nahiyat al fuhud","region":"09","country":"IQ","latitude":"30.96972","longitude":"46.72278","population":21551},{"name":"N\u0101\u1e29iyat al Iskandar\u012byah","slug":"nahiyat al iskandariyah","region":"06","country":"IQ","latitude":"32.8873","longitude":"44.34619","population":100600},{"name":"N\u0101\u1e29iyat ash Shin\u0101f\u012byah","slug":"nahiyat ash shinafiyah","region":"04","country":"IQ","latitude":"31.58376","longitude":"44.64675","population":22643},{"name":"N\u0101\u1e29\u012byat Saddat al Hind\u012byah","slug":"nahiyat saddat al hindiyah","region":"06","country":"IQ","latitude":"32.71557","longitude":"44.27857","population":30622},{"name":"Qal\u2018at Sukkar","slug":"qal'at sukkar","region":"09","country":"IQ","latitude":"31.8632","longitude":"46.07321","population":110000},{"name":"Ramadi","slug":"ramadi","region":"01","country":"IQ","latitude":"33.42056","longitude":"43.30778","population":223500},{"name":"Simele","slug":"simele","region":"08","country":"IQ","latitude":"36.85833","longitude":"42.8501","population":71557},{"name":"Sinj\u0101r","slug":"sinjar","region":"15","country":"IQ","latitude":"36.3209","longitude":"41.87656","population":38294},{"name":"Soran","slug":"soran","region":"11","country":"IQ","latitude":"36.65558","longitude":"44.54217","population":125000},{"name":"Sulaymaniyah","slug":"sulaymaniyah","region":"05","country":"IQ","latitude":"35.56496","longitude":"45.4329","population":878146},{"name":"S\u0101marr\u0101\u2019","slug":"samarra'","region":"18","country":"IQ","latitude":"34.1959","longitude":"43.88568","population":158508},{"name":"S\u012bnah","slug":"sinah","region":"08","country":"IQ","latitude":"36.80851","longitude":"43.03935","population":128776},{"name":"Tallkayf","slug":"tallkayf","region":"15","country":"IQ","latitude":"36.49118","longitude":"43.12114","population":23524},{"name":"Tikr\u012bt","slug":"tikrit","region":"18","country":"IQ","latitude":"34.61581","longitude":"43.67861","population":42477},{"name":"Umm Qa\u015fr","slug":"umm qasr","region":"02","country":"IQ","latitude":"30.0362","longitude":"47.91951","population":107620},{"name":"Zaxo","slug":"zaxo","region":"08","country":"IQ","latitude":"37.14871","longitude":"42.68591","population":95052},{"name":"al-Qasim","slug":"al-qasim","region":"06","country":"IQ","latitude":"32.29799","longitude":"44.68282","population":36992},{"name":"\u0162\u016bz Kh\u016brm\u0101t\u016b","slug":"tuz khurmatu","region":"18","country":"IQ","latitude":"34.88808","longitude":"44.63256","population":59886},{"name":"\u1e28ad\u012bthah","slug":"hadithah","region":"01","country":"IQ","latitude":"34.13661","longitude":"42.37727","population":30925},{"name":"\u1e5euwandiz","slug":"ruwandiz","region":"11","country":"IQ","latitude":"36.6114","longitude":"44.52194","population":22943},{"name":"\u2018Afak","slug":"'afak","region":"04","country":"IQ","latitude":"32.0643","longitude":"45.24743","population":35536},{"name":"\u2018Al\u012b al Gharb\u012b","slug":"'ali al gharbi","region":"14","country":"IQ","latitude":"32.46186","longitude":"46.68794","population":19711},{"name":"\u2018Anah","slug":"'anah","region":"01","country":"IQ","latitude":"34.36857","longitude":"41.98194","population":27000},{"name":"\u2018Anat al Qad\u012bmah","slug":"'anat al qadimah","region":"01","country":"IQ","latitude":"34.46934","longitude":"41.94223","population":19719},{"name":"\u2018Aqrah","slug":"'aqrah","region":"15","country":"IQ","latitude":"36.76038","longitude":"43.89428","population":23000}]