[{"name":"Akureyri","slug":"akureyri","region":"40","country":"IS","latitude":"65.68353","longitude":"-18.0878","population":19219},{"name":"Hafnarfj\u00f6r\u00f0ur","slug":"hafnarfjoerdur","region":"39","country":"IS","latitude":"64.0671","longitude":"-21.93774","population":29971},{"name":"Keflav\u00edk","slug":"keflavik","region":"43","country":"IS","latitude":"64.00492","longitude":"-22.56242","population":15930},{"name":"K\u00f3pavogur","slug":"kopavogur","region":"39","country":"IS","latitude":"64.11234","longitude":"-21.91298","population":37959},{"name":"Reykjanesb\u00e6r","slug":"reykjanesbaer","region":"43","country":"IS","latitude":"63.99813","longitude":"-22.56111","population":19724},{"name":"Reykjav\u00edk","slug":"reykjavik","region":"39","country":"IS","latitude":"64.13548","longitude":"-21.89541","population":118918}]