[{"name":"Abano Terme","slug":"abano terme","region":"20","country":"IT","latitude":"45.35753","longitude":"11.78725","population":18224},{"name":"Abbiategrasso","slug":"abbiategrasso","region":"09","country":"IT","latitude":"45.39821","longitude":"8.91678","population":32784},{"name":"Acerra","slug":"acerra","region":"04","country":"IT","latitude":"40.94477","longitude":"14.3714","population":59910},{"name":"Aci Castello","slug":"aci castello","region":"15","country":"IT","latitude":"37.55564","longitude":"15.14535","population":17588},{"name":"Aci Catena","slug":"aci catena","region":"15","country":"IT","latitude":"37.60614","longitude":"15.14165","population":24663},{"name":"Acilia-Castel Fusano-Ostia Antica","slug":"acilia-castel fusano-ostia antica","region":"07","country":"IT","latitude":"41.76337","longitude":"12.33078","population":129362},{"name":"Acireale","slug":"acireale","region":"15","country":"IT","latitude":"37.60886","longitude":"15.16577","population":49477},{"name":"Acquaviva delle Fonti","slug":"acquaviva delle fonti","region":"13","country":"IT","latitude":"40.89704","longitude":"16.8433","population":20536},{"name":"Acqui Terme","slug":"acqui terme","region":"12","country":"IT","latitude":"44.67552","longitude":"8.46934","population":17828},{"name":"Adelfia","slug":"adelfia","region":"13","country":"IT","latitude":"41.0033","longitude":"16.87208","population":16756},{"name":"Adrano","slug":"adrano","region":"15","country":"IT","latitude":"37.66358","longitude":"14.83283","population":34446},{"name":"Adriano","slug":"adriano","region":"09","country":"IT","latitude":"45.51342","longitude":"9.24871","population":17508},{"name":"Afragola","slug":"afragola","region":"04","country":"IT","latitude":"40.92298","longitude":"14.30935","population":64470},{"name":"Agrigento","slug":"agrigento","region":"15","country":"IT","latitude":"37.31065","longitude":"13.57661","population":32514},{"name":"Agropoli","slug":"agropoli","region":"04","country":"IT","latitude":"40.34923","longitude":"14.99067","population":17335},{"name":"Alba","slug":"alba","region":"12","country":"IT","latitude":"44.6999","longitude":"8.0347","population":24923},{"name":"Albano Laziale","slug":"albano laziale","region":"07","country":"IT","latitude":"41.72748","longitude":"12.659","population":26684},{"name":"Albenga","slug":"albenga","region":"08","country":"IT","latitude":"44.04997","longitude":"8.21829","population":17103},{"name":"Albignasego","slug":"albignasego","region":"20","country":"IT","latitude":"45.34705","longitude":"11.86781","population":16477},{"name":"Alcamo","slug":"alcamo","region":"15","country":"IT","latitude":"37.9779","longitude":"12.96473","population":44431},{"name":"Alessandria","slug":"alessandria","region":"12","country":"IT","latitude":"44.90924","longitude":"8.61007","population":92104},{"name":"Alghero","slug":"alghero","region":"14","country":"IT","latitude":"40.55969","longitude":"8.31953","population":34261},{"name":"Alpignano","slug":"alpignano","region":"12","country":"IT","latitude":"45.09346","longitude":"7.52392","population":16598},{"name":"Altamura","slug":"altamura","region":"13","country":"IT","latitude":"40.82664","longitude":"16.54952","population":70539},{"name":"Ancona","slug":"ancona","region":"10","country":"IT","latitude":"43.60717","longitude":"13.5103","population":89994},{"name":"Andria","slug":"andria","region":"13","country":"IT","latitude":"41.23117","longitude":"16.29797","population":99784},{"name":"Angri","slug":"angri","region":"04","country":"IT","latitude":"40.73815","longitude":"14.5707","population":31632},{"name":"Anzio","slug":"anzio","region":"07","country":"IT","latitude":"41.45263","longitude":"12.62157","population":45403},{"name":"Aosta","slug":"aosta","region":"19","country":"IT","latitude":"45.73764","longitude":"7.31722","population":35261},{"name":"Aprilia","slug":"aprilia","region":"07","country":"IT","latitude":"41.59452","longitude":"12.65419","population":74977},{"name":"Arcella","slug":"arcella","region":"20","country":"IT","latitude":"45.42178","longitude":"11.88755","population":44000},{"name":"Arcore","slug":"arcore","region":"09","country":"IT","latitude":"45.62675","longitude":"9.32454","population":16690},{"name":"Ardea","slug":"ardea","region":"07","country":"IT","latitude":"41.60742","longitude":"12.54158","population":17078},{"name":"Arenella","slug":"arenella","region":"04","country":"IT","latitude":"40.85734","longitude":"14.2228","population":67634},{"name":"Arese","slug":"arese","region":"09","country":"IT","latitude":"45.55048","longitude":"9.07741","population":19138},{"name":"Arezzo","slug":"arezzo","region":"16","country":"IT","latitude":"43.46276","longitude":"11.88068","population":100734},{"name":"Ariccia","slug":"ariccia","region":"07","country":"IT","latitude":"41.72063","longitude":"12.6723","population":17487},{"name":"Arpino","slug":"arpino","region":"04","country":"IT","latitude":"40.88882","longitude":"14.32015","population":19988},{"name":"Arzano","slug":"arzano","region":"04","country":"IT","latitude":"40.90959","longitude":"14.26519","population":34933},{"name":"Arzignano","slug":"arzignano","region":"20","country":"IT","latitude":"45.52027","longitude":"11.33446","population":21247},{"name":"Ascoli Piceno","slug":"ascoli piceno","region":"10","country":"IT","latitude":"42.85351","longitude":"13.57395","population":41741},{"name":"Assemini","slug":"assemini","region":"14","country":"IT","latitude":"39.29123","longitude":"8.99879","population":25257},{"name":"Asti","slug":"asti","region":"12","country":"IT","latitude":"44.90162","longitude":"8.20751","population":74348},{"name":"Augusta","slug":"augusta","region":"15","country":"IT","latitude":"37.24065","longitude":"15.22121","population":30723},{"name":"Aurora","slug":"aurora","region":"12","country":"IT","latitude":"45.0807","longitude":"7.6873","population":20001},{"name":"Avellino","slug":"avellino","region":"04","country":"IT","latitude":"40.91494","longitude":"14.79103","population":48104},{"name":"Aversa","slug":"aversa","region":"04","country":"IT","latitude":"40.97259","longitude":"14.20745","population":52974},{"name":"Avezzano","slug":"avezzano","region":"01","country":"IT","latitude":"42.02896","longitude":"13.42641","population":37808},{"name":"Avola","slug":"avola","region":"15","country":"IT","latitude":"36.9084","longitude":"15.13937","population":28666},{"name":"Avvocata","slug":"avvocata","region":"04","country":"IT","latitude":"40.85432","longitude":"14.24325","population":33001},{"name":"Bacoli","slug":"bacoli","region":"04","country":"IT","latitude":"40.79672","longitude":"14.07349","population":25590},{"name":"Bagheria","slug":"bagheria","region":"15","country":"IT","latitude":"38.07892","longitude":"13.51237","population":53149},{"name":"Bagnoli","slug":"bagnoli","region":"04","country":"IT","latitude":"40.81322","longitude":"14.16807","population":23333},{"name":"Barcellona Pozzo di Gotto","slug":"barcellona pozzo di gotto","region":"15","country":"IT","latitude":"38.14772","longitude":"15.21469","population":34598},{"name":"Bareggio","slug":"bareggio","region":"09","country":"IT","latitude":"45.47927","longitude":"8.99789","population":16546},{"name":"Bari","slug":"bari","region":"13","country":"IT","latitude":"41.12066","longitude":"16.86982","population":316491},{"name":"Barletta","slug":"barletta","region":"13","country":"IT","latitude":"41.31429","longitude":"16.28165","population":93279},{"name":"Barra","slug":"barra","region":"04","country":"IT","latitude":"40.84255","longitude":"14.31849","population":36642},{"name":"Barriera di Lanzo","slug":"barriera di lanzo","region":"12","country":"IT","latitude":"45.10981","longitude":"7.65126","population":50000},{"name":"Barriera di Milano","slug":"barriera di milano","region":"12","country":"IT","latitude":"45.09228","longitude":"7.69399","population":50354},{"name":"Bassano del Grappa","slug":"bassano del grappa","region":"20","country":"IT","latitude":"45.76656","longitude":"11.72739","population":38224},{"name":"Bastia umbra","slug":"bastia umbra","region":"18","country":"IT","latitude":"43.06425","longitude":"12.54612","population":17831},{"name":"Battipaglia","slug":"battipaglia","region":"04","country":"IT","latitude":"40.60861","longitude":"14.98209","population":47104},{"name":"Bellaria-Igea Marina","slug":"bellaria-igea marina","region":"05","country":"IT","latitude":"44.14255","longitude":"12.47154","population":17635},{"name":"Belluno","slug":"belluno","region":"20","country":"IT","latitude":"46.14262","longitude":"12.2156","population":25064},{"name":"Belpasso","slug":"belpasso","region":"15","country":"IT","latitude":"37.59192","longitude":"14.97985","population":16319},{"name":"Benevento","slug":"benevento","region":"04","country":"IT","latitude":"41.1307","longitude":"14.77816","population":58418},{"name":"Bergamo","slug":"bergamo","region":"09","country":"IT","latitude":"45.69601","longitude":"9.66721","population":121200},{"name":"Biancavilla","slug":"biancavilla","region":"15","country":"IT","latitude":"37.64442","longitude":"14.86685","population":23188},{"name":"Biella","slug":"biella","region":"12","country":"IT","latitude":"45.56304","longitude":"8.05796","population":43030},{"name":"Bisceglie","slug":"bisceglie","region":"13","country":"IT","latitude":"41.24264","longitude":"16.50104","population":55385},{"name":"Bitonto","slug":"bitonto","region":"13","country":"IT","latitude":"41.11006","longitude":"16.69086","population":51661},{"name":"Bollate","slug":"bollate","region":"09","country":"IT","latitude":"45.54647","longitude":"9.12054","population":35235},{"name":"Bologna","slug":"bologna","region":"05","country":"IT","latitude":"44.49381","longitude":"11.33875","population":394843},{"name":"Bolzano","slug":"bolzano","region":"17","country":"IT","latitude":"46.49067","longitude":"11.33982","population":107436},{"name":"Borgomanero","slug":"borgomanero","region":"12","country":"IT","latitude":"45.69873","longitude":"8.4623","population":20430},{"name":"Boscoreale","slug":"boscoreale","region":"04","country":"IT","latitude":"40.77274","longitude":"14.48118","population":26861},{"name":"Bovisio-Masciago","slug":"bovisio-masciago","region":"09","country":"IT","latitude":"45.61019","longitude":"9.15301","population":16542},{"name":"Bra","slug":"bra","region":"12","country":"IT","latitude":"44.69776","longitude":"7.85128","population":24072},{"name":"Brera","slug":"brera","region":"09","country":"IT","latitude":"45.47154","longitude":"9.18763","population":18492},{"name":"Brescia","slug":"brescia","region":"09","country":"IT","latitude":"45.53558","longitude":"10.21472","population":200423},{"name":"Bressanone","slug":"bressanone","region":"17","country":"IT","latitude":"46.71503","longitude":"11.65598","population":15868},{"name":"Bresso","slug":"bresso","region":"09","country":"IT","latitude":"45.53792","longitude":"9.18921","population":25712},{"name":"Brindisi","slug":"brindisi","region":"13","country":"IT","latitude":"40.63215","longitude":"17.93607","population":87141},{"name":"Bronte","slug":"bronte","region":"15","country":"IT","latitude":"37.78863","longitude":"14.83377","population":19074},{"name":"Brugherio","slug":"brugherio","region":"09","country":"IT","latitude":"45.55301","longitude":"9.29907","population":33061},{"name":"Brusciano","slug":"brusciano","region":"04","country":"IT","latitude":"40.92237","longitude":"14.42386","population":15238},{"name":"Bussolengo","slug":"bussolengo","region":"20","country":"IT","latitude":"45.46903","longitude":"10.85371","population":15170},{"name":"Busto Arsizio","slug":"busto arsizio","region":"09","country":"IT","latitude":"45.61128","longitude":"8.84914","population":83405},{"name":"Cagliari","slug":"cagliari","region":"14","country":"IT","latitude":"39.23054","longitude":"9.11917","population":149257},{"name":"Caivano","slug":"caivano","region":"04","country":"IT","latitude":"40.95753","longitude":"14.30591","population":34604},{"name":"Caltagirone","slug":"caltagirone","region":"15","country":"IT","latitude":"37.23785","longitude":"14.51551","population":38391},{"name":"Caltanissetta","slug":"caltanissetta","region":"15","country":"IT","latitude":"37.49025","longitude":"14.06216","population":62797},{"name":"Camaiore","slug":"camaiore","region":"16","country":"IT","latitude":"43.94265","longitude":"10.29754","population":26746},{"name":"Campi Bisenzio","slug":"campi bisenzio","region":"16","country":"IT","latitude":"43.8245","longitude":"11.13027","population":32871},{"name":"Campo di Marte","slug":"campo di marte","region":"16","country":"IT","latitude":"43.77693","longitude":"11.27707","population":88588},{"name":"Campobasso","slug":"campobasso","region":"11","country":"IT","latitude":"41.55947","longitude":"14.66737","population":49230},{"name":"Canicatt\u00ec","slug":"canicatti","region":"15","country":"IT","latitude":"37.35842","longitude":"13.84786","population":32918},{"name":"Canosa di Puglia","slug":"canosa di puglia","region":"13","country":"IT","latitude":"41.21954","longitude":"16.06768","population":29847},{"name":"Cant\u00f9","slug":"cantu","region":"09","country":"IT","latitude":"45.74096","longitude":"9.13084","population":39917},{"name":"Capannori","slug":"capannori","region":"16","country":"IT","latitude":"43.84171","longitude":"10.57271","population":41116},{"name":"Capua","slug":"capua","region":"04","country":"IT","latitude":"41.10519","longitude":"14.21269","population":15438},{"name":"Carate Brianza","slug":"carate brianza","region":"09","country":"IT","latitude":"45.67574","longitude":"9.23723","population":15404},{"name":"Carbonia","slug":"carbonia","region":"14","country":"IT","latitude":"39.16465","longitude":"8.5213","population":21664},{"name":"Cardito","slug":"cardito","region":"04","country":"IT","latitude":"40.9459","longitude":"14.29952","population":22239},{"name":"Carini","slug":"carini","region":"15","country":"IT","latitude":"38.1324","longitude":"13.18274","population":35082},{"name":"Carmagnola","slug":"carmagnola","region":"12","country":"IT","latitude":"44.84963","longitude":"7.72032","population":23012},{"name":"Caronno Pertusella","slug":"caronno pertusella","region":"09","country":"IT","latitude":"45.59777","longitude":"9.04634","population":16377},{"name":"Carpi","slug":"carpi","region":"05","country":"IT","latitude":"44.78237","longitude":"10.8777","population":71148},{"name":"Carrara","slug":"carrara","region":"16","country":"IT","latitude":"44.07926","longitude":"10.09789","population":58666},{"name":"Carugate","slug":"carugate","region":"09","country":"IT","latitude":"45.54983","longitude":"9.34044","population":15368},{"name":"Casa Santa","slug":"casa santa","region":"15","country":"IT","latitude":"38.02514","longitude":"12.5484","population":23880},{"name":"Casal Bertone","slug":"casal bertone","region":"07","country":"IT","latitude":"41.89821","longitude":"12.53413","population":16273},{"name":"Casal Palocco","slug":"casal palocco","region":"07","country":"IT","latitude":"41.74845","longitude":"12.34726","population":32706},{"name":"Casal de' Pazzi","slug":"casal de' pazzi","region":"07","country":"IT","latitude":"41.92884","longitude":"12.56582","population":27206},{"name":"Casal di Principe","slug":"casal di principe","region":"04","country":"IT","latitude":"41.00996","longitude":"14.13013","population":20589},{"name":"Casale Monferrato","slug":"casale monferrato","region":"12","country":"IT","latitude":"45.13338","longitude":"8.4525","population":33213},{"name":"Casalecchio di Reno","slug":"casalecchio di reno","region":"05","country":"IT","latitude":"44.47563","longitude":"11.27495","population":33789},{"name":"Casalnuovo di Napoli","slug":"casalnuovo di napoli","region":"04","country":"IT","latitude":"40.90969","longitude":"14.34205","population":45796},{"name":"Casamassima","slug":"casamassima","region":"13","country":"IT","latitude":"40.95653","longitude":"16.92075","population":18380},{"name":"Casarano","slug":"casarano","region":"13","country":"IT","latitude":"40.01131","longitude":"18.16237","population":19359},{"name":"Casavatore","slug":"casavatore","region":"04","country":"IT","latitude":"40.89921","longitude":"14.27663","population":18663},{"name":"Cascina","slug":"cascina","region":"16","country":"IT","latitude":"43.67557","longitude":"10.55494","population":40512},{"name":"Caserta","slug":"caserta","region":"04","country":"IT","latitude":"41.07262","longitude":"14.33231","population":72844},{"name":"Casoria","slug":"casoria","region":"04","country":"IT","latitude":"40.90751","longitude":"14.293","population":73918},{"name":"Cassano Magnago","slug":"cassano magnago","region":"09","country":"IT","latitude":"45.67206","longitude":"8.82691","population":21208},{"name":"Cassano d'Adda","slug":"cassano d'adda","region":"09","country":"IT","latitude":"45.52637","longitude":"9.51528","population":17267},{"name":"Cassino","slug":"cassino","region":"07","country":"IT","latitude":"41.48581","longitude":"13.82835","population":21074},{"name":"Castel Maggiore","slug":"castel maggiore","region":"05","country":"IT","latitude":"44.57707","longitude":"11.36071","population":16068},{"name":"Castel Volturno","slug":"castel volturno","region":"04","country":"IT","latitude":"41.03288","longitude":"13.94354","population":21881},{"name":"Castelfranco Emilia","slug":"castelfranco emilia","region":"05","country":"IT","latitude":"44.59445","longitude":"11.04979","population":17315},{"name":"Castelfranco Veneto","slug":"castelfranco veneto","region":"20","country":"IT","latitude":"45.67146","longitude":"11.92755","population":25545},{"name":"Castellammare di Stabia","slug":"castellammare di stabia","region":"04","country":"IT","latitude":"40.70211","longitude":"14.48685","population":66164},{"name":"Castelvetrano","slug":"castelvetrano","region":"15","country":"IT","latitude":"37.68081","longitude":"12.79194","population":31680},{"name":"Castiglione delle Stiviere","slug":"castiglione delle stiviere","region":"09","country":"IT","latitude":"45.3902","longitude":"10.48619","population":18530},{"name":"Castrovillari","slug":"castrovillari","region":"03","country":"IT","latitude":"39.81632","longitude":"16.20183","population":20334},{"name":"Catania","slug":"catania","region":"15","country":"IT","latitude":"37.49223","longitude":"15.07041","population":311584},{"name":"Catanzaro","slug":"catanzaro","region":"03","country":"IT","latitude":"38.88247","longitude":"16.60086","population":78970},{"name":"Cattolica","slug":"cattolica","region":"05","country":"IT","latitude":"43.96182","longitude":"12.73631","population":16189},{"name":"Cava D\u00e8 Tirreni","slug":"cava de tirreni","region":"04","country":"IT","latitude":"40.69954","longitude":"14.70773","population":53130},{"name":"Cecina","slug":"cecina","region":"16","country":"IT","latitude":"43.30621","longitude":"10.51729","population":22018},{"name":"Ceglie Messapica","slug":"ceglie messapica","region":"13","country":"IT","latitude":"40.6462","longitude":"17.51661","population":16536},{"name":"Cenisia","slug":"cenisia","region":"12","country":"IT","latitude":"45.06885","longitude":"7.65052","population":36044},{"name":"Cento","slug":"cento","region":"05","country":"IT","latitude":"44.73099","longitude":"11.28716","population":18191},{"name":"Centro","slug":"centro","region":"12","country":"IT","latitude":"45.07176","longitude":"7.67919","population":20285},{"name":"Cercola","slug":"cercola","region":"04","country":"IT","latitude":"40.86043","longitude":"14.35733","population":17821},{"name":"Cerignola","slug":"cerignola","region":"13","country":"IT","latitude":"41.26523","longitude":"15.89559","population":54056},{"name":"Cernusco sul Naviglio","slug":"cernusco sul naviglio","region":"09","country":"IT","latitude":"45.52526","longitude":"9.33297","population":29078},{"name":"Cerveteri","slug":"cerveteri","region":"07","country":"IT","latitude":"41.9908","longitude":"12.09082","population":15883},{"name":"Cervia","slug":"cervia","region":"05","country":"IT","latitude":"44.26204","longitude":"12.34812","population":28700},{"name":"Cesano Boscone","slug":"cesano boscone","region":"09","country":"IT","latitude":"45.44207","longitude":"9.09445","population":23368},{"name":"Cesano Maderno","slug":"cesano maderno","region":"09","country":"IT","latitude":"45.62915","longitude":"9.15189","population":36986},{"name":"Cesena","slug":"cesena","region":"05","country":"IT","latitude":"44.1391","longitude":"12.24315","population":97137},{"name":"Cesenatico","slug":"cesenatico","region":"05","country":"IT","latitude":"44.19987","longitude":"12.3991","population":18925},{"name":"Chiaia","slug":"chiaia","region":"04","country":"IT","latitude":"40.83255","longitude":"14.22677","population":38356},{"name":"Chiaiano","slug":"chiaiano","region":"04","country":"IT","latitude":"40.88101","longitude":"14.20759","population":23396},{"name":"Chiari","slug":"chiari","region":"09","country":"IT","latitude":"45.53763","longitude":"9.92699","population":15541},{"name":"Chiavari","slug":"chiavari","region":"08","country":"IT","latitude":"44.31771","longitude":"9.32241","population":26572},{"name":"Chieri","slug":"chieri","region":"12","country":"IT","latitude":"45.01054","longitude":"7.82133","population":36749},{"name":"Chieti","slug":"chieti","region":"01","country":"IT","latitude":"42.34827","longitude":"14.16494","population":44444},{"name":"Chinatown","slug":"chinatown","region":"09","country":"IT","latitude":"45.48171","longitude":"9.17522","population":29000},{"name":"Chioggia","slug":"chioggia","region":"20","country":"IT","latitude":"45.21857","longitude":"12.27774","population":41897},{"name":"Chivasso","slug":"chivasso","region":"12","country":"IT","latitude":"45.19093","longitude":"7.88981","population":23017},{"name":"Ciampino","slug":"ciampino","region":"07","country":"IT","latitude":"41.80064","longitude":"12.60158","population":38277},{"name":"Cinisello Balsamo","slug":"cinisello balsamo","region":"09","country":"IT","latitude":"45.55823","longitude":"9.21495","population":75943},{"name":"Ciri\u00e8","slug":"cirie","region":"12","country":"IT","latitude":"45.23486","longitude":"7.60125","population":17439},{"name":"Cisterna di Latina","slug":"cisterna di latina","region":"07","country":"IT","latitude":"41.5908","longitude":"12.82808","population":27362},{"name":"Citt\u00e0 di Castello","slug":"citta di castello","region":"18","country":"IT","latitude":"43.46556","longitude":"12.2375","population":22497},{"name":"Civitanova Marche","slug":"civitanova marche","region":"10","country":"IT","latitude":"43.30491","longitude":"13.72068","population":42251},{"name":"Civitavecchia","slug":"civitavecchia","region":"07","country":"IT","latitude":"42.09325","longitude":"11.79674","population":47543},{"name":"Colle di Val d'Elsa","slug":"colle di val d'elsa","region":"16","country":"IT","latitude":"43.42107","longitude":"11.12739","population":16625},{"name":"Colleferro","slug":"colleferro","region":"07","country":"IT","latitude":"41.72722","longitude":"13.00481","population":20736},{"name":"Collegno","slug":"collegno","region":"12","country":"IT","latitude":"45.07873","longitude":"7.56735","population":46524},{"name":"Cologno Monzese","slug":"cologno monzese","region":"09","country":"IT","latitude":"45.53004","longitude":"9.27795","population":45786},{"name":"Comiso","slug":"comiso","region":"15","country":"IT","latitude":"36.94893","longitude":"14.60731","population":26298},{"name":"Como","slug":"como","region":"09","country":"IT","latitude":"45.80819","longitude":"9.0832","population":84808},{"name":"Conegliano","slug":"conegliano","region":"20","country":"IT","latitude":"45.88805","longitude":"12.30201","population":30765},{"name":"Conversano","slug":"conversano","region":"13","country":"IT","latitude":"40.96836","longitude":"17.11329","population":22661},{"name":"Copertino","slug":"copertino","region":"13","country":"IT","latitude":"40.26821","longitude":"18.0543","population":23489},{"name":"Corato","slug":"corato","region":"13","country":"IT","latitude":"41.15171","longitude":"16.41143","population":46505},{"name":"Cordenons","slug":"cordenons","region":"06","country":"IT","latitude":"45.9836","longitude":"12.70038","population":15962},{"name":"Corigliano Scalo","slug":"corigliano scalo","region":"03","country":"IT","latitude":"39.62713","longitude":"16.51368","population":15136},{"name":"Cormano","slug":"cormano","region":"09","country":"IT","latitude":"45.54917","longitude":"9.15964","population":20031},{"name":"Cornaredo","slug":"cornaredo","region":"09","country":"IT","latitude":"45.50128","longitude":"9.02681","population":20098},{"name":"Correggio","slug":"correggio","region":"05","country":"IT","latitude":"44.76737","longitude":"10.78345","population":15571},{"name":"Corsico","slug":"corsico","region":"09","country":"IT","latitude":"45.43099","longitude":"9.11093","population":33669},{"name":"Cosenza","slug":"cosenza","region":"03","country":"IT","latitude":"39.2989","longitude":"16.25307","population":63852},{"name":"Crema","slug":"crema","region":"09","country":"IT","latitude":"45.36264","longitude":"9.68176","population":31481},{"name":"Cremona","slug":"cremona","region":"09","country":"IT","latitude":"45.13325","longitude":"10.02129","population":71223},{"name":"Crocetta","slug":"crocetta","region":"12","country":"IT","latitude":"45.058","longitude":"7.66562","population":18334},{"name":"Crotone","slug":"crotone","region":"03","country":"IT","latitude":"39.08077","longitude":"17.12764","population":64603},{"name":"Cuneo","slug":"cuneo","region":"12","country":"IT","latitude":"44.39071","longitude":"7.54828","population":55980},{"name":"Cusano","slug":"cusano","region":"09","country":"IT","latitude":"45.55187","longitude":"9.18373","population":18904},{"name":"Dalmine","slug":"dalmine","region":"09","country":"IT","latitude":"45.64933","longitude":"9.60617","population":22881},{"name":"Desenzano del Garda","slug":"desenzano del garda","region":"09","country":"IT","latitude":"45.47127","longitude":"10.53559","population":22665},{"name":"Desio","slug":"desio","region":"09","country":"IT","latitude":"45.61831","longitude":"9.20249","population":41960},{"name":"Domodossola","slug":"domodossola","region":"12","country":"IT","latitude":"46.1165","longitude":"8.29313","population":17778},{"name":"Eboli","slug":"eboli","region":"04","country":"IT","latitude":"40.61747","longitude":"15.05693","population":26183},{"name":"Empoli","slug":"empoli","region":"16","country":"IT","latitude":"43.71795","longitude":"10.94758","population":34394},{"name":"Enna","slug":"enna","region":"15","country":"IT","latitude":"37.5655","longitude":"14.27433","population":22998},{"name":"Erba","slug":"erba","region":"09","country":"IT","latitude":"45.8088","longitude":"9.22609","population":16431},{"name":"Ercolano","slug":"ercolano","region":"04","country":"IT","latitude":"40.80783","longitude":"14.35012","population":53576},{"name":"Este","slug":"este","region":"20","country":"IT","latitude":"45.22338","longitude":"11.66379","population":16963},{"name":"Fabriano","slug":"fabriano","region":"10","country":"IT","latitude":"43.33941","longitude":"12.90327","population":23230},{"name":"Faenza","slug":"faenza","region":"05","country":"IT","latitude":"44.29007","longitude":"11.87948","population":41714},{"name":"Falconara Marittima","slug":"falconara marittima","region":"10","country":"IT","latitude":"43.62558","longitude":"13.39954","population":25948},{"name":"Fano","slug":"fano","region":"10","country":"IT","latitude":"43.84052","longitude":"13.01665","population":60978},{"name":"Fasano","slug":"fasano","region":"13","country":"IT","latitude":"40.83625","longitude":"17.36007","population":22593},{"name":"Favara","slug":"favara","region":"15","country":"IT","latitude":"37.31754","longitude":"13.66226","population":32110},{"name":"Fermo","slug":"fermo","region":"10","country":"IT","latitude":"43.16296","longitude":"13.72274","population":18109},{"name":"Ferrara","slug":"ferrara","region":"05","country":"IT","latitude":"44.83804","longitude":"11.62057","population":132009},{"name":"Fidenza","slug":"fidenza","region":"05","country":"IT","latitude":"44.86694","longitude":"10.06039","population":21952},{"name":"Fiorano","slug":"fiorano","region":"05","country":"IT","latitude":"44.53889","longitude":"10.81166","population":16278},{"name":"Fiumicino","slug":"fiumicino","region":"07","country":"IT","latitude":"41.77093","longitude":"12.23662","population":34556},{"name":"Florence","slug":"florence","region":"16","country":"IT","latitude":"43.77925","longitude":"11.24626","population":367150},{"name":"Floridia","slug":"floridia","region":"15","country":"IT","latitude":"37.08343","longitude":"15.15332","population":22089},{"name":"Foggia","slug":"foggia","region":"13","country":"IT","latitude":"41.45845","longitude":"15.55188","population":137032},{"name":"Foligno","slug":"foligno","region":"18","country":"IT","latitude":"42.95488","longitude":"12.70268","population":56918},{"name":"Follonica","slug":"follonica","region":"16","country":"IT","latitude":"42.92779","longitude":"10.76451","population":21163},{"name":"Fondi","slug":"fondi","region":"07","country":"IT","latitude":"41.35787","longitude":"13.42718","population":39762},{"name":"Forio","slug":"forio","region":"04","country":"IT","latitude":"40.73757","longitude":"13.86003","population":15969},{"name":"Forl\u00ec","slug":"forli","region":"05","country":"IT","latitude":"44.22177","longitude":"12.04144","population":116696},{"name":"Formia","slug":"formia","region":"07","country":"IT","latitude":"41.25632","longitude":"13.60888","population":28521},{"name":"Formigine","slug":"formigine","region":"05","country":"IT","latitude":"44.57268","longitude":"10.84737","population":34328},{"name":"Fornacelle","slug":"fornacelle","region":"16","country":"IT","latitude":"43.92377","longitude":"11.03525","population":17278},{"name":"Fossano","slug":"fossano","region":"12","country":"IT","latitude":"44.55077","longitude":"7.71922","population":18773},{"name":"Francavilla Fontana","slug":"francavilla fontana","region":"13","country":"IT","latitude":"40.53123","longitude":"17.58522","population":33415},{"name":"Francavilla al Mare","slug":"francavilla al mare","region":"01","country":"IT","latitude":"42.42158","longitude":"14.28217","population":21095},{"name":"Frascati","slug":"frascati","region":"07","country":"IT","latitude":"41.8091","longitude":"12.67942","population":20036},{"name":"Frattamaggiore","slug":"frattamaggiore","region":"04","country":"IT","latitude":"40.9414","longitude":"14.27588","population":29822},{"name":"Frattaminore","slug":"frattaminore","region":"04","country":"IT","latitude":"40.9558","longitude":"14.27201","population":15487},{"name":"Frosinone","slug":"frosinone","region":"07","country":"IT","latitude":"41.63976","longitude":"13.34109","population":44505},{"name":"Fuorigrotta","slug":"fuorigrotta","region":"04","country":"IT","latitude":"40.83333","longitude":"14.2","population":76521},{"name":"Gaeta","slug":"gaeta","region":"07","country":"IT","latitude":"41.21408","longitude":"13.57082","population":19936},{"name":"Galatina","slug":"galatina","region":"13","country":"IT","latitude":"40.17416","longitude":"18.17032","population":19569},{"name":"Gallarate","slug":"gallarate","region":"09","country":"IT","latitude":"45.66019","longitude":"8.79164","population":50439},{"name":"Galliate","slug":"galliate","region":"12","country":"IT","latitude":"45.47942","longitude":"8.69815","population":15699},{"name":"Gallipoli","slug":"gallipoli","region":"13","country":"IT","latitude":"40.05594","longitude":"17.99088","population":19176},{"name":"Garbagnate Milanese","slug":"garbagnate milanese","region":"09","country":"IT","latitude":"45.57438","longitude":"9.07537","population":25974},{"name":"Gela","slug":"gela","region":"15","country":"IT","latitude":"37.07381","longitude":"14.24038","population":75001},{"name":"Genoa","slug":"genoa","region":"08","country":"IT","latitude":"44.40478","longitude":"8.94439","population":580097},{"name":"Genzano di Roma","slug":"genzano di roma","region":"07","country":"IT","latitude":"41.70706","longitude":"12.68904","population":20582},{"name":"Ghedi","slug":"ghedi","region":"09","country":"IT","latitude":"45.40204","longitude":"10.27681","population":16351},{"name":"Giardinetti-Tor Vergata","slug":"giardinetti-tor vergata","region":"07","country":"IT","latitude":"41.85305","longitude":"12.61853","population":20680},{"name":"Giarre","slug":"giarre","region":"15","country":"IT","latitude":"37.7244","longitude":"15.18165","population":24138},{"name":"Ginosa","slug":"ginosa","region":"13","country":"IT","latitude":"40.5769","longitude":"16.75655","population":16151},{"name":"Gioia Tauro","slug":"gioia tauro","region":"03","country":"IT","latitude":"38.4251","longitude":"15.8975","population":18769},{"name":"Gioia del Colle","slug":"gioia del colle","region":"13","country":"IT","latitude":"40.79968","longitude":"16.92298","population":24184},{"name":"Giovinazzo","slug":"giovinazzo","region":"13","country":"IT","latitude":"41.185","longitude":"16.67054","population":19186},{"name":"Giugliano in Campania","slug":"giugliano in campania","region":"04","country":"IT","latitude":"40.92849","longitude":"14.20197","population":80269},{"name":"Giulianova","slug":"giulianova","region":"01","country":"IT","latitude":"42.75381","longitude":"13.9665","population":20490},{"name":"Giussano","slug":"giussano","region":"09","country":"IT","latitude":"45.70004","longitude":"9.2089","population":25916},{"name":"Gorgonzola","slug":"gorgonzola","region":"09","country":"IT","latitude":"45.53069","longitude":"9.40531","population":18979},{"name":"Gorizia","slug":"gorizia","region":"06","country":"IT","latitude":"45.94088","longitude":"13.62167","population":34428},{"name":"Gragnano","slug":"gragnano","region":"04","country":"IT","latitude":"40.68907","longitude":"14.52036","population":29082},{"name":"Gravina di Catania","slug":"gravina di catania","region":"15","country":"IT","latitude":"37.56085","longitude":"15.06292","population":26524},{"name":"Gravina in Puglia","slug":"gravina in puglia","region":"13","country":"IT","latitude":"40.81748","longitude":"16.41915","population":42210},{"name":"Grosseto","slug":"grosseto","region":"16","country":"IT","latitude":"42.76296","longitude":"11.10941","population":60922},{"name":"Grottaferrata","slug":"grottaferrata","region":"07","country":"IT","latitude":"41.78664","longitude":"12.67144","population":18144},{"name":"Grottaglie","slug":"grottaglie","region":"13","country":"IT","latitude":"40.53694","longitude":"17.43723","population":31320},{"name":"Grugliasco","slug":"grugliasco","region":"12","country":"IT","latitude":"45.06516","longitude":"7.57954","population":36700},{"name":"Grumo Nevano","slug":"grumo nevano","region":"04","country":"IT","latitude":"40.93591","longitude":"14.25983","population":17879},{"name":"Guidonia","slug":"guidonia","region":"07","country":"IT","latitude":"41.99232","longitude":"12.71876","population":20943},{"name":"Guidonia Montecelio","slug":"guidonia montecelio","region":"07","country":"IT","latitude":"41.99362","longitude":"12.72238","population":67516},{"name":"Iglesias","slug":"iglesias","region":"14","country":"IT","latitude":"39.3092","longitude":"8.5372","population":22659},{"name":"Imola","slug":"imola","region":"05","country":"IT","latitude":"44.35916","longitude":"11.7132","population":69953},{"name":"Imperia","slug":"imperia","region":"08","country":"IT","latitude":"43.88917","longitude":"8.03933","population":42328},{"name":"Infernetto","slug":"infernetto","region":"07","country":"IT","latitude":"41.73456","longitude":"12.36159","population":29838},{"name":"Ischia","slug":"ischia","region":"04","country":"IT","latitude":"40.73793","longitude":"13.94862","population":18564},{"name":"Ischia Porto","slug":"ischia porto","region":"04","country":"IT","latitude":"40.73913","longitude":"13.951","population":18192},{"name":"Isernia","slug":"isernia","region":"11","country":"IT","latitude":"41.59603","longitude":"14.23399","population":16945},{"name":"Ivrea","slug":"ivrea","region":"12","country":"IT","latitude":"45.46723","longitude":"7.87617","population":23599},{"name":"Jesi","slug":"jesi","region":"10","country":"IT","latitude":"43.52142","longitude":"13.24368","population":36985},{"name":"L'Aquila","slug":"l'aquila","region":"01","country":"IT","latitude":"42.35055","longitude":"13.39954","population":33691},{"name":"La Spezia","slug":"la spezia","region":"08","country":"IT","latitude":"44.103","longitude":"9.82375","population":93288},{"name":"Ladispoli","slug":"ladispoli","region":"07","country":"IT","latitude":"41.95068","longitude":"12.075","population":34204},{"name":"Lainate","slug":"lainate","region":"09","country":"IT","latitude":"45.57176","longitude":"9.02681","population":25011},{"name":"Lamezia Terme","slug":"lamezia terme","region":"03","country":"IT","latitude":"38.96255","longitude":"16.30938","population":70501},{"name":"Lancenigo-Villorba","slug":"lancenigo-villorba","region":"20","country":"IT","latitude":"45.71289","longitude":"12.25697","population":15265},{"name":"Lanciano","slug":"lanciano","region":"01","country":"IT","latitude":"42.22718","longitude":"14.39024","population":34791},{"name":"Latina","slug":"latina","region":"07","country":"IT","latitude":"41.46614","longitude":"12.9043","population":76305},{"name":"Lecce","slug":"lecce","region":"13","country":"IT","latitude":"40.35481","longitude":"18.17244","population":80695},{"name":"Lecco","slug":"lecco","region":"09","country":"IT","latitude":"45.85589","longitude":"9.39704","population":46580},{"name":"Legnago","slug":"legnago","region":"20","country":"IT","latitude":"45.19365","longitude":"11.30227","population":21646},{"name":"Legnano","slug":"legnano","region":"09","country":"IT","latitude":"45.59788","longitude":"8.91506","population":57589},{"name":"Lentini","slug":"lentini","region":"15","country":"IT","latitude":"37.28556","longitude":"14.99737","population":24102},{"name":"Licata","slug":"licata","region":"15","country":"IT","latitude":"37.10267","longitude":"13.93972","population":36537},{"name":"Lido","slug":"lido","region":"20","country":"IT","latitude":"45.4105","longitude":"12.36649","population":15719},{"name":"Lido di Ostia","slug":"lido di ostia","region":"07","country":"IT","latitude":"41.73212","longitude":"12.27654","population":85301},{"name":"Limbiate","slug":"limbiate","region":"09","country":"IT","latitude":"45.59951","longitude":"9.12509","population":32062},{"name":"Lissone","slug":"lissone","region":"09","country":"IT","latitude":"45.61236","longitude":"9.23985","population":37353},{"name":"Livorno","slug":"livorno","region":"16","country":"IT","latitude":"43.54427","longitude":"10.32615","population":157017},{"name":"Lodi","slug":"lodi","region":"09","country":"IT","latitude":"45.30989","longitude":"9.50085","population":40767},{"name":"Lucca","slug":"lucca","region":"16","country":"IT","latitude":"43.84369","longitude":"10.50447","population":81748},{"name":"Lucento","slug":"lucento","region":"12","country":"IT","latitude":"45.10588","longitude":"7.65563","population":25000},{"name":"Lucera","slug":"lucera","region":"13","country":"IT","latitude":"41.5055","longitude":"15.3391","population":32222},{"name":"Lugo","slug":"lugo","region":"05","country":"IT","latitude":"44.42137","longitude":"11.91094","population":21273},{"name":"Lumezzane","slug":"lumezzane","region":"09","country":"IT","latitude":"45.64789","longitude":"10.26487","population":23712},{"name":"Macerata","slug":"macerata","region":"10","country":"IT","latitude":"43.29789","longitude":"13.45293","population":30842},{"name":"Maddaloni","slug":"maddaloni","region":"04","country":"IT","latitude":"41.03578","longitude":"14.3823","population":34546},{"name":"Madonna di Campagna","slug":"madonna di campagna","region":"12","country":"IT","latitude":"45.10306","longitude":"7.66382","population":21362},{"name":"Magenta","slug":"magenta","region":"09","country":"IT","latitude":"45.46456","longitude":"8.88453","population":22566},{"name":"Malnate","slug":"malnate","region":"09","country":"IT","latitude":"45.79377","longitude":"8.88104","population":15466},{"name":"Manduria","slug":"manduria","region":"13","country":"IT","latitude":"40.39899","longitude":"17.63726","population":27411},{"name":"Manfredonia","slug":"manfredonia","region":"13","country":"IT","latitude":"41.63065","longitude":"15.91876","population":56932},{"name":"Mantova","slug":"mantova","region":"09","country":"IT","latitude":"45.16031","longitude":"10.79784","population":39260},{"name":"Marano di Napoli","slug":"marano di napoli","region":"04","country":"IT","latitude":"40.8971","longitude":"14.18824","population":49920},{"name":"Marcianise","slug":"marcianise","region":"04","country":"IT","latitude":"41.03064","longitude":"14.29868","population":40239},{"name":"Marghera","slug":"marghera","region":"20","country":"IT","latitude":"45.45111","longitude":"12.22389","population":28622},{"name":"Mariano Comense","slug":"mariano comense","region":"09","country":"IT","latitude":"45.69651","longitude":"9.1818","population":22643},{"name":"Marigliano","slug":"marigliano","region":"04","country":"IT","latitude":"40.9248","longitude":"14.45612","population":29901},{"name":"Marina di Ardea-Tor San Lorenzo","slug":"marina di ardea-tor san lorenzo","region":"07","country":"IT","latitude":"41.55439","longitude":"12.54115","population":20216},{"name":"Marina di Carrara","slug":"marina di carrara","region":"16","country":"IT","latitude":"44.03837","longitude":"10.04142","population":25000},{"name":"Marina di Massa","slug":"marina di massa","region":"16","country":"IT","latitude":"44.0038","longitude":"10.10674","population":19092},{"name":"Marino","slug":"marino","region":"07","country":"IT","latitude":"41.76984","longitude":"12.65917","population":44142},{"name":"Marsala","slug":"marsala","region":"15","country":"IT","latitude":"37.7992","longitude":"12.4367","population":77915},{"name":"Martina Franca","slug":"martina franca","region":"13","country":"IT","latitude":"40.70355","longitude":"17.33814","population":37685},{"name":"Mascalucia","slug":"mascalucia","region":"15","country":"IT","latitude":"37.57465","longitude":"15.04964","population":32179},{"name":"Massa","slug":"massa","region":"16","country":"IT","latitude":"44.03541","longitude":"10.13927","population":64783},{"name":"Massafra","slug":"massafra","region":"13","country":"IT","latitude":"40.58618","longitude":"17.11635","population":30875},{"name":"Massarosa","slug":"massarosa","region":"16","country":"IT","latitude":"43.86638","longitude":"10.34458","population":22435},{"name":"Matera","slug":"matera","region":"02","country":"IT","latitude":"40.66599","longitude":"16.60463","population":60403},{"name":"Mazara del Vallo","slug":"mazara del vallo","region":"15","country":"IT","latitude":"37.65535","longitude":"12.58986","population":51534},{"name":"Meda","slug":"meda","region":"09","country":"IT","latitude":"45.66121","longitude":"9.15337","population":22665},{"name":"Melegnano","slug":"melegnano","region":"09","country":"IT","latitude":"45.35781","longitude":"9.3236","population":16707},{"name":"Melito di Napoli","slug":"melito di napoli","region":"04","country":"IT","latitude":"40.91948","longitude":"14.23104","population":36933},{"name":"Melzo","slug":"melzo","region":"09","country":"IT","latitude":"45.4981","longitude":"9.42043","population":18031},{"name":"Mentana","slug":"mentana","region":"07","country":"IT","latitude":"42.03539","longitude":"12.64413","population":17047},{"name":"Merano","slug":"merano","region":"17","country":"IT","latitude":"46.66817","longitude":"11.15953","population":41051},{"name":"Mesagne","slug":"mesagne","region":"13","country":"IT","latitude":"40.55851","longitude":"17.80774","population":26497},{"name":"Messina","slug":"messina","region":"15","country":"IT","latitude":"38.19394","longitude":"15.55256","population":219948},{"name":"Mestre","slug":"mestre","region":"20","country":"IT","latitude":"45.49167","longitude":"12.24538","population":147662},{"name":"Miano","slug":"miano","region":"04","country":"IT","latitude":"40.88816","longitude":"14.25339","population":23896},{"name":"Milan","slug":"milan","region":"09","country":"IT","latitude":"45.46427","longitude":"9.18951","population":1371498},{"name":"Milazzo","slug":"milazzo","region":"15","country":"IT","latitude":"38.22008","longitude":"15.24023","population":31771},{"name":"Minturno","slug":"minturno","region":"07","country":"IT","latitude":"41.26294","longitude":"13.74583","population":16236},{"name":"Mira Taglio","slug":"mira taglio","region":"20","country":"IT","latitude":"45.4346","longitude":"12.12942","population":32881},{"name":"Mirafiori Nord","slug":"mirafiori nord","region":"12","country":"IT","latitude":"45.04248","longitude":"7.6276","population":41337},{"name":"Mirafiori Sud","slug":"mirafiori sud","region":"12","country":"IT","latitude":"45.02125","longitude":"7.62314","population":33677},{"name":"Mirandola","slug":"mirandola","region":"05","country":"IT","latitude":"44.88515","longitude":"11.06902","population":17380},{"name":"Mirano","slug":"mirano","region":"20","country":"IT","latitude":"45.49458","longitude":"12.10775","population":15139},{"name":"Misilmeri","slug":"misilmeri","region":"15","country":"IT","latitude":"38.03183","longitude":"13.44795","population":19171},{"name":"Misterbianco","slug":"misterbianco","region":"15","country":"IT","latitude":"37.51803","longitude":"15.00913","population":45542},{"name":"Modena","slug":"modena","region":"05","country":"IT","latitude":"44.64783","longitude":"10.92539","population":184732},{"name":"Modica","slug":"modica","region":"15","country":"IT","latitude":"36.85868","longitude":"14.75966","population":54456},{"name":"Modugno","slug":"modugno","region":"13","country":"IT","latitude":"41.08433","longitude":"16.78342","population":36384},{"name":"Mogliano Veneto","slug":"mogliano veneto","region":"20","country":"IT","latitude":"45.55594","longitude":"12.24294","population":21991},{"name":"Mola di Bari","slug":"mola di bari","region":"13","country":"IT","latitude":"41.05997","longitude":"17.09001","population":24682},{"name":"Molfetta","slug":"molfetta","region":"13","country":"IT","latitude":"41.20036","longitude":"16.59905","population":59557},{"name":"Moncalieri","slug":"moncalieri","region":"12","country":"IT","latitude":"44.9994","longitude":"7.68236","population":56134},{"name":"Mondov\u00ec","slug":"mondovi","region":"12","country":"IT","latitude":"44.39603","longitude":"7.81764","population":21880},{"name":"Mondragone","slug":"mondragone","region":"04","country":"IT","latitude":"41.11399","longitude":"13.89157","population":28683},{"name":"Monfalcone","slug":"monfalcone","region":"06","country":"IT","latitude":"45.80463","longitude":"13.53292","population":26706},{"name":"Monopoli","slug":"monopoli","region":"13","country":"IT","latitude":"40.94918","longitude":"17.29717","population":37738},{"name":"Monreale","slug":"monreale","region":"15","country":"IT","latitude":"38.08125","longitude":"13.28947","population":21964},{"name":"Monselice","slug":"monselice","region":"20","country":"IT","latitude":"45.239","longitude":"11.74984","population":18682},{"name":"Monserrato","slug":"monserrato","region":"14","country":"IT","latitude":"39.25642","longitude":"9.1444","population":20193},{"name":"Monte Rosello","slug":"monte rosello","region":"14","country":"IT","latitude":"40.73542","longitude":"8.56771","population":45000},{"name":"Montebelluna","slug":"montebelluna","region":"20","country":"IT","latitude":"45.77504","longitude":"12.04904","population":26670},{"name":"Montecalvario","slug":"montecalvario","region":"04","country":"IT","latitude":"40.84436","longitude":"14.24555","population":23050},{"name":"Montecatini-Terme","slug":"montecatini-terme","region":"16","country":"IT","latitude":"43.88153","longitude":"10.7723","population":17954},{"name":"Montecchio Maggiore-Alte Ceccato","slug":"montecchio maggiore-alte ceccato","region":"20","country":"IT","latitude":"45.50369","longitude":"11.412","population":20815},{"name":"Montemurlo","slug":"montemurlo","region":"16","country":"IT","latitude":"43.92686","longitude":"11.03718","population":17502},{"name":"Monterotondo","slug":"monterotondo","region":"07","country":"IT","latitude":"42.05159","longitude":"12.61969","population":37225},{"name":"Monterusciello","slug":"monterusciello","region":"04","country":"IT","latitude":"40.86874","longitude":"14.08276","population":29125},{"name":"Montesilvano Marina","slug":"montesilvano marina","region":"01","country":"IT","latitude":"42.5114","longitude":"14.14507","population":45991},{"name":"Montevarchi","slug":"montevarchi","region":"16","country":"IT","latitude":"43.5252","longitude":"11.57238","population":18682},{"name":"Montichiari","slug":"montichiari","region":"09","country":"IT","latitude":"45.41317","longitude":"10.39799","population":15030},{"name":"Monza","slug":"monza","region":"09","country":"IT","latitude":"45.58005","longitude":"9.27246","population":124398},{"name":"Muggi\u00f2","slug":"muggio","region":"09","country":"IT","latitude":"45.58878","longitude":"9.22784","population":23193},{"name":"Mugnano di Napoli","slug":"mugnano di napoli","region":"04","country":"IT","latitude":"40.90936","longitude":"14.20984","population":34231},{"name":"Naples","slug":"naples","region":"04","country":"IT","latitude":"40.85216","longitude":"14.26811","population":909048},{"name":"Nard\u00f2","slug":"nardo","region":"13","country":"IT","latitude":"40.17953","longitude":"18.03174","population":29668},{"name":"Nerviano","slug":"nerviano","region":"09","country":"IT","latitude":"45.55343","longitude":"8.9792","population":17030},{"name":"Nettuno","slug":"nettuno","region":"07","country":"IT","latitude":"41.45794","longitude":"12.66393","population":49873},{"name":"Nicastro","slug":"nicastro","region":"03","country":"IT","latitude":"38.97089","longitude":"16.31285","population":40000},{"name":"Nichelino","slug":"nichelino","region":"12","country":"IT","latitude":"45.00031","longitude":"7.65305","population":47760},{"name":"Niscemi","slug":"niscemi","region":"15","country":"IT","latitude":"37.14649","longitude":"14.39381","population":26893},{"name":"Nocera Inferiore","slug":"nocera inferiore","region":"04","country":"IT","latitude":"40.7454","longitude":"14.64542","population":45608},{"name":"Nocera Superiore","slug":"nocera superiore","region":"04","country":"IT","latitude":"40.74248","longitude":"14.67447","population":23452},{"name":"Noci","slug":"noci","region":"13","country":"IT","latitude":"40.79356","longitude":"17.12681","population":15383},{"name":"Noicattaro","slug":"noicattaro","region":"13","country":"IT","latitude":"41.03449","longitude":"16.98963","population":21988},{"name":"Nola","slug":"nola","region":"04","country":"IT","latitude":"40.92606","longitude":"14.52816","population":24101},{"name":"Noto","slug":"noto","region":"15","country":"IT","latitude":"36.89244","longitude":"15.06977","population":18421},{"name":"Nova Milanese","slug":"nova milanese","region":"09","country":"IT","latitude":"45.58882","longitude":"9.19792","population":22310},{"name":"Novara","slug":"novara","region":"12","country":"IT","latitude":"45.44694","longitude":"8.62118","population":101916},{"name":"Novate Milanese","slug":"novate milanese","region":"09","country":"IT","latitude":"45.5305","longitude":"9.13954","population":19758},{"name":"Novi Ligure","slug":"novi ligure","region":"12","country":"IT","latitude":"44.76246","longitude":"8.787","population":25957},{"name":"Nuoro","slug":"nuoro","region":"14","country":"IT","latitude":"40.31991","longitude":"9.32568","population":35948},{"name":"Oderzo","slug":"oderzo","region":"20","country":"IT","latitude":"45.78114","longitude":"12.49442","population":15764},{"name":"Olbia","slug":"olbia","region":"14","country":"IT","latitude":"40.92337","longitude":"9.49802","population":60345},{"name":"Orbassano","slug":"orbassano","region":"12","country":"IT","latitude":"45.00547","longitude":"7.53813","population":21813},{"name":"Oristano","slug":"oristano","region":"14","country":"IT","latitude":"39.9036","longitude":"8.59257","population":31671},{"name":"Orta Nova","slug":"orta nova","region":"13","country":"IT","latitude":"41.32879","longitude":"15.70994","population":16677},{"name":"Orta di Atella","slug":"orta di atella","region":"04","country":"IT","latitude":"40.96441","longitude":"14.26854","population":24750},{"name":"Osimo","slug":"osimo","region":"10","country":"IT","latitude":"43.48539","longitude":"13.48222","population":16610},{"name":"Ostuni","slug":"ostuni","region":"13","country":"IT","latitude":"40.72913","longitude":"17.57675","population":24157},{"name":"Ottaviano","slug":"ottaviano","region":"04","country":"IT","latitude":"40.85193","longitude":"14.47826","population":23396},{"name":"Pachino","slug":"pachino","region":"15","country":"IT","latitude":"36.71522","longitude":"15.09019","population":20493},{"name":"Paderno Dugnano","slug":"paderno dugnano","region":"09","country":"IT","latitude":"45.56899","longitude":"9.16483","population":46235},{"name":"Padova","slug":"padova","region":"20","country":"IT","latitude":"45.40797","longitude":"11.88586","population":203725},{"name":"Pagani","slug":"pagani","region":"04","country":"IT","latitude":"40.74199","longitude":"14.61448","population":32835},{"name":"Palagiano","slug":"palagiano","region":"13","country":"IT","latitude":"40.57762","longitude":"17.03812","population":15388},{"name":"Palagonia","slug":"palagonia","region":"15","country":"IT","latitude":"37.32955","longitude":"14.74474","population":16227},{"name":"Palazzolo sull'Oglio","slug":"palazzolo sull'oglio","region":"09","country":"IT","latitude":"45.59665","longitude":"9.88688","population":17973},{"name":"Palermo","slug":"palermo","region":"15","country":"IT","latitude":"38.1166","longitude":"13.3636","population":648260},{"name":"Pallanza-Intra-Suna","slug":"pallanza-intra-suna","region":"12","country":"IT","latitude":"45.93778","longitude":"8.57088","population":28911},{"name":"Palma di Montechiaro","slug":"palma di montechiaro","region":"15","country":"IT","latitude":"37.19066","longitude":"13.76603","population":22654},{"name":"Palmi","slug":"palmi","region":"03","country":"IT","latitude":"38.35943","longitude":"15.85155","population":18556},{"name":"Palo del Colle","slug":"palo del colle","region":"13","country":"IT","latitude":"41.05562","longitude":"16.70321","population":20692},{"name":"Paolo VI","slug":"paolo vi","region":"13","country":"IT","latitude":"40.52218","longitude":"17.27401","population":17330},{"name":"Parabiago","slug":"parabiago","region":"09","country":"IT","latitude":"45.56034","longitude":"8.94545","population":26364},{"name":"Parella","slug":"parella","region":"12","country":"IT","latitude":"45.0801","longitude":"7.62567","population":46795},{"name":"Parma","slug":"parma","region":"05","country":"IT","latitude":"44.79935","longitude":"10.32618","population":198292},{"name":"Partinico","slug":"partinico","region":"15","country":"IT","latitude":"38.04657","longitude":"13.11785","population":28708},{"name":"Patern\u00f2","slug":"paterno","region":"15","country":"IT","latitude":"37.56675","longitude":"14.90254","population":46030},{"name":"Pavia","slug":"pavia","region":"09","country":"IT","latitude":"45.19205","longitude":"9.15917","population":65734},{"name":"Pendino","slug":"pendino","region":"04","country":"IT","latitude":"40.84708","longitude":"14.26321","population":16848},{"name":"Perugia","slug":"perugia","region":"18","country":"IT","latitude":"43.1122","longitude":"12.38878","population":120137},{"name":"Pesaro","slug":"pesaro","region":"10","country":"IT","latitude":"43.90921","longitude":"12.9164","population":77241},{"name":"Pescara","slug":"pescara","region":"01","country":"IT","latitude":"42.4584","longitude":"14.20283","population":119554},{"name":"Piacenza","slug":"piacenza","region":"05","country":"IT","latitude":"45.05242","longitude":"9.69342","population":103607},{"name":"Pianura","slug":"pianura","region":"04","country":"IT","latitude":"40.85907","longitude":"14.17314","population":57821},{"name":"Piazza Armerina","slug":"piazza armerina","region":"15","country":"IT","latitude":"37.38417","longitude":"14.36921","population":17736},{"name":"Pietrasanta","slug":"pietrasanta","region":"16","country":"IT","latitude":"43.95952","longitude":"10.22784","population":18897},{"name":"Pinerolo","slug":"pinerolo","region":"12","country":"IT","latitude":"44.88534","longitude":"7.33135","population":30866},{"name":"Pioltello","slug":"pioltello","region":"09","country":"IT","latitude":"45.50147","longitude":"9.33053","population":34203},{"name":"Piombino","slug":"piombino","region":"16","country":"IT","latitude":"42.92554","longitude":"10.52585","population":34041},{"name":"Piossasco","slug":"piossasco","region":"12","country":"IT","latitude":"44.98802","longitude":"7.4601","population":16904},{"name":"Pisa","slug":"pisa","region":"16","country":"IT","latitude":"43.70853","longitude":"10.4036","population":109960},{"name":"Piscinola","slug":"piscinola","region":"04","country":"IT","latitude":"40.89299","longitude":"14.23394","population":27534},{"name":"Pistoia","slug":"pistoia","region":"16","country":"IT","latitude":"43.93064","longitude":"10.92365","population":73832},{"name":"Poggibonsi","slug":"poggibonsi","region":"16","country":"IT","latitude":"43.47064","longitude":"11.14804","population":21692},{"name":"Poggiomarino","slug":"poggiomarino","region":"04","country":"IT","latitude":"40.80114","longitude":"14.54066","population":19451},{"name":"Poggioreale","slug":"poggioreale","region":"04","country":"IT","latitude":"40.86543","longitude":"14.28877","population":23654},{"name":"Pomezia","slug":"pomezia","region":"07","country":"IT","latitude":"41.66931","longitude":"12.50124","population":22346},{"name":"Pomigliano d'Arco","slug":"pomigliano d'arco","region":"04","country":"IT","latitude":"40.90975","longitude":"14.38316","population":38921},{"name":"Pompei","slug":"pompei","region":"04","country":"IT","latitude":"40.74574","longitude":"14.49698","population":23902},{"name":"Pontedera","slug":"pontedera","region":"16","country":"IT","latitude":"43.66141","longitude":"10.63067","population":19518},{"name":"Ponticelli","slug":"ponticelli","region":"04","country":"IT","latitude":"40.8542","longitude":"14.33038","population":52284},{"name":"Pordenone","slug":"pordenone","region":"06","country":"IT","latitude":"45.95689","longitude":"12.66051","population":49878},{"name":"Portici","slug":"portici","region":"04","country":"IT","latitude":"40.81563","longitude":"14.33716","population":53801},{"name":"Porto Empedocle","slug":"porto empedocle","region":"15","country":"IT","latitude":"37.28942","longitude":"13.52494","population":16574},{"name":"Porto San Giorgio","slug":"porto san giorgio","region":"10","country":"IT","latitude":"43.17784","longitude":"13.79411","population":15558},{"name":"Porto Sant'Elpidio","slug":"porto sant'elpidio","region":"10","country":"IT","latitude":"43.25297","longitude":"13.7597","population":22233},{"name":"Porto Torres","slug":"porto torres","region":"14","country":"IT","latitude":"40.83375","longitude":"8.40531","population":21653},{"name":"Portogruaro","slug":"portogruaro","region":"20","country":"IT","latitude":"45.78071","longitude":"12.84052","population":17468},{"name":"Posillipo","slug":"posillipo","region":"04","country":"IT","latitude":"40.81279","longitude":"14.20001","population":22856},{"name":"Potenza","slug":"potenza","region":"02","country":"IT","latitude":"40.64175","longitude":"15.80794","population":56433},{"name":"Pozzallo","slug":"pozzallo","region":"15","country":"IT","latitude":"36.73028","longitude":"14.84672","population":18166},{"name":"Pozzo Strada","slug":"pozzo strada","region":"12","country":"IT","latitude":"45.06837","longitude":"7.62503","population":54766},{"name":"Pozzuoli","slug":"pozzuoli","region":"04","country":"IT","latitude":"40.84394","longitude":"14.0952","population":81231},{"name":"Prato","slug":"prato","region":"16","country":"IT","latitude":"43.8805","longitude":"11.09699","population":195089},{"name":"Putignano","slug":"putignano","region":"13","country":"IT","latitude":"40.85106","longitude":"17.1219","population":23661},{"name":"Qualiano","slug":"qualiano","region":"04","country":"IT","latitude":"40.91899","longitude":"14.15352","population":23752},{"name":"Quartiere Otto","slug":"quartiere otto","region":"09","country":"IT","latitude":"45.48607","longitude":"9.13917","population":16000},{"name":"Quarto","slug":"quarto","region":"04","country":"IT","latitude":"40.87822","longitude":"14.14352","population":37683},{"name":"Quarto Oggiaro","slug":"quarto oggiaro","region":"09","country":"IT","latitude":"45.51314","longitude":"9.14343","population":182118},{"name":"Quartu Sant'Elena","slug":"quartu sant'elena","region":"14","country":"IT","latitude":"39.22935","longitude":"9.25004","population":66620},{"name":"Quattromiglia","slug":"quattromiglia","region":"03","country":"IT","latitude":"39.34474","longitude":"16.23802","population":22889},{"name":"Ragusa","slug":"ragusa","region":"15","country":"IT","latitude":"36.92574","longitude":"14.72443","population":74251},{"name":"Rapallo","slug":"rapallo","region":"08","country":"IT","latitude":"44.3496","longitude":"9.22796","population":26993},{"name":"Ravenna","slug":"ravenna","region":"05","country":"IT","latitude":"44.41344","longitude":"12.20121","population":80868},{"name":"Reggio Calabria","slug":"reggio calabria","region":"03","country":"IT","latitude":"38.11047","longitude":"15.66129","population":182455},{"name":"Reggio nell'Emilia","slug":"reggio nell'emilia","region":"05","country":"IT","latitude":"44.69825","longitude":"10.63125","population":171944},{"name":"Rho","slug":"rho","region":"09","country":"IT","latitude":"45.53245","longitude":"9.0402","population":47086},{"name":"Ribera","slug":"ribera","region":"15","country":"IT","latitude":"37.49773","longitude":"13.26676","population":17664},{"name":"Riccione","slug":"riccione","region":"05","country":"IT","latitude":"43.99942","longitude":"12.65689","population":32744},{"name":"Rieti","slug":"rieti","region":"07","country":"IT","latitude":"42.40476","longitude":"12.85735","population":39068},{"name":"Rimini","slug":"rimini","region":"05","country":"IT","latitude":"44.05755","longitude":"12.56528","population":148688},{"name":"Riva del Garda","slug":"riva del garda","region":"17","country":"IT","latitude":"45.88577","longitude":"10.84117","population":17331},{"name":"Rivoli","slug":"rivoli","region":"12","country":"IT","latitude":"45.07073","longitude":"7.51465","population":48629},{"name":"Rocca di Papa","slug":"rocca di papa","region":"07","country":"IT","latitude":"41.7658","longitude":"12.70188","population":15036},{"name":"Romano Banco","slug":"romano banco","region":"09","country":"IT","latitude":"45.42309","longitude":"9.10707","population":26163},{"name":"Romano di Lombardia","slug":"romano di lombardia","region":"09","country":"IT","latitude":"45.52081","longitude":"9.7544","population":17549},{"name":"Rome","slug":"rome","region":"07","country":"IT","latitude":"41.89193","longitude":"12.51133","population":2318895},{"name":"Roseto degli Abruzzi","slug":"roseto degli abruzzi","region":"01","country":"IT","latitude":"42.67164","longitude":"14.01481","population":16538},{"name":"Rosignano Solvay-Castiglioncello","slug":"rosignano solvay-castiglioncello","region":"16","country":"IT","latitude":"43.38946","longitude":"10.43615","population":19786},{"name":"Rosolini","slug":"rosolini","region":"15","country":"IT","latitude":"36.82145","longitude":"14.95132","population":19721},{"name":"Rossano Stazione","slug":"rossano stazione","region":"03","country":"IT","latitude":"39.59855","longitude":"16.63485","population":23824},{"name":"Rovereto","slug":"rovereto","region":"17","country":"IT","latitude":"45.8904","longitude":"11.04053","population":34152},{"name":"Rovigo","slug":"rovigo","region":"20","country":"IT","latitude":"45.06982","longitude":"11.79022","population":50279},{"name":"Rozzano","slug":"rozzano","region":"09","country":"IT","latitude":"45.38193","longitude":"9.1559","population":39731},{"name":"Rutigliano","slug":"rutigliano","region":"13","country":"IT","latitude":"41.00997","longitude":"17.00558","population":17674},{"name":"Ruvo di Puglia","slug":"ruvo di puglia","region":"13","country":"IT","latitude":"41.11758","longitude":"16.48421","population":23938},{"name":"Sacile","slug":"sacile","region":"06","country":"IT","latitude":"45.95412","longitude":"12.50274","population":16626},{"name":"Salerno","slug":"salerno","region":"04","country":"IT","latitude":"40.67545","longitude":"14.79328","population":125797},{"name":"Salsomaggiore Terme","slug":"salsomaggiore terme","region":"05","country":"IT","latitude":"44.81592","longitude":"9.98637","population":15754},{"name":"Saluzzo","slug":"saluzzo","region":"12","country":"IT","latitude":"44.64671","longitude":"7.49309","population":16537},{"name":"Sambiase","slug":"sambiase","region":"03","country":"IT","latitude":"38.96667","longitude":"16.28333","population":20000},{"name":"San Benedetto del Tronto","slug":"san benedetto del tronto","region":"10","country":"IT","latitude":"42.9568","longitude":"13.87676","population":45873},{"name":"San Bonifacio","slug":"san bonifacio","region":"20","country":"IT","latitude":"45.39595","longitude":"11.27352","population":17347},{"name":"San Carlo All'Arena","slug":"san carlo all'arena","region":"04","country":"IT","latitude":"40.86511","longitude":"14.26291","population":69094},{"name":"San Cataldo","slug":"san cataldo","region":"15","country":"IT","latitude":"37.48412","longitude":"13.98542","population":22079},{"name":"San Donato","slug":"san donato","region":"12","country":"IT","latitude":"45.08201","longitude":"7.66485","population":32586},{"name":"San Donato Milanese","slug":"san donato milanese","region":"09","country":"IT","latitude":"45.41047","longitude":"9.26838","population":28351},{"name":"San Don\u00e0 di Piave","slug":"san dona di piave","region":"20","country":"IT","latitude":"45.63019","longitude":"12.5681","population":41856},{"name":"San Felice A Cancello","slug":"san felice a cancello","region":"04","country":"IT","latitude":"41.01702","longitude":"14.48736","population":16571},{"name":"San Ferdinando","slug":"san ferdinando","region":"04","country":"IT","latitude":"40.83342","longitude":"14.24751","population":18404},{"name":"San Giorgio a Cremano","slug":"san giorgio a cremano","region":"04","country":"IT","latitude":"40.83261","longitude":"14.34162","population":45463},{"name":"San Giovanni Lupatoto","slug":"san giovanni lupatoto","region":"20","country":"IT","latitude":"45.38193","longitude":"11.04474","population":20038},{"name":"San Giovanni Rotondo","slug":"san giovanni rotondo","region":"13","country":"IT","latitude":"41.70643","longitude":"15.7277","population":27124},{"name":"San Giovanni Valdarno","slug":"san giovanni valdarno","region":"16","country":"IT","latitude":"43.56757","longitude":"11.52987","population":16002},{"name":"San Giovanni a Teduccio","slug":"san giovanni a teduccio","region":"04","country":"IT","latitude":"40.83808","longitude":"14.30606","population":23839},{"name":"San Giovanni in Fiore","slug":"san giovanni in fiore","region":"03","country":"IT","latitude":"39.25446","longitude":"16.69699","population":17358},{"name":"San Giovanni in Persiceto","slug":"san giovanni in persiceto","region":"05","country":"IT","latitude":"44.63838","longitude":"11.18419","population":15783},{"name":"San Giovanni la Punta","slug":"san giovanni la punta","region":"15","country":"IT","latitude":"37.5769","longitude":"15.09371","population":22046},{"name":"San Giuliano Milanese","slug":"san giuliano milanese","region":"09","country":"IT","latitude":"45.39402","longitude":"9.29109","population":31050},{"name":"San Giuseppe Vesuviano","slug":"san giuseppe vesuviano","region":"04","country":"IT","latitude":"40.8356","longitude":"14.50487","population":26888},{"name":"San Lazzaro","slug":"san lazzaro","region":"05","country":"IT","latitude":"44.4705","longitude":"11.40851","population":22350},{"name":"San Lorenzo","slug":"san lorenzo","region":"04","country":"IT","latitude":"40.85686","longitude":"14.26481","population":48078},{"name":"San Mauro Torinese","slug":"san mauro torinese","region":"12","country":"IT","latitude":"45.10359","longitude":"7.76803","population":18521},{"name":"San Miniato","slug":"san miniato","region":"16","country":"IT","latitude":"43.67954","longitude":"10.84975","population":16900},{"name":"San Miniato Basso","slug":"san miniato basso","region":"16","country":"IT","latitude":"43.69332","longitude":"10.84119","population":26365},{"name":"San Nicandro Garganico","slug":"san nicandro garganico","region":"13","country":"IT","latitude":"41.83844","longitude":"15.56535","population":15815},{"name":"San Nicola la Strada","slug":"san nicola la strada","region":"04","country":"IT","latitude":"41.05237","longitude":"14.33334","population":21147},{"name":"San Paolo","slug":"san paolo","region":"13","country":"IT","latitude":"41.12476","longitude":"16.79258","population":29800},{"name":"San Pietro a Patierno","slug":"san pietro a patierno","region":"04","country":"IT","latitude":"40.88566","longitude":"14.29008","population":17324},{"name":"San Salvario","slug":"san salvario","region":"12","country":"IT","latitude":"45.05288","longitude":"7.67979","population":35591},{"name":"San Salvo","slug":"san salvo","region":"01","country":"IT","latitude":"42.04413","longitude":"14.73335","population":17123},{"name":"San Sebastiano","slug":"san sebastiano","region":"09","country":"IT","latitude":"45.65192","longitude":"10.25681","population":23228},{"name":"San Severo","slug":"san severo","region":"13","country":"IT","latitude":"41.68564","longitude":"15.38148","population":51919},{"name":"San Vito dei Normanni","slug":"san vito dei normanni","region":"13","country":"IT","latitude":"40.65642","longitude":"17.70814","population":17617},{"name":"Sanremo","slug":"sanremo","region":"08","country":"IT","latitude":"43.81725","longitude":"7.7772","population":47043},{"name":"Sant'Anastasia","slug":"sant'anastasia","region":"04","country":"IT","latitude":"40.86842","longitude":"14.40196","population":20733},{"name":"Sant'Antimo","slug":"sant'antimo","region":"04","country":"IT","latitude":"40.94223","longitude":"14.23476","population":33561},{"name":"Sant'Antonio Abate","slug":"sant'antonio abate","region":"04","country":"IT","latitude":"40.72152","longitude":"14.54021","population":18859},{"name":"Santa Maria Capua Vetere","slug":"santa maria capua vetere","region":"04","country":"IT","latitude":"41.08156","longitude":"14.25342","population":31743},{"name":"Santa Rita","slug":"santa rita","region":"12","country":"IT","latitude":"45.04593","longitude":"7.64451","population":29680},{"name":"Santeramo in Colle","slug":"santeramo in colle","region":"13","country":"IT","latitude":"40.79236","longitude":"16.75873","population":24922},{"name":"Sarno","slug":"sarno","region":"04","country":"IT","latitude":"40.80748","longitude":"14.62151","population":28837},{"name":"Saronno","slug":"saronno","region":"09","country":"IT","latitude":"45.62513","longitude":"9.03517","population":38099},{"name":"Sarzana","slug":"sarzana","region":"08","country":"IT","latitude":"44.11178","longitude":"9.9622","population":20435},{"name":"Sassari","slug":"sassari","region":"14","country":"IT","latitude":"40.72586","longitude":"8.55552","population":91895},{"name":"Sassuolo","slug":"sassuolo","region":"05","country":"IT","latitude":"44.5432","longitude":"10.7848","population":36926},{"name":"Sava","slug":"sava","region":"13","country":"IT","latitude":"40.40203","longitude":"17.55267","population":15898},{"name":"Savigliano","slug":"savigliano","region":"12","country":"IT","latitude":"44.64808","longitude":"7.65677","population":16800},{"name":"Savona","slug":"savona","region":"08","country":"IT","latitude":"44.30905","longitude":"8.47715","population":61345},{"name":"Scafati","slug":"scafati","region":"04","country":"IT","latitude":"40.7602","longitude":"14.53723","population":48702},{"name":"Scampia","slug":"scampia","region":"04","country":"IT","latitude":"40.90347","longitude":"14.23736","population":39060},{"name":"Scandiano","slug":"scandiano","region":"05","country":"IT","latitude":"44.5983","longitude":"10.69558","population":25896},{"name":"Scandicci","slug":"scandicci","region":"16","country":"IT","latitude":"43.75423","longitude":"11.18794","population":44951},{"name":"Schio","slug":"schio","region":"20","country":"IT","latitude":"45.71262","longitude":"11.35671","population":33740},{"name":"Sciacca","slug":"sciacca","region":"15","country":"IT","latitude":"37.50693","longitude":"13.08399","population":40569},{"name":"Scicli","slug":"scicli","region":"15","country":"IT","latitude":"36.79014","longitude":"14.7028","population":16109},{"name":"Scordia","slug":"scordia","region":"15","country":"IT","latitude":"37.29548","longitude":"14.84058","population":16645},{"name":"Secondigliano","slug":"secondigliano","region":"04","country":"IT","latitude":"40.9","longitude":"14.26667","population":42827},{"name":"Segrate","slug":"segrate","region":"09","country":"IT","latitude":"45.49185","longitude":"9.29812","population":28296},{"name":"Selargius","slug":"selargius","region":"14","country":"IT","latitude":"39.25779","longitude":"9.16323","population":23285},{"name":"Senago","slug":"senago","region":"09","country":"IT","latitude":"45.57562","longitude":"9.1262","population":20620},{"name":"Senigallia","slug":"senigallia","region":"10","country":"IT","latitude":"43.71626","longitude":"13.20882","population":30882},{"name":"Seregno","slug":"seregno","region":"09","country":"IT","latitude":"45.65002","longitude":"9.20548","population":42760},{"name":"Seriate","slug":"seriate","region":"09","country":"IT","latitude":"45.68532","longitude":"9.72487","population":23552},{"name":"Sesto Fiorentino","slug":"sesto fiorentino","region":"16","country":"IT","latitude":"43.83193","longitude":"11.19924","population":45656},{"name":"Sesto San Giovanni","slug":"sesto san giovanni","region":"09","country":"IT","latitude":"45.53329","longitude":"9.22585","population":81822},{"name":"Sestri Levante","slug":"sestri levante","region":"08","country":"IT","latitude":"44.27317","longitude":"9.39683","population":16963},{"name":"Sestu","slug":"sestu","region":"14","country":"IT","latitude":"39.29846","longitude":"9.09248","population":18191},{"name":"Settimo Torinese","slug":"settimo torinese","region":"12","country":"IT","latitude":"45.13925","longitude":"7.77008","population":47485},{"name":"Seveso","slug":"seveso","region":"09","country":"IT","latitude":"45.6467","longitude":"9.14296","population":22733},{"name":"Sezze","slug":"sezze","region":"07","country":"IT","latitude":"41.50032","longitude":"13.06176","population":16071},{"name":"Siderno","slug":"siderno","region":"03","country":"IT","latitude":"38.26993","longitude":"16.29607","population":15651},{"name":"Siena","slug":"siena","region":"16","country":"IT","latitude":"43.31822","longitude":"11.33064","population":53901},{"name":"Sinnai","slug":"sinnai","region":"14","country":"IT","latitude":"39.30286","longitude":"9.20283","population":15791},{"name":"Siracusa","slug":"siracusa","region":"15","country":"IT","latitude":"37.07542","longitude":"15.28664","population":121605},{"name":"Soccavo","slug":"soccavo","region":"04","country":"IT","latitude":"40.8455","longitude":"14.19262","population":45314},{"name":"Somma Vesuviana","slug":"somma vesuviana","region":"04","country":"IT","latitude":"40.87329","longitude":"14.43865","population":32484},{"name":"Sondrio","slug":"sondrio","region":"09","country":"IT","latitude":"46.16852","longitude":"9.87134","population":19208},{"name":"Sora","slug":"sora","region":"07","country":"IT","latitude":"41.71829","longitude":"13.61356","population":23758},{"name":"Spinaceto","slug":"spinaceto","region":"07","country":"IT","latitude":"41.77861","longitude":"12.44236","population":24219},{"name":"Spinea-Orgnano","slug":"spinea-orgnano","region":"20","country":"IT","latitude":"45.49107","longitude":"12.155","population":23710},{"name":"Spoleto","slug":"spoleto","region":"18","country":"IT","latitude":"42.74071","longitude":"12.73899","population":19266},{"name":"Stella","slug":"stella","region":"04","country":"IT","latitude":"40.86027","longitude":"14.25223","population":30483},{"name":"Sulmona","slug":"sulmona","region":"01","country":"IT","latitude":"42.04945","longitude":"13.92578","population":21086},{"name":"Suzzara","slug":"suzzara","region":"09","country":"IT","latitude":"44.99242","longitude":"10.74407","population":16571},{"name":"Taranto","slug":"taranto","region":"13","country":"IT","latitude":"40.46438","longitude":"17.24707","population":198585},{"name":"Teramo","slug":"teramo","region":"01","country":"IT","latitude":"42.66123","longitude":"13.69901","population":54338},{"name":"Terlizzi","slug":"terlizzi","region":"13","country":"IT","latitude":"41.12905","longitude":"16.54536","population":25811},{"name":"Termini Imerese","slug":"termini imerese","region":"15","country":"IT","latitude":"37.98225","longitude":"13.69729","population":22957},{"name":"Termoli","slug":"termoli","region":"11","country":"IT","latitude":"41.99994","longitude":"14.99389","population":31044},{"name":"Terni","slug":"terni","region":"18","country":"IT","latitude":"42.56335","longitude":"12.64329","population":111189},{"name":"Terracina","slug":"terracina","region":"07","country":"IT","latitude":"41.29174","longitude":"13.24359","population":30980},{"name":"Terzigno","slug":"terzigno","region":"04","country":"IT","latitude":"40.804","longitude":"14.49309","population":17138},{"name":"Thiene","slug":"thiene","region":"20","country":"IT","latitude":"45.7088","longitude":"11.47959","population":21145},{"name":"Tivoli","slug":"tivoli","region":"07","country":"IT","latitude":"41.95952","longitude":"12.8016","population":22018},{"name":"Tolentino","slug":"tolentino","region":"10","country":"IT","latitude":"43.20918","longitude":"13.28524","population":16504},{"name":"Tor Lupara","slug":"tor lupara","region":"07","country":"IT","latitude":"41.99771","longitude":"12.61814","population":20843},{"name":"Torre Annunziata","slug":"torre annunziata","region":"04","country":"IT","latitude":"40.75337","longitude":"14.45251","population":43521},{"name":"Torre del Greco","slug":"torre del greco","region":"04","country":"IT","latitude":"40.78931","longitude":"14.36806","population":85332},{"name":"Torremaggiore","slug":"torremaggiore","region":"13","country":"IT","latitude":"41.68894","longitude":"15.29408","population":16955},{"name":"Tortona","slug":"tortona","region":"12","country":"IT","latitude":"44.89784","longitude":"8.86374","population":22743},{"name":"Torvaianica","slug":"torvaianica","region":"07","country":"IT","latitude":"41.62112","longitude":"12.46197","population":17235},{"name":"Tradate","slug":"tradate","region":"09","country":"IT","latitude":"45.70843","longitude":"8.90763","population":17154},{"name":"Trani","slug":"trani","region":"13","country":"IT","latitude":"41.27733","longitude":"16.41011","population":53981},{"name":"Trapani","slug":"trapani","region":"15","country":"IT","latitude":"38.0176","longitude":"12.53617","population":67531},{"name":"Trecate","slug":"trecate","region":"12","country":"IT","latitude":"45.43399","longitude":"8.7364","population":19430},{"name":"Trento","slug":"trento","region":"17","country":"IT","latitude":"46.06787","longitude":"11.12108","population":120709},{"name":"Trentola-Ducenta","slug":"trentola-ducenta","region":"04","country":"IT","latitude":"40.97517","longitude":"14.1749","population":17056},{"name":"Treviglio","slug":"treviglio","region":"09","country":"IT","latitude":"45.52081","longitude":"9.59102","population":24937},{"name":"Treviso","slug":"treviso","region":"20","country":"IT","latitude":"45.66673","longitude":"12.2416","population":85760},{"name":"Trezzano sul Naviglio","slug":"trezzano sul naviglio","region":"09","country":"IT","latitude":"45.42212","longitude":"9.06342","population":20001},{"name":"Trieste","slug":"trieste","region":"06","country":"IT","latitude":"45.64953","longitude":"13.77678","population":204338},{"name":"Triggiano","slug":"triggiano","region":"13","country":"IT","latitude":"41.06549","longitude":"16.92501","population":26811},{"name":"Turin","slug":"turin","region":"12","country":"IT","latitude":"45.07049","longitude":"7.68682","population":847287},{"name":"Udine","slug":"udine","region":"06","country":"IT","latitude":"46.0693","longitude":"13.23715","population":100170},{"name":"Valdagno","slug":"valdagno","region":"20","country":"IT","latitude":"45.64498","longitude":"11.29886","population":22555},{"name":"Valenza","slug":"valenza","region":"12","country":"IT","latitude":"45.01242","longitude":"8.64379","population":17305},{"name":"Valenzano","slug":"valenzano","region":"13","country":"IT","latitude":"41.04376","longitude":"16.88491","population":16101},{"name":"Vanchiglia","slug":"vanchiglia","region":"12","country":"IT","latitude":"45.0714","longitude":"7.70421","population":29230},{"name":"Vanchiglietta","slug":"vanchiglietta","region":"12","country":"IT","latitude":"45.07357","longitude":"7.71758","population":18300},{"name":"Varese","slug":"varese","region":"09","country":"IT","latitude":"45.82058","longitude":"8.82511","population":80588},{"name":"Vasto","slug":"vasto","region":"01","country":"IT","latitude":"42.1115","longitude":"14.70649","population":41409},{"name":"Velletri","slug":"velletri","region":"07","country":"IT","latitude":"41.68573","longitude":"12.77753","population":52911},{"name":"Venaria Reale","slug":"venaria reale","region":"12","country":"IT","latitude":"45.12597","longitude":"7.63136","population":33531},{"name":"Venice","slug":"venice","region":"20","country":"IT","latitude":"45.43713","longitude":"12.33265","population":51298},{"name":"Ventimiglia","slug":"ventimiglia","region":"08","country":"IT","latitude":"43.78956","longitude":"7.60872","population":24120},{"name":"Verbania","slug":"verbania","region":"12","country":"IT","latitude":"45.92136","longitude":"8.55183","population":31070},{"name":"Vercelli","slug":"vercelli","region":"12","country":"IT","latitude":"45.32163","longitude":"8.41989","population":45875},{"name":"Verona","slug":"verona","region":"20","country":"IT","latitude":"45.43854","longitude":"10.9938","population":258031},{"name":"Viadana","slug":"viadana","region":"09","country":"IT","latitude":"44.93553","longitude":"10.51898","population":20013},{"name":"Viareggio","slug":"viareggio","region":"16","country":"IT","latitude":"43.86693","longitude":"10.2502","population":62169},{"name":"Vibo Valentia","slug":"vibo valentia","region":"03","country":"IT","latitude":"38.67618","longitude":"16.10094","population":19263},{"name":"Vicaria","slug":"vicaria","region":"04","country":"IT","latitude":"40.86151","longitude":"14.27328","population":15062},{"name":"Vicenza","slug":"vicenza","region":"20","country":"IT","latitude":"45.54672","longitude":"11.5475","population":111980},{"name":"Vigevano","slug":"vigevano","region":"09","country":"IT","latitude":"45.31407","longitude":"8.85437","population":57970},{"name":"Vignola","slug":"vignola","region":"05","country":"IT","latitude":"44.48383","longitude":"11.01096","population":22397},{"name":"Villabate","slug":"villabate","region":"15","country":"IT","latitude":"38.07789","longitude":"13.44275","population":19031},{"name":"Villafranca di Verona","slug":"villafranca di verona","region":"20","country":"IT","latitude":"45.35405","longitude":"10.84462","population":15895},{"name":"Villanova","slug":"villanova","region":"07","country":"IT","latitude":"41.96357","longitude":"12.75633","population":15117},{"name":"Villaricca","slug":"villaricca","region":"04","country":"IT","latitude":"40.92006","longitude":"14.19339","population":25074},{"name":"Vimercate","slug":"vimercate","region":"09","country":"IT","latitude":"45.61545","longitude":"9.36801","population":22727},{"name":"Vimodrone","slug":"vimodrone","region":"09","country":"IT","latitude":"45.51461","longitude":"9.28772","population":17072},{"name":"Viterbo","slug":"viterbo","region":"07","country":"IT","latitude":"42.41937","longitude":"12.1056","population":47134},{"name":"Vittoria","slug":"vittoria","region":"15","country":"IT","latitude":"36.95151","longitude":"14.52788","population":50852},{"name":"Vittorio Veneto","slug":"vittorio veneto","region":"20","country":"IT","latitude":"45.98026","longitude":"12.30065","population":24789},{"name":"Voghera","slug":"voghera","region":"09","country":"IT","latitude":"44.99151","longitude":"9.01175","population":38464},{"name":"Volla","slug":"volla","region":"04","country":"IT","latitude":"40.87363","longitude":"14.34085","population":22911},{"name":"Vomero","slug":"vomero","region":"04","country":"IT","latitude":"40.84282","longitude":"14.23075","population":44791},{"name":"Zola Predosa","slug":"zola predosa","region":"05","country":"IT","latitude":"44.48967","longitude":"11.21831","population":15965}]