[{"name":"Anak","slug":"anak","region":"07","country":"KP","latitude":"38.51083","longitude":"125.49417","population":19995},{"name":"Anby\u014fn-\u016dp","slug":"anbyon-up","region":"09","country":"KP","latitude":"39.0425","longitude":"127.52389","population":31845},{"name":"Anju","slug":"anju","region":"15","country":"KP","latitude":"39.61778","longitude":"125.66472","population":50196},{"name":"Aoji-ri","slug":"aoji-ri","region":"17","country":"KP","latitude":"42.52182","longitude":"130.39572","population":34248},{"name":"Ayang-ni","slug":"ayang-ni","region":"06","country":"KP","latitude":"38.24719","longitude":"125.79476","population":16104},{"name":"Chaery\u014fng-ni","slug":"chaeryong-ni","region":"15","country":"KP","latitude":"38.73583","longitude":"125.23083","population":125631},{"name":"Chaery\u014fng-\u016dp","slug":"chaeryong-up","region":"06","country":"KP","latitude":"38.39917","longitude":"125.61556","population":53330},{"name":"Changam-ch\u2019on","slug":"changam-ch'on","region":"03","country":"KP","latitude":"40.60611","longitude":"128.78194","population":207299},{"name":"Changy\u014fn","slug":"changyon","region":"06","country":"KP","latitude":"38.25083","longitude":"125.09611","population":39368},{"name":"Chongjin","slug":"chongjin","region":"17","country":"KP","latitude":"41.79556","longitude":"129.77583","population":327000},{"name":"Chunggang","slug":"chunggang","region":"01","country":"KP","latitude":"41.77722","longitude":"126.87361","population":41022},{"name":"Chunghwa","slug":"chunghwa","region":"12","country":"KP","latitude":"38.86389","longitude":"125.8","population":19346},{"name":"Ch\u014fngju","slug":"chongju","region":"11","country":"KP","latitude":"39.69333","longitude":"125.21028","population":29065},{"name":"Ch\u2019\u014fngdan-\u016dp","slug":"ch'ongdan-up","region":"06","country":"KP","latitude":"37.97028","longitude":"125.9375","population":142607},{"name":"Ch\u2019\u014fsal-li","slug":"ch'osal-li","region":"15","country":"KP","latitude":"39.40333","longitude":"125.50889","population":43614},{"name":"Haeju","slug":"haeju","region":"06","country":"KP","latitude":"38.04056","longitude":"125.71472","population":222396},{"name":"Hamh\u016dng","slug":"hamhung","region":"03","country":"KP","latitude":"39.91833","longitude":"127.53639","population":559056},{"name":"Hoery\u014fng","slug":"hoeryong","region":"17","country":"KP","latitude":"42.44113","longitude":"129.74601","population":43831},{"name":"Hoeyang","slug":"hoeyang","region":"09","country":"KP","latitude":"38.71028","longitude":"127.59833","population":21111},{"name":"Hongw\u014fn","slug":"hongwon","region":"03","country":"KP","latitude":"40.02528","longitude":"127.95583","population":70923},{"name":"Hwadae","slug":"hwadae","region":"17","country":"KP","latitude":"40.83806","longitude":"129.49694","population":67677},{"name":"Hwangju-\u016dp","slug":"hwangju-up","region":"07","country":"KP","latitude":"38.67028","longitude":"125.77611","population":35641},{"name":"Hwas\u014fng","slug":"hwasong","region":"17","country":"KP","latitude":"41.25556","longitude":"129.49278","population":99557},{"name":"Hyesan","slug":"hyesan","region":"13","country":"KP","latitude":"41.40167","longitude":"128.17778","population":192680},{"name":"Hyesan-dong","slug":"hyesan-dong","region":"13","country":"KP","latitude":"41.3953","longitude":"128.18727","population":97794},{"name":"H\u016dkkyo-ri","slug":"hukkyo-ri","region":"07","country":"KP","latitude":"38.79861","longitude":"125.79194","population":25437},{"name":"H\u016dngnam","slug":"hungnam","region":"03","country":"KP","latitude":"39.84198","longitude":"127.63206","population":346082},{"name":"Iw\u014fn-\u016dp","slug":"iwon-up","region":"03","country":"KP","latitude":"40.32306","longitude":"128.65528","population":26364},{"name":"Kaech\u2019\u014fn","slug":"kaech'on","region":"15","country":"KP","latitude":"39.70056","longitude":"125.89333","population":319554},{"name":"Kaes\u014fng","slug":"kaesong","region":"19","country":"KP","latitude":"37.97083","longitude":"126.55444","population":338155},{"name":"Kangdong-\u016dp","slug":"kangdong-up","region":"12","country":"KP","latitude":"39.1425","longitude":"126.09611","population":28922},{"name":"Kanggye","slug":"kanggye","region":"01","country":"KP","latitude":"40.96946","longitude":"126.58523","population":209530},{"name":"Kangny\u014fng","slug":"kangnyong","region":"06","country":"KP","latitude":"37.9075","longitude":"125.51","population":106827},{"name":"Kangs\u014fn","slug":"kangson","region":"15","country":"KP","latitude":"38.93639","longitude":"125.58111","population":102436},{"name":"Kapsan-\u016dp","slug":"kapsan-up","region":"13","country":"KP","latitude":"41.09028","longitude":"128.29333","population":20406},{"name":"Kilju","slug":"kilju","region":"17","country":"KP","latitude":"40.96417","longitude":"129.32778","population":63652},{"name":"Kop\u2019ung","slug":"kop'ung","region":"01","country":"KP","latitude":"40.60389","longitude":"125.94667","population":31572},{"name":"Kosan","slug":"kosan","region":"09","country":"KP","latitude":"38.85583","longitude":"127.41806","population":24822},{"name":"Kow\u014fn-\u016dp","slug":"kowon-up","region":"03","country":"KP","latitude":"39.43806","longitude":"127.24306","population":21490},{"name":"Kujang-\u016dp","slug":"kujang-up","region":"11","country":"KP","latitude":"39.86722","longitude":"126.03028","population":19522},{"name":"Kus\u014fng-si","slug":"kusong-si","region":"11","country":"KP","latitude":"39.97969","longitude":"125.2529","population":30902},{"name":"Kwail-\u016dp","slug":"kwail-up","region":"06","country":"KP","latitude":"38.44611","longitude":"125.01861","population":89895},{"name":"Ky\u014fngs\u014fng","slug":"kyongsong","region":"17","country":"KP","latitude":"41.58778","longitude":"129.60611","population":35604},{"name":"Manp\u2019o","slug":"manp'o","region":"01","country":"KP","latitude":"41.15472","longitude":"126.28944","population":116760},{"name":"Man\u2019gy\u014fngdae-ri","slug":"man'gyongdae-ri","region":"12","country":"KP","latitude":"38.99182","longitude":"125.65871","population":321690},{"name":"Musan-\u016dp","slug":"musan-up","region":"17","country":"KP","latitude":"42.22609","longitude":"129.20776","population":21739},{"name":"My\u014fngch\u2019\u014fn","slug":"myongch'on","region":"17","country":"KP","latitude":"41.07056","longitude":"129.42917","population":65797},{"name":"My\u014fnggan-dong","slug":"myonggan-dong","region":"17","country":"KP","latitude":"41.13722","longitude":"129.49472","population":99557},{"name":"Namp\u2019o","slug":"namp'o","region":"14","country":"KP","latitude":"38.7375","longitude":"125.40778","population":455000},{"name":"Namyang","slug":"namyang","region":"17","country":"KP","latitude":"42.95044","longitude":"129.85571","population":22218},{"name":"Namyang-nodongjagu","slug":"namyang-nodongjagu","region":"17","country":"KP","latitude":"42.95389","longitude":"129.85722","population":65956},{"name":"Ongjin","slug":"ongjin","region":"06","country":"KP","latitude":"37.93472","longitude":"125.36194","population":64247},{"name":"Ons\u014fng","slug":"onsong","region":"17","country":"KP","latitude":"42.95722","longitude":"129.99333","population":19806},{"name":"Paech\u2019\u014fn-\u016dp","slug":"paech'on-up","region":"06","country":"KP","latitude":"37.99306","longitude":"126.30139","population":159825},{"name":"Paek'ak","slug":"paek'ak","region":"15","country":"KP","latitude":"39.46275","longitude":"125.60594","population":125924},{"name":"Pongch\u2019\u014fn-\u016dp","slug":"pongch'on-up","region":"06","country":"KP","latitude":"38.12389","longitude":"126.20472","population":79740},{"name":"Pury\u014fng-\u016dp","slug":"puryong-up","region":"17","country":"KP","latitude":"42.06224","longitude":"129.70457","population":48958},{"name":"Pyongyang","slug":"pyongyang","region":"12","country":"KP","latitude":"39.03385","longitude":"125.75432","population":3222000},{"name":"P\u2019y\u014fngs\u014fng","slug":"p'yongsong","region":"15","country":"KP","latitude":"39.24639","longitude":"125.87194","population":100000},{"name":"Rajin","slug":"rajin","region":"18","country":"KP","latitude":"42.25559","longitude":"130.28308","population":66224},{"name":"Ranam","slug":"ranam","region":"17","country":"KP","latitude":"41.71361","longitude":"129.68444","population":34055},{"name":"Sakchu-\u016dp","slug":"sakchu-up","region":"11","country":"KP","latitude":"40.38944","longitude":"125.04667","population":18001},{"name":"Samch\u2019\u014fn","slug":"samch'on","region":"06","country":"KP","latitude":"38.35944","longitude":"125.32586","population":86042},{"name":"Samho-rodongjagu","slug":"samho-rodongjagu","region":"03","country":"KP","latitude":"39.9475","longitude":"127.87111","population":19025},{"name":"Samjiy\u014fn-\u016dp","slug":"samjiyon-up","region":"13","country":"KP","latitude":"41.80356","longitude":"128.31886","population":31471},{"name":"Sariw\u014fn-si","slug":"sariwon-si","region":"07","country":"KP","latitude":"38.50722","longitude":"125.75583","population":310100},{"name":"Sijung","slug":"sijung","region":"01","country":"KP","latitude":"41.07889","longitude":"126.375","population":41842},{"name":"Sil-li","slug":"sil-li","region":"15","country":"KP","latitude":"39.49472","longitude":"125.47361","population":19463},{"name":"Sinanju","slug":"sinanju","region":"15","country":"KP","latitude":"39.59806","longitude":"125.60972","population":15693},{"name":"Sinch\u2019\u014fn-\u016dp","slug":"sinch'on-up","region":"06","country":"KP","latitude":"38.35323","longitude":"125.48423","population":141407},{"name":"Sinmak","slug":"sinmak","region":"07","country":"KP","latitude":"38.41667","longitude":"126.23333","population":18669},{"name":"Sinp\u2019o","slug":"sinp'o","region":"03","country":"KP","latitude":"40.03971","longitude":"128.1943","population":152759},{"name":"Sinw\u014fn-\u016dp","slug":"sinwon-up","region":"06","country":"KP","latitude":"38.23532","longitude":"125.76244","population":83161},{"name":"Sin\u016diju","slug":"sinuiju","region":"11","country":"KP","latitude":"40.10056","longitude":"124.39806","population":288112},{"name":"Songhwa","slug":"songhwa","region":"06","country":"KP","latitude":"38.36028","longitude":"125.13722","population":44274},{"name":"Songnim-ni","slug":"songnim-ni","region":"07","country":"KP","latitude":"38.76349","longitude":"125.64096","population":152425},{"name":"Songw\u014fn","slug":"songwon","region":"01","country":"KP","latitude":"40.37704","longitude":"125.87867","population":38051},{"name":"Songw\u014fn-\u016dp","slug":"songwon-up","region":"01","country":"KP","latitude":"40.37278","longitude":"126.30833","population":38051},{"name":"Sunan","slug":"sunan","region":"12","country":"KP","latitude":"39.20323","longitude":"125.69312","population":36671},{"name":"Sunch\u2019\u014fn","slug":"sunch'on","region":"15","country":"KP","latitude":"39.43167","longitude":"125.93278","population":437000},{"name":"S\u014fnbong","slug":"sonbong","region":"18","country":"KP","latitude":"42.35118","longitude":"130.38307","population":27331},{"name":"S\u016dngho 1-tong","slug":"sungho 1-tong","region":"12","country":"KP","latitude":"38.99139","longitude":"125.97778","population":39841},{"name":"T\u014fkch\u2019\u014fn","slug":"tokch'on","region":"15","country":"KP","latitude":"39.75261","longitude":"126.25798","population":237133},{"name":"T\u2019aet\u2019an-\u016dp","slug":"t'aet'an-up","region":"06","country":"KP","latitude":"38.08822","longitude":"125.2983","population":64258},{"name":"T\u2019ongch\u2019\u014fn-\u016dp","slug":"t'ongch'on-up","region":"09","country":"KP","latitude":"38.95389","longitude":"127.89167","population":20575},{"name":"Uiju","slug":"uiju","region":"11","country":"KP","latitude":"40.19944","longitude":"124.53167","population":50081},{"name":"Unggi","slug":"unggi","region":"18","country":"KP","latitude":"42.34166","longitude":"130.41081","population":27331},{"name":"W\u014fnsan","slug":"wonsan","region":"09","country":"KP","latitude":"39.15278","longitude":"127.44361","population":329207},{"name":"Yuktae-dong","slug":"yuktae-dong","region":"03","country":"KP","latitude":"40.02472","longitude":"128.15972","population":76427},{"name":"Y\u014fch\u2019im-dong","slug":"yoch'im-dong","region":"01","country":"KP","latitude":"40.36174","longitude":"126.65852","population":47460},{"name":"Y\u014fnan-\u016dp","slug":"yonan-up","region":"06","country":"KP","latitude":"37.90889","longitude":"126.16111","population":22665},{"name":"Y\u014fnggwang-\u016dp","slug":"yonggwang-up","region":"03","country":"KP","latitude":"40.01833","longitude":"127.45472","population":21882},{"name":"Y\u014fnsa-\u016dp","slug":"yonsa-up","region":"17","country":"KP","latitude":"41.90806","longitude":"129.01111","population":37876},{"name":"\u014erang","slug":"orang","region":"17","country":"KP","latitude":"41.44778","longitude":"129.65556","population":87757},{"name":"\u016cllyul","slug":"ullyul","region":"06","country":"KP","latitude":"38.51389","longitude":"125.18972","population":107997},{"name":"\u016cnch\u2019\u014fn-\u016dp","slug":"unch'on-up","region":"06","country":"KP","latitude":"38.56556","longitude":"125.42722","population":95597},{"name":"\u016cnd\u014fk","slug":"undok","region":"17","country":"KP","latitude":"42.51878","longitude":"130.33479","population":89244}]