[{"name":"Abay","slug":"abay","region":"12","country":"KZ","latitude":"49.63539","longitude":"72.86523","population":35454},{"name":"Abay","slug":"abay","region":"10","country":"KZ","latitude":"41.34682","longitude":"68.9504","population":24047},{"name":"Akkol\u2019","slug":"akkol'","region":"03","country":"KZ","latitude":"53.29617","longitude":"69.59997","population":16773},{"name":"Aksu","slug":"aksu","region":"11","country":"KZ","latitude":"52.04023","longitude":"76.92748","population":44808},{"name":"Aksu","slug":"aksu","region":"10","country":"KZ","latitude":"42.42193","longitude":"69.82709","population":26115},{"name":"Aktau","slug":"aktau","region":"09","country":"KZ","latitude":"43.66105","longitude":"51.17392","population":147443},{"name":"Aktobe","slug":"aktobe","region":"04","country":"KZ","latitude":"50.27969","longitude":"57.20718","population":500757},{"name":"Almaty","slug":"almaty","region":"02","country":"KZ","latitude":"43.25249","longitude":"76.9115","population":1977011},{"name":"Altay","slug":"altay","region":"15","country":"KZ","latitude":"49.73626","longitude":"84.25416","population":44929},{"name":"Aqsay","slug":"aqsay","region":"07","country":"KZ","latitude":"51.1681","longitude":"52.99782","population":34799},{"name":"Aral","slug":"aral","region":"14","country":"KZ","latitude":"46.80174","longitude":"61.66312","population":33017},{"name":"Arkalyk","slug":"arkalyk","region":"13","country":"KZ","latitude":"50.25031","longitude":"66.90384","population":42000},{"name":"Arys","slug":"arys","region":"10","country":"KZ","latitude":"42.43015","longitude":"68.8087","population":36285},{"name":"Astana","slug":"astana","region":"05","country":"KZ","latitude":"51.1801","longitude":"71.44598","population":345604},{"name":"Atbasar","slug":"atbasar","region":"03","country":"KZ","latitude":"51.80854","longitude":"68.35823","population":34797},{"name":"Atyrau","slug":"atyrau","region":"06","country":"KZ","latitude":"47.1048","longitude":"51.88427","population":290700},{"name":"Ayagoz","slug":"ayagoz","region":"12510143","country":"KZ","latitude":"47.96447","longitude":"80.43437","population":33479},{"name":"Baikonur","slug":"baikonur","region":"08","country":"KZ","latitude":"45.61667","longitude":"63.31667","population":70000},{"name":"Balqash","slug":"balqash","region":"12","country":"KZ","latitude":"46.84546","longitude":"74.98213","population":81364},{"name":"Balykshi","slug":"balykshi","region":"06","country":"KZ","latitude":"47.06667","longitude":"51.86667","population":19260},{"name":"Burunday","slug":"burunday","region":"01","country":"KZ","latitude":"43.35567","longitude":"76.85477","population":20996},{"name":"Ekibastuz","slug":"ekibastuz","region":"11","country":"KZ","latitude":"51.72371","longitude":"75.32287","population":121470},{"name":"Embi","slug":"embi","region":"04","country":"KZ","latitude":"48.82981","longitude":"58.15042","population":18760},{"name":"Esik","slug":"esik","region":"01","country":"KZ","latitude":"43.3552","longitude":"77.45245","population":32995},{"name":"Kalbatau","slug":"kalbatau","region":"12510143","country":"KZ","latitude":"49.33009","longitude":"81.57275","population":22047},{"name":"Kandyagash","slug":"kandyagash","region":"04","country":"KZ","latitude":"49.46917","longitude":"57.41865","population":28196},{"name":"Karagandy","slug":"karagandy","region":"12","country":"KZ","latitude":"49.80187","longitude":"73.10211","population":497777},{"name":"Karatau","slug":"karatau","region":"17","country":"KZ","latitude":"43.17959","longitude":"70.4592","population":37881},{"name":"Kentau","slug":"kentau","region":"10","country":"KZ","latitude":"43.51672","longitude":"68.50463","population":57408},{"name":"Khromtau","slug":"khromtau","region":"04","country":"KZ","latitude":"50.25161","longitude":"58.43574","population":23715},{"name":"Kokshetau","slug":"kokshetau","region":"03","country":"KZ","latitude":"53.28414","longitude":"69.39364","population":150649},{"name":"Konayev","slug":"konayev","region":"01","country":"KZ","latitude":"43.86681","longitude":"77.06304","population":42167},{"name":"Kostanay","slug":"kostanay","region":"13","country":"KZ","latitude":"53.21435","longitude":"63.62463","population":210000},{"name":"Kyzylorda","slug":"kyzylorda","region":"14","country":"KZ","latitude":"44.85278","longitude":"65.50917","population":354800},{"name":"Lenger","slug":"lenger","region":"10","country":"KZ","latitude":"42.18152","longitude":"69.88582","population":21238},{"name":"Lisakovsk","slug":"lisakovsk","region":"13","country":"KZ","latitude":"52.54488","longitude":"62.49893","population":40000},{"name":"Makinsk","slug":"makinsk","region":"03","country":"KZ","latitude":"52.6329","longitude":"70.41911","population":17711},{"name":"Mangistau","slug":"mangistau","region":"09","country":"KZ","latitude":"43.69088","longitude":"51.32237","population":31368},{"name":"Maqanshy","slug":"maqanshy","region":"12510143","country":"KZ","latitude":"46.78166","longitude":"82.02258","population":18754},{"name":"Merke","slug":"merke","region":"17","country":"KZ","latitude":"42.87183","longitude":"73.19648","population":15934},{"name":"Novokazalinsk","slug":"novokazalinsk","region":"14","country":"KZ","latitude":"45.84806","longitude":"62.15254","population":35883},{"name":"Oral","slug":"oral","region":"07","country":"KZ","latitude":"51.24601","longitude":"51.42558","population":330000},{"name":"Otegen Batyra","slug":"otegen batyra","region":"01","country":"KZ","latitude":"43.41845","longitude":"77.02187","population":18864},{"name":"Pavlodar","slug":"pavlodar","region":"11","country":"KZ","latitude":"52.27601","longitude":"76.96881","population":329002},{"name":"Petropavl","slug":"petropavl","region":"16","country":"KZ","latitude":"54.87343","longitude":"69.15065","population":200920},{"name":"Qulsary","slug":"qulsary","region":"06","country":"KZ","latitude":"46.95307","longitude":"54.01978","population":51216},{"name":"Ridder","slug":"ridder","region":"15","country":"KZ","latitude":"50.34524","longitude":"83.51562","population":52664},{"name":"Rudnyy","slug":"rudnyy","region":"13","country":"KZ","latitude":"52.97244","longitude":"63.11055","population":124000},{"name":"Saran","slug":"saran","region":"12","country":"KZ","latitude":"49.80245","longitude":"72.83186","population":42552},{"name":"Sarqant","slug":"sarqant","region":"12510144","country":"KZ","latitude":"45.41322","longitude":"79.91713","population":76919},{"name":"Saryaghash","slug":"saryaghash","region":"10","country":"KZ","latitude":"41.46042","longitude":"69.16791","population":25139},{"name":"Sarykemer","slug":"sarykemer","region":"17","country":"KZ","latitude":"43.00929","longitude":"71.5101","population":15132},{"name":"Satpayev","slug":"satpayev","region":"12510145","country":"KZ","latitude":"47.90409","longitude":"67.54112","population":69782},{"name":"Semey","slug":"semey","region":"12510143","country":"KZ","latitude":"50.42064","longitude":"80.25025","population":292780},{"name":"Shakhtinsk","slug":"shakhtinsk","region":"12","country":"KZ","latitude":"49.70713","longitude":"72.59321","population":41602},{"name":"Shalkar","slug":"shalkar","region":"06","country":"KZ","latitude":"48.03333","longitude":"48.9","population":27072},{"name":"Shalqar","slug":"shalqar","region":"04","country":"KZ","latitude":"47.83154","longitude":"59.61926","population":27399},{"name":"Shardara","slug":"shardara","region":"10","country":"KZ","latitude":"41.25832","longitude":"67.96991","population":25356},{"name":"Shchuchinsk","slug":"shchuchinsk","region":"03","country":"KZ","latitude":"52.93592","longitude":"70.18895","population":47290},{"name":"Shemonaikha","slug":"shemonaikha","region":"15","country":"KZ","latitude":"50.62899","longitude":"81.91092","population":20087},{"name":"Shiyeli","slug":"shiyeli","region":"14","country":"KZ","latitude":"44.17057","longitude":"66.73376","population":29832},{"name":"Shu","slug":"shu","region":"17","country":"KZ","latitude":"43.60507","longitude":"73.76221","population":39785},{"name":"Shymkent","slug":"shymkent","region":"1537272","country":"KZ","latitude":"42.30988","longitude":"69.60042","population":1200000},{"name":"Stepnogorsk","slug":"stepnogorsk","region":"03","country":"KZ","latitude":"52.35062","longitude":"71.88161","population":46736},{"name":"Taldykorgan","slug":"taldykorgan","region":"12510144","country":"KZ","latitude":"45.01556","longitude":"78.37389","population":116558},{"name":"Talghar","slug":"talghar","region":"01","country":"KZ","latitude":"43.30235","longitude":"77.23811","population":42194},{"name":"Taraz","slug":"taraz","region":"17","country":"KZ","latitude":"42.89799","longitude":"71.37334","population":358153},{"name":"Tasbuget","slug":"tasbuget","region":"14","country":"KZ","latitude":"44.77018","longitude":"65.55461","population":16455},{"name":"Tekeli","slug":"tekeli","region":"12510144","country":"KZ","latitude":"44.8678","longitude":"78.72807","population":26678},{"name":"Temirtau","slug":"temirtau","region":"12","country":"KZ","latitude":"50.05197","longitude":"72.95497","population":170600},{"name":"Turar Ryskulov","slug":"turar ryskulov","region":"10","country":"KZ","latitude":"42.5334","longitude":"70.3496","population":18421},{"name":"Turkestan","slug":"turkestan","region":"10","country":"KZ","latitude":"43.29458","longitude":"68.25685","population":227098},{"name":"Ushtobe","slug":"ushtobe","region":"12510144","country":"KZ","latitude":"45.25258","longitude":"77.98284","population":20492},{"name":"Ust-Kamenogorsk","slug":"ust-kamenogorsk","region":"15","country":"KZ","latitude":"49.97143","longitude":"82.60586","population":319067},{"name":"Zaysan","slug":"zaysan","region":"15","country":"KZ","latitude":"47.46657","longitude":"84.87144","population":17600},{"name":"Zhanaozen","slug":"zhanaozen","region":"09","country":"KZ","latitude":"43.34116","longitude":"52.86192","population":103598},{"name":"Zhangaqorghan","slug":"zhangaqorghan","region":"14","country":"KZ","latitude":"43.90652","longitude":"67.24637","population":21339},{"name":"Zhangatas","slug":"zhangatas","region":"17","country":"KZ","latitude":"43.56274","longitude":"69.73209","population":33492},{"name":"Zharkent","slug":"zharkent","region":"12510144","country":"KZ","latitude":"44.16619","longitude":"80.00736","population":34422},{"name":"Zhetysay","slug":"zhetysay","region":"10","country":"KZ","latitude":"40.77631","longitude":"68.32774","population":36494},{"name":"Zhezqazghan","slug":"zhezqazghan","region":"12510145","country":"KZ","latitude":"47.79411","longitude":"67.70628","population":104357},{"name":"Zhitikara","slug":"zhitikara","region":"13","country":"KZ","latitude":"52.19019","longitude":"61.19894","population":43104},{"name":"Zhosaly","slug":"zhosaly","region":"14","country":"KZ","latitude":"45.48778","longitude":"64.07806","population":20065}]