[{"name":"Butha-Buthe","slug":"butha-buthe","region":"11","country":"LS","latitude":"-28.76659","longitude":"28.24937","population":40599},{"name":"Hlotse","slug":"hlotse","region":"12","country":"LS","latitude":"-28.87185","longitude":"28.04501","population":43967},{"name":"Mabote","slug":"mabote","region":"10","country":"LS","latitude":"-29.27861","longitude":"27.52417","population":38047},{"name":"Mafeteng","slug":"mafeteng","region":"13","country":"LS","latitude":"-29.82299","longitude":"27.23744","population":45287},{"name":"Maputsoe","slug":"maputsoe","region":"12","country":"LS","latitude":"-28.8866","longitude":"27.89915","population":61916},{"name":"Maseru","slug":"maseru","region":"14","country":"LS","latitude":"-29.31667","longitude":"27.48333","population":359753},{"name":"Mohale's Hoek","slug":"mohale's hoek","region":"15","country":"LS","latitude":"-30.15137","longitude":"27.47691","population":46593},{"name":"Qacha\u2019s Nek","slug":"qacha's nek","region":"17","country":"LS","latitude":"-30.11537","longitude":"28.68936","population":25573},{"name":"Quthing","slug":"quthing","region":"18","country":"LS","latitude":"-30.40001","longitude":"27.70027","population":33910},{"name":"Teyateyaneng","slug":"teyateyaneng","region":"10","country":"LS","latitude":"-29.14719","longitude":"27.74895","population":27272},{"name":"Thaba-Tseka","slug":"thaba-tseka","region":"19","country":"LS","latitude":"-29.52204","longitude":"28.6084","population":16765}]