[{"name":"Ad Darwa","slug":"ad darwa","region":"06","country":"MA","latitude":"33.37487","longitude":"-7.5356","population":52108},{"name":"Agadir","slug":"agadir","region":"09","country":"MA","latitude":"30.42018","longitude":"-9.59815","population":698310},{"name":"Agoura\u00ef","slug":"agourai","region":"03","country":"MA","latitude":"33.63","longitude":"-5.58","population":18182},{"name":"Aguelmous","slug":"aguelmous","region":"05","country":"MA","latitude":"33.16139","longitude":"-5.84626","population":15480},{"name":"Ahfir","slug":"ahfir","region":"02","country":"MA","latitude":"34.95368","longitude":"-2.10027","population":21435},{"name":"Ain El Aouda","slug":"ain el aouda","region":"04","country":"MA","latitude":"33.80333","longitude":"-6.79461","population":54397},{"name":"Ait Melloul","slug":"ait melloul","region":"09","country":"MA","latitude":"30.34164","longitude":"-9.50356","population":187652},{"name":"Ait Ourir","slug":"ait ourir","region":"07","country":"MA","latitude":"31.56517","longitude":"-7.66163","population":42705},{"name":"Ait Yazza","slug":"ait yazza","region":"09","country":"MA","latitude":"30.50188","longitude":"-8.79917","population":15570},{"name":"Al Aaroui","slug":"al aaroui","region":"02","country":"MA","latitude":"35.0109","longitude":"-3.00938","population":51976},{"name":"Al Brouj","slug":"al brouj","region":"06","country":"MA","latitude":"32.50467","longitude":"-7.19238","population":21004},{"name":"Al Fqih Ben \u00c7alah","slug":"al fqih ben calah","region":"05","country":"MA","latitude":"32.50213","longitude":"-6.68771","population":111402},{"name":"Al Hoce\u00efma","slug":"al hoceima","region":"01","country":"MA","latitude":"35.25165","longitude":"-3.93723","population":395644},{"name":"Amizmiz","slug":"amizmiz","region":"07","country":"MA","latitude":"31.21673","longitude":"-8.23184","population":15685},{"name":"Aoulouz","slug":"aoulouz","region":"09","country":"MA","latitude":"30.67307","longitude":"-8.18087","population":19010},{"name":"Aourir","slug":"aourir","region":"09","country":"MA","latitude":"30.49238","longitude":"-9.6355","population":38617},{"name":"Arfoud","slug":"arfoud","region":"08","country":"MA","latitude":"31.4353","longitude":"-4.23258","population":31971},{"name":"Asilah","slug":"asilah","region":"01","country":"MA","latitude":"35.46522","longitude":"-6.03415","population":34011},{"name":"Asni","slug":"asni","region":"07","country":"MA","latitude":"31.24653","longitude":"-7.9789","population":18674},{"name":"Assa","slug":"assa","region":"10","country":"MA","latitude":"28.60986","longitude":"-9.42986","population":15910},{"name":"Azemmour","slug":"azemmour","region":"06","country":"MA","latitude":"33.28952","longitude":"-8.3425","population":44683},{"name":"Azilal","slug":"azilal","region":"05","country":"MA","latitude":"31.96156","longitude":"-6.57109","population":42062},{"name":"Azrou","slug":"azrou","region":"03","country":"MA","latitude":"33.43443","longitude":"-5.22126","population":59348},{"name":"A\u00efn Attig","slug":"ain attig","region":"04","country":"MA","latitude":"33.88758","longitude":"-6.96807","population":27384},{"name":"A\u00efn Beni Mathar","slug":"ain beni mathar","region":"02","country":"MA","latitude":"34.0097","longitude":"-2.03238","population":17787},{"name":"A\u00efn Harrouda","slug":"ain harrouda","region":"06","country":"MA","latitude":"33.63737","longitude":"-7.44971","population":68161},{"name":"A\u00efn Taoujdat","slug":"ain taoujdat","region":"03","country":"MA","latitude":"33.93575","longitude":"-5.21328","population":30889},{"name":"Beja\u00e2d","slug":"bejaad","region":"05","country":"MA","latitude":"32.77133","longitude":"-6.39231","population":51206},{"name":"Ben Ahmed","slug":"ben ahmed","region":"06","country":"MA","latitude":"33.06635","longitude":"-7.24161","population":36149},{"name":"Ben Guerir","slug":"ben guerir","region":"07","country":"MA","latitude":"32.24088","longitude":"-7.95397","population":96777},{"name":"Ben Jerrar","slug":"ben jerrar","region":"09","country":"MA","latitude":"30.26224","longitude":"-9.50377","population":53026},{"name":"Ben Taieb","slug":"ben taieb","region":"02","country":"MA","latitude":"35.04427","longitude":"-3.45418","population":15568},{"name":"Beni Enzar","slug":"beni enzar","region":"02","country":"MA","latitude":"35.26","longitude":"-2.93","population":61786},{"name":"Beni Mellal","slug":"beni mellal","region":"05","country":"MA","latitude":"32.33725","longitude":"-6.34983","population":210397},{"name":"Beni Yakhlef","slug":"beni yakhlef","region":"06","country":"MA","latitude":"33.68407","longitude":"-7.33924","population":19622},{"name":"Benslimane","slug":"benslimane","region":"06","country":"MA","latitude":"33.61601","longitude":"-7.12153","population":62352},{"name":"Berkane","slug":"berkane","region":"02","country":"MA","latitude":"34.92","longitude":"-2.32","population":119284},{"name":"Berrechid","slug":"berrechid","region":"06","country":"MA","latitude":"33.26553","longitude":"-7.58754","population":149201},{"name":"Bir Jdid","slug":"bir jdid","region":"06","country":"MA","latitude":"33.37362","longitude":"-7.99462","population":26355},{"name":"Bni Bouayach","slug":"bni bouayach","region":"01","country":"MA","latitude":"35.10506","longitude":"-3.84028","population":19951},{"name":"Bou Izakarn","slug":"bou izakarn","region":"10","country":"MA","latitude":"29.17705","longitude":"-9.71181","population":15536},{"name":"Bouarfa","slug":"bouarfa","region":"02","country":"MA","latitude":"32.53379","longitude":"-1.96209","population":31499},{"name":"Boujniba","slug":"boujniba","region":"05","country":"MA","latitude":"32.90046","longitude":"-6.77464","population":17504},{"name":"Bouknadel","slug":"bouknadel","region":"04","country":"MA","latitude":"34.11849","longitude":"-6.7389","population":27577},{"name":"Boumia","slug":"boumia","region":"05","country":"MA","latitude":"32.7236","longitude":"-5.1025","population":17091},{"name":"Bouskoura","slug":"bouskoura","region":"06","country":"MA","latitude":"33.44976","longitude":"-7.65239","population":112501},{"name":"Bouznika","slug":"bouznika","region":"06","country":"MA","latitude":"33.78942","longitude":"-7.15968","population":40663},{"name":"Casablanca","slug":"casablanca","region":"06","country":"MA","latitude":"33.58831","longitude":"-7.61138","population":3665954},{"name":"Chefchaouen","slug":"chefchaouen","region":"01","country":"MA","latitude":"35.16878","longitude":"-5.2636","population":46721},{"name":"Chichaoua","slug":"chichaoua","region":"07","country":"MA","latitude":"31.54351","longitude":"-8.76275","population":30432},{"name":"Dakhla","slug":"dakhla","region":"09","country":"MA","latitude":"30.41145","longitude":"-9.55344","population":55618},{"name":"Dar Bouazza","slug":"dar bouazza","region":"06","country":"MA","latitude":"33.51535","longitude":"-7.81677","population":165295},{"name":"Dchira El Jihadia","slug":"dchira el jihadia","region":"09","country":"MA","latitude":"30.37345","longitude":"-9.54761","population":109564},{"name":"Demnate","slug":"demnate","region":"05","country":"MA","latitude":"31.73443","longitude":"-7.00505","population":32217},{"name":"Douar Toulal","slug":"douar toulal","region":"03","country":"MA","latitude":"33.88483","longitude":"-5.59664","population":20831},{"name":"Driouch","slug":"driouch","region":"02","country":"MA","latitude":"34.97705","longitude":"-3.37902","population":16096},{"name":"Echemmaia Est","slug":"echemmaia est","region":"07","country":"MA","latitude":"32.08102","longitude":"-8.62458","population":26538},{"name":"El A\u00efoun","slug":"el aioun","region":"02","country":"MA","latitude":"34.58319","longitude":"-2.50612","population":45679},{"name":"El Gara","slug":"el gara","region":"06","country":"MA","latitude":"33.27732","longitude":"-7.23236","population":22773},{"name":"El Hajeb","slug":"el hajeb","region":"03","country":"MA","latitude":"33.68786","longitude":"-5.371","population":38527},{"name":"El Harhoura","slug":"el harhoura","region":"04","country":"MA","latitude":"33.94483","longitude":"-6.93106","population":16773},{"name":"El Jadida","slug":"el jadida","region":"06","country":"MA","latitude":"33.25682","longitude":"-8.50882","population":212863},{"name":"El Kelaa des Srarhna","slug":"el kelaa des srarhna","region":"07","country":"MA","latitude":"32.05121","longitude":"-7.41079","population":103982},{"name":"El Ksiba","slug":"el ksiba","region":"05","country":"MA","latitude":"32.57286","longitude":"-6.01947","population":21840},{"name":"El Mansouria","slug":"el mansouria","region":"06","country":"MA","latitude":"33.74643","longitude":"-7.30194","population":21679},{"name":"Errachidia","slug":"errachidia","region":"08","country":"MA","latitude":"31.9314","longitude":"-4.42663","population":100870},{"name":"Essaouira","slug":"essaouira","region":"07","country":"MA","latitude":"31.5125","longitude":"-9.77","population":85137},{"name":"Fes","slug":"fes","region":"03","country":"MA","latitude":"34.03313","longitude":"-5.00028","population":1191905},{"name":"Fnidek","slug":"fnidek","region":"01","country":"MA","latitude":"35.84906","longitude":"-5.35747","population":84558},{"name":"F\u00e8s al Bali","slug":"fes al bali","region":"03","country":"MA","latitude":"34.0701","longitude":"-4.95473","population":156000},{"name":"Goulmima","slug":"goulmima","region":"08","country":"MA","latitude":"31.69227","longitude":"-4.95256","population":17929},{"name":"Guelmim","slug":"guelmim","region":"10","country":"MA","latitude":"28.98696","longitude":"-10.05738","population":129200},{"name":"Guercif","slug":"guercif","region":"03","country":"MA","latitude":"34.22568","longitude":"-3.35361","population":99238},{"name":"Gueznaia","slug":"gueznaia","region":"01","country":"MA","latitude":"35.70211","longitude":"-5.89044","population":25771},{"name":"Had Soualem","slug":"had soualem","region":"06","country":"MA","latitude":"33.41972","longitude":"-7.85237","population":40146},{"name":"Ifrane","slug":"ifrane","region":"03","country":"MA","latitude":"33.52666","longitude":"-5.11019","population":73782},{"name":"Imi-n-Tanout","slug":"imi-n-tanout","region":"07","country":"MA","latitude":"31.17213","longitude":"-8.84728","population":22753},{"name":"Imouzzer Kandar","slug":"imouzzer kandar","region":"03","country":"MA","latitude":"33.72871","longitude":"-5.01092","population":20884},{"name":"Imzouren","slug":"imzouren","region":"01","country":"MA","latitude":"35.14637","longitude":"-3.85063","population":40000},{"name":"Inezgane","slug":"inezgane","region":"09","country":"MA","latitude":"30.35535","longitude":"-9.53639","population":142320},{"name":"Jerada","slug":"jerada","region":"02","country":"MA","latitude":"34.31","longitude":"-2.16","population":47507},{"name":"Karia Ba Mohamed","slug":"karia ba mohamed","region":"03","country":"MA","latitude":"34.37094","longitude":"-5.2138","population":20487},{"name":"Kasba Tadla","slug":"kasba tadla","region":"05","country":"MA","latitude":"32.5977","longitude":"-6.26844","population":51697},{"name":"Kelaat Mgouna","slug":"kelaat mgouna","region":"08","country":"MA","latitude":"31.24573","longitude":"-6.1326","population":18515},{"name":"Kenitra","slug":"kenitra","region":"04","country":"MA","latitude":"34.26101","longitude":"-6.5802","population":470949},{"name":"Khemisset","slug":"khemisset","region":"04","country":"MA","latitude":"33.82404","longitude":"-6.06627","population":143640},{"name":"Khenifra","slug":"khenifra","region":"05","country":"MA","latitude":"32.93492","longitude":"-5.66167","population":128318},{"name":"Khouribga","slug":"khouribga","region":"05","country":"MA","latitude":"32.88108","longitude":"-6.9063","population":214241},{"name":"Ksar El Kebir","slug":"ksar el kebir","region":"01","country":"MA","latitude":"35.00044","longitude":"-5.90378","population":138262},{"name":"Lahraouyine","slug":"lahraouyine","region":"06","country":"MA","latitude":"33.54138","longitude":"-7.52848","population":70783},{"name":"Lalla Mimouna","slug":"lalla mimouna","region":"04","country":"MA","latitude":"34.84606","longitude":"-6.06645","population":17217},{"name":"Larache","slug":"larache","region":"01","country":"MA","latitude":"35.19321","longitude":"-6.15572","population":136505},{"name":"La\u00e2ttaouia","slug":"laattaouia","region":"07","country":"MA","latitude":"31.83532","longitude":"-7.31431","population":33103},{"name":"Lqoliaa","slug":"lqoliaa","region":"09","country":"MA","latitude":"30.29759","longitude":"-9.46597","population":90890},{"name":"Marrakesh","slug":"marrakesh","region":"07","country":"MA","latitude":"31.63416","longitude":"-7.99994","population":995871},{"name":"Martil","slug":"martil","region":"01","country":"MA","latitude":"35.61662","longitude":"-5.27522","population":70274},{"name":"Mdiq","slug":"mdiq","region":"01","country":"MA","latitude":"35.68313","longitude":"-5.32871","population":61398},{"name":"Mechraa Bel Ksiri","slug":"mechraa bel ksiri","region":"04","country":"MA","latitude":"34.57373","longitude":"-5.95585","population":34393},{"name":"Mediouna","slug":"mediouna","region":"06","country":"MA","latitude":"33.45161","longitude":"-7.51995","population":24506},{"name":"Mehdya","slug":"mehdya","region":"04","country":"MA","latitude":"34.25596","longitude":"-6.67345","population":31269},{"name":"Meknes","slug":"meknes","region":"03","country":"MA","latitude":"33.89352","longitude":"-5.54727","population":568295},{"name":"Mers El Kheir","slug":"mers el kheir","region":"04","country":"MA","latitude":"33.86262","longitude":"-6.92964","population":17352},{"name":"Midar","slug":"midar","region":"02","country":"MA","latitude":"34.94025","longitude":"-3.53311","population":16402},{"name":"Midelt","slug":"midelt","region":"05","country":"MA","latitude":"32.6852","longitude":"-4.74512","population":60390},{"name":"Missour","slug":"missour","region":"03","country":"MA","latitude":"33.04893","longitude":"-3.98947","population":27937},{"name":"Mohammedia","slug":"mohammedia","region":"06","country":"MA","latitude":"33.68607","longitude":"-7.38298","population":227799},{"name":"Moulay Ali Cherif","slug":"moulay ali cherif","region":"08","country":"MA","latitude":"31.28244","longitude":"-4.26541","population":24251},{"name":"Mrirt","slug":"mrirt","region":"05","country":"MA","latitude":"33.16427","longitude":"-5.56722","population":46660},{"name":"My Drarga","slug":"my drarga","region":"09","country":"MA","latitude":"30.37733","longitude":"-9.47342","population":55631},{"name":"M\u00e9chouar-Kasba","slug":"mechouar-kasba","region":"07","country":"MA","latitude":"31.6008","longitude":"-7.98653","population":18410},{"name":"Nador","slug":"nador","region":"02","country":"MA","latitude":"35.16813","longitude":"-2.93352","population":176600},{"name":"New Fes","slug":"new fes","region":"03","country":"MA","latitude":"34.05466","longitude":"-5.00725","population":22451},{"name":"Oadar Temsia","slug":"oadar temsia","region":"09","country":"MA","latitude":"30.36531","longitude":"-9.41044","population":30526},{"name":"Ouarzazate","slug":"ouarzazate","region":"08","country":"MA","latitude":"30.91894","longitude":"-6.89341","population":77603},{"name":"Oued Zem","slug":"oued zem","region":"05","country":"MA","latitude":"32.8627","longitude":"-6.57359","population":104029},{"name":"Ouezzane","slug":"ouezzane","region":"01","country":"MA","latitude":"34.79584","longitude":"-5.57849","population":65088},{"name":"Ouislane","slug":"ouislane","region":"03","country":"MA","latitude":"33.91406","longitude":"-5.48969","population":95995},{"name":"Oujda","slug":"oujda","region":"02","country":"MA","latitude":"34.68139","longitude":"-1.90858","population":539711},{"name":"Oulad Ayad","slug":"oulad ayad","region":"05","country":"MA","latitude":"32.2","longitude":"-6.8","population":26008},{"name":"Oulad Barhil","slug":"oulad barhil","region":"09","country":"MA","latitude":"30.64042","longitude":"-8.46875","population":26521},{"name":"Oulad Tayeb","slug":"oulad tayeb","region":"03","country":"MA","latitude":"33.94633","longitude":"-4.99509","population":15491},{"name":"Oulad Te\u00efma","slug":"oulad teima","region":"09","country":"MA","latitude":"30.39467","longitude":"-9.20897","population":97608},{"name":"Oulmes","slug":"oulmes","region":"04","country":"MA","latitude":"33.42585","longitude":"-6.00137","population":19014},{"name":"Outat Oulad Al Haj","slug":"outat oulad al haj","region":"03","country":"MA","latitude":"33.34499","longitude":"-3.70387","population":17895},{"name":"Rabat","slug":"rabat","region":"04","country":"MA","latitude":"34.01325","longitude":"-6.83255","population":1655753},{"name":"Ras el Ma","slug":"ras el ma","region":"03","country":"MA","latitude":"33.97399","longitude":"-5.09613","population":22345},{"name":"Re\u00e7ani","slug":"recani","region":"08","country":"MA","latitude":"31.28318","longitude":"-4.26565","population":20469},{"name":"Ribat Al Khayr","slug":"ribat al khayr","region":"03","country":"MA","latitude":"33.81518","longitude":"-4.40717","population":18278},{"name":"Rich","slug":"rich","region":"08","country":"MA","latitude":"32.25644","longitude":"-4.50152","population":28382},{"name":"Sabaa Aiyoun","slug":"sabaa aiyoun","region":"03","country":"MA","latitude":"33.90331","longitude":"-5.36868","population":28693},{"name":"Safi","slug":"safi","region":"07","country":"MA","latitude":"32.29939","longitude":"-9.23718","population":336883},{"name":"Sal\u00e9","slug":"sale","region":"04","country":"MA","latitude":"34.0531","longitude":"-6.79846","population":972299},{"name":"Sal\u00e9 Al Jadida","slug":"sale al jadida","region":"04","country":"MA","latitude":"33.99722","longitude":"-6.74047","population":200000},{"name":"Sebt Gzoula","slug":"sebt gzoula","region":"07","country":"MA","latitude":"32.10779","longitude":"-9.08366","population":20248},{"name":"Sefrou","slug":"sefrou","region":"03","country":"MA","latitude":"33.83186","longitude":"-4.828","population":87234},{"name":"Selouane","slug":"selouane","region":"02","country":"MA","latitude":"35.07313","longitude":"-2.9423","population":23553},{"name":"Settat","slug":"settat","region":"06","country":"MA","latitude":"33.00103","longitude":"-7.61662","population":155333},{"name":"Setti Fatma","slug":"setti fatma","region":"07","country":"MA","latitude":"31.22508","longitude":"-7.67751","population":22283},{"name":"Sidi Allal El Bahraoui","slug":"sidi allal el bahraoui","region":"04","country":"MA","latitude":"34.0077","longitude":"-6.53082","population":17325},{"name":"Sidi Bennour","slug":"sidi bennour","region":"06","country":"MA","latitude":"32.65236","longitude":"-8.42769","population":60948},{"name":"Sidi Ifni","slug":"sidi ifni","region":"09","country":"MA","latitude":"29.37975","longitude":"-10.17299","population":23606},{"name":"Sidi Kacem","slug":"sidi kacem","region":"04","country":"MA","latitude":"34.22149","longitude":"-5.70775","population":82632},{"name":"Sidi Rahal","slug":"sidi rahal","region":"06","country":"MA","latitude":"33.47739","longitude":"-7.93641","population":22525},{"name":"Sidi Slimane","slug":"sidi slimane","region":"04","country":"MA","latitude":"34.26479","longitude":"-5.92598","population":101541},{"name":"Sidi Slimane Echcharaa","slug":"sidi slimane echcharaa","region":"02","country":"MA","latitude":"34.90818","longitude":"-2.35055","population":32979},{"name":"Sidi Taibi","slug":"sidi taibi","region":"04","country":"MA","latitude":"34.18698","longitude":"-6.68176","population":51050},{"name":"Sidi Yahia El Gharb","slug":"sidi yahia el gharb","region":"04","country":"MA","latitude":"34.30494","longitude":"-6.30404","population":41472},{"name":"Skhirate","slug":"skhirate","region":"04","country":"MA","latitude":"33.8527","longitude":"-7.03171","population":65272},{"name":"Smara","slug":"smara","region":"11","country":"MA","latitude":"26.73841","longitude":"-11.67194","population":42056},{"name":"Souk El Arbaa","slug":"souk el arbaa","region":"04","country":"MA","latitude":"34.68473","longitude":"-6.00344","population":75635},{"name":"Souk et Tnine Jorf el Mellah","slug":"souk et tnine jorf el mellah","region":"04","country":"MA","latitude":"34.49162","longitude":"-5.50846","population":31318},{"name":"Souq Larb\u2019a al Gharb","slug":"souq larb'a al gharb","region":"04","country":"MA","latitude":"34.68664","longitude":"-6.00272","population":44059},{"name":"Souq Sebt Oulad Nemma","slug":"souq sebt oulad nemma","region":"05","country":"MA","latitude":"32.2973","longitude":"-6.70301","population":65601},{"name":"Tabount","slug":"tabount","region":"08","country":"MA","latitude":"30.90321","longitude":"-6.91579","population":33929},{"name":"Tahla","slug":"tahla","region":"03","country":"MA","latitude":"34.04965","longitude":"-4.42162","population":30279},{"name":"Tamallalt","slug":"tamallalt","region":"07","country":"MA","latitude":"31.81897","longitude":"-7.51446","population":18060},{"name":"Tamansourt","slug":"tamansourt","region":"07","country":"MA","latitude":"31.755","longitude":"-8.11","population":27383},{"name":"Tamesna","slug":"tamesna","region":"04","country":"MA","latitude":"33.81809","longitude":"-6.91658","population":30705},{"name":"Tan-Tan","slug":"tan-tan","region":"10","country":"MA","latitude":"28.43799","longitude":"-11.10321","population":79942},{"name":"Tangier","slug":"tangier","region":"01","country":"MA","latitude":"35.76727","longitude":"-5.79975","population":1035141},{"name":"Taounate","slug":"taounate","region":"03","country":"MA","latitude":"34.53661","longitude":"-4.64009","population":41075},{"name":"Taourirt","slug":"taourirt","region":"02","country":"MA","latitude":"34.40731","longitude":"-2.89732","population":112908},{"name":"Taroudant","slug":"taroudant","region":"09","country":"MA","latitude":"30.47028","longitude":"-8.87695","population":87520},{"name":"Tata","slug":"tata","region":"09","country":"MA","latitude":"29.74409","longitude":"-7.973","population":20322},{"name":"Taza","slug":"taza","region":"03","country":"MA","latitude":"34.21","longitude":"-4.01","population":162110},{"name":"Temara","slug":"temara","region":"04","country":"MA","latitude":"33.92866","longitude":"-6.90656","population":342345},{"name":"Tiflet","slug":"tiflet","region":"04","country":"MA","latitude":"33.89469","longitude":"-6.30649","population":94684},{"name":"Tine Biougra","slug":"tine biougra","region":"09","country":"MA","latitude":"30.20942","longitude":"-9.37922","population":41421},{"name":"Tinghir","slug":"tinghir","region":"08","country":"MA","latitude":"31.51472","longitude":"-5.53278","population":45911},{"name":"Tirhanim\u00eene","slug":"tirhanimine","region":"01","country":"MA","latitude":"35.23619","longitude":"-3.95453","population":55827},{"name":"Tit Mellil","slug":"tit mellil","region":"06","country":"MA","latitude":"33.55808","longitude":"-7.48647","population":35797},{"name":"Tiznit","slug":"tiznit","region":"09","country":"MA","latitude":"29.69742","longitude":"-9.73162","population":81569},{"name":"T\u00e9touan","slug":"tetouan","region":"01","country":"MA","latitude":"35.57845","longitude":"-5.36837","population":415810},{"name":"Youssoufia","slug":"youssoufia","region":"07","country":"MA","latitude":"32.24634","longitude":"-8.52941","population":73848},{"name":"Zagora","slug":"zagora","region":"08","country":"MA","latitude":"30.33241","longitude":"-5.8384","population":43752},{"name":"Zawyat an Nwa\u00e7er","slug":"zawyat an nwacer","region":"06","country":"MA","latitude":"33.37981","longitude":"-7.61932","population":25991},{"name":"Zawyat ech Che\u00efkh","slug":"zawyat ech cheikh","region":"05","country":"MA","latitude":"32.64445","longitude":"-5.91826","population":27723},{"name":"Za\u00efo","slug":"zaio","region":"02","country":"MA","latitude":"34.94282","longitude":"-2.7329","population":39099},{"name":"Zeghanghane","slug":"zeghanghane","region":"02","country":"MA","latitude":"35.15561","longitude":"-3.00236","population":37154}]