[{"name":"Altai","slug":"altai","region":"10","country":"MN","latitude":"46.37222","longitude":"96.25833","population":17617},{"name":"Arvayheer","slug":"arvayheer","region":"15","country":"MN","latitude":"46.26389","longitude":"102.775","population":29420},{"name":"Baruun-Urt","slug":"baruun-urt","region":"17","country":"MN","latitude":"46.68056","longitude":"113.27917","population":18190},{"name":"Bayanhongor","slug":"bayanhongor","region":"02","country":"MN","latitude":"46.19444","longitude":"100.71806","population":30931},{"name":"Bogd","slug":"bogd","region":"15","country":"MN","latitude":"44.67024","longitude":"102.17491","population":27924},{"name":"Bulgan","slug":"bulgan","region":"21","country":"MN","latitude":"48.8125","longitude":"103.53472","population":17348},{"name":"Choibalsan","slug":"choibalsan","region":"06","country":"MN","latitude":"48.07257","longitude":"114.53264","population":44835},{"name":"Dalandzadgad","slug":"dalandzadgad","region":"14","country":"MN","latitude":"43.57083","longitude":"104.425","population":24863},{"name":"Darhan","slug":"darhan","region":"23","country":"MN","latitude":"49.48667","longitude":"105.92278","population":83883},{"name":"Dzuunmod","slug":"dzuunmod","region":"18","country":"MN","latitude":"47.70694","longitude":"106.95278","population":16953},{"name":"Dz\u00fc\u00fcnharaa","slug":"dzuunharaa","region":"16","country":"MN","latitude":"48.85229","longitude":"106.45786","population":18830},{"name":"Erdenet","slug":"erdenet","region":"25","country":"MN","latitude":"49.03333","longitude":"104.08333","population":97814},{"name":"Khovd","slug":"khovd","region":"12","country":"MN","latitude":"48.00556","longitude":"91.64194","population":29800},{"name":"M\u00f6r\u00f6n","slug":"moeroen","region":"13","country":"MN","latitude":"49.63417","longitude":"100.1625","population":39404},{"name":"Nalayh","slug":"nalayh","region":"20","country":"MN","latitude":"47.76667","longitude":"107.28333","population":39579},{"name":"Saynshand","slug":"saynshand","region":"07","country":"MN","latitude":"44.88239","longitude":"110.11631","population":19891},{"name":"S\u00fchbaatar","slug":"suehbaatar","region":"16","country":"MN","latitude":"50.23139","longitude":"106.20778","population":22741},{"name":"Tsetserleg","slug":"tsetserleg","region":"01","country":"MN","latitude":"47.475","longitude":"101.45417","population":21620},{"name":"Ulaangom","slug":"ulaangom","region":"19","country":"MN","latitude":"49.98111","longitude":"92.06667","population":30092},{"name":"Ulan Bator","slug":"ulan bator","region":"20","country":"MN","latitude":"47.90771","longitude":"106.88324","population":844818},{"name":"Uliastay","slug":"uliastay","region":"09","country":"MN","latitude":"47.74167","longitude":"96.84444","population":16265},{"name":"Undurkhaan","slug":"undurkhaan","region":"11","country":"MN","latitude":"47.31944","longitude":"110.65556","population":22741},{"name":"Zuunmod","slug":"zuunmod","region":"18","country":"MN","latitude":"47.70693","longitude":"106.95276","population":16953},{"name":"\u00d6lgii","slug":"oelgii","region":"03","country":"MN","latitude":"48.96833","longitude":"89.9625","population":28400}]