[{"name":"Akjoujt","slug":"akjoujt","region":"12","country":"MR","latitude":"19.74163","longitude":"-14.38534","population":15851},{"name":"Aleg","slug":"aleg","region":"05","country":"MR","latitude":"17.05314","longitude":"-13.91312","population":19183},{"name":"Atar","slug":"atar","region":"07","country":"MR","latitude":"20.51875","longitude":"-13.04637","population":31133},{"name":"Ayoun El Atrous","slug":"ayoun el atrous","region":"02","country":"MR","latitude":"16.6614","longitude":"-9.6149","population":28174},{"name":"Bogu\u00e9","slug":"bogue","region":"05","country":"MR","latitude":"16.59153","longitude":"-14.26309","population":20291},{"name":"Bougadoum","slug":"bougadoum","region":"01","country":"MR","latitude":"15.86702","longitude":"-7.36924","population":40341},{"name":"Boutilimitt","slug":"boutilimitt","region":"06","country":"MR","latitude":"17.54584","longitude":"-14.69777","population":27170},{"name":"Dar Naim","slug":"dar naim","region":"14","country":"MR","latitude":"18.10808","longitude":"-15.92666","population":61089},{"name":"El \u2019Ayo\u00fbn","slug":"el 'ayoun","region":"03","country":"MR","latitude":"15.55791","longitude":"-11.18004","population":22896},{"name":"Elghabra","slug":"elghabra","region":"03","country":"MR","latitude":"16.64713","longitude":"-12.67113","population":15480},{"name":"Guerou","slug":"guerou","region":"03","country":"MR","latitude":"17.07754","longitude":"-12.03869","population":27590},{"name":"Ka\u00e9di","slug":"kaedi","region":"04","country":"MR","latitude":"16.15071","longitude":"-13.50582","population":56283},{"name":"Kiffa","slug":"kiffa","region":"03","country":"MR","latitude":"16.62073","longitude":"-11.40208","population":62051},{"name":"Ksar","slug":"ksar","region":"13","country":"MR","latitude":"18.0995","longitude":"-15.9574","population":57758},{"name":"Mag\u1e6da\u2018 La\u1e25jar","slug":"magta' lahjar","region":"05","country":"MR","latitude":"17.506","longitude":"-13.0927","population":15446},{"name":"Mbera","slug":"mbera","region":"01","country":"MR","latitude":"15.85615","longitude":"-5.79067","population":58985},{"name":"Nouadhibou","slug":"nouadhibou","region":"08","country":"MR","latitude":"20.94188","longitude":"-17.03842","population":146048},{"name":"Nouakchott","slug":"nouakchott","region":"","country":"MR","latitude":"18.08581","longitude":"-15.9785","population":1184530},{"name":"N\u00e9ma","slug":"nema","region":"01","country":"MR","latitude":"16.61702","longitude":"-7.25649","population":60000},{"name":"Rosso","slug":"rosso","region":"06","country":"MR","latitude":"16.51378","longitude":"-15.80503","population":15870},{"name":"S\u00e9libaby","slug":"selibaby","region":"10","country":"MR","latitude":"15.15846","longitude":"-12.1843","population":32653},{"name":"Tembedgha","slug":"tembedgha","region":"01","country":"MR","latitude":"16.24137","longitude":"-8.17321","population":17465},{"name":"Tevragh Zeina","slug":"tevragh zeina","region":"13","country":"MR","latitude":"18.09894","longitude":"-15.98848","population":48093},{"name":"T\u00e9kane","slug":"tekane","region":"06","country":"MR","latitude":"16.60175","longitude":"-15.34866","population":22041},{"name":"Zou\u00e9rat","slug":"zouerat","region":"11","country":"MR","latitude":"22.73542","longitude":"-12.47134","population":55183},{"name":"\u1e6cin\u1e6d\u00e2ne","slug":"tintane","region":"02","country":"MR","latitude":"16.3946","longitude":"-10.1737","population":15684}]