[{"name":"Aba","slug":"aba","region":"45","country":"NG","latitude":"5.10658","longitude":"7.36667","population":1160000},{"name":"Abakaliki","slug":"abakaliki","region":"53","country":"NG","latitude":"6.32485","longitude":"8.11368","population":134102},{"name":"Abeokuta","slug":"abeokuta","region":"16","country":"NG","latitude":"7.15571","longitude":"3.34509","population":735000},{"name":"Abuja","slug":"abuja","region":"11","country":"NG","latitude":"9.05785","longitude":"7.49508","population":2690000},{"name":"Ado-Ekiti","slug":"ado-ekiti","region":"54","country":"NG","latitude":"7.62329","longitude":"5.22087","population":435000},{"name":"Ado-Odo","slug":"ado-odo","region":"16","country":"NG","latitude":"6.59546","longitude":"2.94176","population":15442},{"name":"Afikpo","slug":"afikpo","region":"53","country":"NG","latitude":"5.89258","longitude":"7.93534","population":71866},{"name":"Agbor","slug":"agbor","region":"36","country":"NG","latitude":"6.25375","longitude":"6.1942","population":67610},{"name":"Agulu","slug":"agulu","region":"25","country":"NG","latitude":"6.10045","longitude":"7.061","population":79021},{"name":"Ajaokuta","slug":"ajaokuta","region":"41","country":"NG","latitude":"7.56229","longitude":"6.65497","population":15144},{"name":"Ajegunle","slug":"ajegunle","region":"05","country":"NG","latitude":"6.45197","longitude":"3.33115","population":550000},{"name":"Akowonjo","slug":"akowonjo","region":"05","country":"NG","latitude":"6.61012","longitude":"3.30968","population":308900},{"name":"Aku","slug":"aku","region":"47","country":"NG","latitude":"6.70902","longitude":"7.31826","population":73742},{"name":"Akure","slug":"akure","region":"48","country":"NG","latitude":"7.25256","longitude":"5.19312","population":730000},{"name":"Akwanga","slug":"akwanga","region":"56","country":"NG","latitude":"8.91077","longitude":"8.40655","population":15985},{"name":"Aliayabiagba","slug":"aliayabiagba","region":"05","country":"NG","latitude":"6.45","longitude":"3.33333","population":228000},{"name":"Alimosho","slug":"alimosho","region":"05","country":"NG","latitude":"6.60656","longitude":"3.30235","population":308290},{"name":"Amaigbo","slug":"amaigbo","region":"45","country":"NG","latitude":"5.78917","longitude":"7.83829","population":127300},{"name":"Anchau","slug":"anchau","region":"23","country":"NG","latitude":"10.96245","longitude":"8.39233","population":15538},{"name":"Apomu","slug":"apomu","region":"42","country":"NG","latitude":"7.35156","longitude":"4.18335","population":71656},{"name":"Aramoko-Ekiti","slug":"aramoko-ekiti","region":"54","country":"NG","latitude":"7.70483","longitude":"5.04054","population":74491},{"name":"Argungu","slug":"argungu","region":"40","country":"NG","latitude":"12.74482","longitude":"4.52514","population":45584},{"name":"Asaba","slug":"asaba","region":"36","country":"NG","latitude":"6.19824","longitude":"6.73187","population":73374},{"name":"Atani","slug":"atani","region":"25","country":"NG","latitude":"6.01277","longitude":"6.74768","population":230000},{"name":"Auchi","slug":"auchi","region":"37","country":"NG","latitude":"7.06756","longitude":"6.2636","population":62907},{"name":"Awgu","slug":"awgu","region":"47","country":"NG","latitude":"6.07278","longitude":"7.47739","population":23175},{"name":"Awka","slug":"awka","region":"25","country":"NG","latitude":"6.21269","longitude":"7.07199","population":167738},{"name":"Azare","slug":"azare","region":"46","country":"NG","latitude":"11.67478","longitude":"10.19069","population":105687},{"name":"Babana","slug":"babana","region":"31","country":"NG","latitude":"10.42949","longitude":"3.81495","population":17617},{"name":"Badagry","slug":"badagry","region":"05","country":"NG","latitude":"6.41502","longitude":"2.88132","population":26383},{"name":"Bama","slug":"bama","region":"27","country":"NG","latitude":"11.52134","longitude":"13.68952","population":118121},{"name":"Baro","slug":"baro","region":"31","country":"NG","latitude":"8.61565","longitude":"6.4185","population":26821},{"name":"Bauchi","slug":"bauchi","region":"46","country":"NG","latitude":"10.31032","longitude":"9.84388","population":693700},{"name":"Beli","slug":"beli","region":"43","country":"NG","latitude":"7.85868","longitude":"10.97187","population":17467},{"name":"Bende","slug":"bende","region":"45","country":"NG","latitude":"5.55874","longitude":"7.63359","population":79618},{"name":"Benin City","slug":"benin city","region":"37","country":"NG","latitude":"6.33815","longitude":"5.62575","population":1782000},{"name":"Bida","slug":"bida","region":"31","country":"NG","latitude":"9.08044","longitude":"6.0099","population":400000},{"name":"Biliri","slug":"biliri","region":"55","country":"NG","latitude":"9.86709","longitude":"11.22594","population":15976},{"name":"Birnin Kebbi","slug":"birnin kebbi","region":"40","country":"NG","latitude":"12.45389","longitude":"4.1975","population":108164},{"name":"Birnin Kudu","slug":"birnin kudu","region":"39","country":"NG","latitude":"11.45207","longitude":"9.47856","population":26565},{"name":"Biu","slug":"biu","region":"27","country":"NG","latitude":"10.61285","longitude":"12.19458","population":95005},{"name":"Bode Saadu","slug":"bode saadu","region":"30","country":"NG","latitude":"8.939","longitude":"4.78227","population":16619},{"name":"Bonny","slug":"bonny","region":"50","country":"NG","latitude":"4.4516","longitude":"7.17074","population":16868},{"name":"Buguma","slug":"buguma","region":"50","country":"NG","latitude":"4.73614","longitude":"6.86236","population":135404},{"name":"Bukuru","slug":"bukuru","region":"49","country":"NG","latitude":"9.79399","longitude":"8.86397","population":15540},{"name":"Burutu","slug":"burutu","region":"36","country":"NG","latitude":"5.35328","longitude":"5.50826","population":16410},{"name":"Calabar","slug":"calabar","region":"22","country":"NG","latitude":"4.95893","longitude":"8.32695","population":540000},{"name":"Chakwama","slug":"chakwama","region":"39","country":"NG","latitude":"11.55965","longitude":"9.66407","population":200000},{"name":"Damaturu","slug":"damaturu","region":"44","country":"NG","latitude":"11.74697","longitude":"11.96083","population":46000},{"name":"Damboa","slug":"damboa","region":"27","country":"NG","latitude":"11.15534","longitude":"12.75638","population":21571},{"name":"Darazo","slug":"darazo","region":"46","country":"NG","latitude":"10.9992","longitude":"10.41062","population":18415},{"name":"Daura","slug":"daura","region":"24","country":"NG","latitude":"13.03299","longitude":"8.32351","population":25289},{"name":"Daura","slug":"daura","region":"44","country":"NG","latitude":"11.5541","longitude":"11.406","population":78277},{"name":"Deba","slug":"deba","region":"55","country":"NG","latitude":"10.21187","longitude":"11.3871","population":17671},{"name":"Degema Hulk","slug":"degema hulk","region":"50","country":"NG","latitude":"4.76145","longitude":"6.74957","population":19223},{"name":"Dikwa","slug":"dikwa","region":"27","country":"NG","latitude":"12.03609","longitude":"13.91815","population":29026},{"name":"Doma","slug":"doma","region":"56","country":"NG","latitude":"8.39307","longitude":"8.35544","population":15097},{"name":"Dukku","slug":"dukku","region":"55","country":"NG","latitude":"10.82379","longitude":"10.77221","population":16961},{"name":"Dutse","slug":"dutse","region":"39","country":"NG","latitude":"11.75618","longitude":"9.33896","population":17129},{"name":"Dutsen Wai","slug":"dutsen wai","region":"23","country":"NG","latitude":"10.85009","longitude":"8.199","population":22062},{"name":"Ebute Ikorodu","slug":"ebute ikorodu","region":"05","country":"NG","latitude":"6.60086","longitude":"3.48818","population":535619},{"name":"Ede","slug":"ede","region":"42","country":"NG","latitude":"7.73635","longitude":"4.43536","population":159866},{"name":"Effium","slug":"effium","region":"53","country":"NG","latitude":"6.63105","longitude":"8.05814","population":86945},{"name":"Efon-Alaaye","slug":"efon-alaaye","region":"54","country":"NG","latitude":"7.65649","longitude":"4.92235","population":279319},{"name":"Egbe","slug":"egbe","region":"41","country":"NG","latitude":"8.21896","longitude":"5.50757","population":17612},{"name":"Eha Amufu","slug":"eha amufu","region":"47","country":"NG","latitude":"6.65915","longitude":"7.75961","population":70779},{"name":"Ejigbo","slug":"ejigbo","region":"42","country":"NG","latitude":"7.90303","longitude":"4.31364","population":138357},{"name":"Eket","slug":"eket","region":"21","country":"NG","latitude":"4.64231","longitude":"7.92438","population":25569},{"name":"Ekpoma","slug":"ekpoma","region":"37","country":"NG","latitude":"6.743","longitude":"6.14029","population":59618},{"name":"Elele","slug":"elele","region":"50","country":"NG","latitude":"5.1009","longitude":"6.81411","population":20620},{"name":"Emure-Ekiti","slug":"emure-ekiti","region":"54","country":"NG","latitude":"7.43636","longitude":"5.45925","population":90645},{"name":"Enugu","slug":"enugu","region":"47","country":"NG","latitude":"6.44132","longitude":"7.49883","population":950000},{"name":"Enugu-Ezike","slug":"enugu-ezike","region":"47","country":"NG","latitude":"6.9827","longitude":"7.45534","population":18989},{"name":"Enugu-Ukwu","slug":"enugu-ukwu","region":"25","country":"NG","latitude":"6.17146","longitude":"7.00525","population":68785},{"name":"Epe","slug":"epe","region":"05","country":"NG","latitude":"6.58412","longitude":"3.98336","population":84711},{"name":"Eruwa","slug":"eruwa","region":"32","country":"NG","latitude":"7.53906","longitude":"3.42453","population":34802},{"name":"Esuk Oron","slug":"esuk oron","region":"21","country":"NG","latitude":"4.80293","longitude":"8.25341","population":112033},{"name":"Ezza-Ohu","slug":"ezza-ohu","region":"53","country":"NG","latitude":"6.44094","longitude":"8.08432","population":67414},{"name":"Fiditi","slug":"fiditi","region":"32","country":"NG","latitude":"7.71393","longitude":"3.91665","population":71461},{"name":"Funtua","slug":"funtua","region":"24","country":"NG","latitude":"11.52351","longitude":"7.31174","population":136811},{"name":"Gamboru","slug":"gamboru","region":"27","country":"NG","latitude":"12.37299","longitude":"14.2069","population":84672},{"name":"Ganye","slug":"ganye","region":"35","country":"NG","latitude":"8.43497","longitude":"12.05107","population":15178},{"name":"Garko","slug":"garko","region":"55","country":"NG","latitude":"10.17506","longitude":"11.16458","population":21141},{"name":"Gashua","slug":"gashua","region":"44","country":"NG","latitude":"12.87398","longitude":"11.04057","population":125817},{"name":"Gaya","slug":"gaya","region":"29","country":"NG","latitude":"11.86064","longitude":"9.0027","population":20959},{"name":"Gboko","slug":"gboko","region":"26","country":"NG","latitude":"7.32275","longitude":"9.00108","population":365000},{"name":"Gbongan","slug":"gbongan","region":"42","country":"NG","latitude":"7.47734","longitude":"4.35351","population":139485},{"name":"Geidam","slug":"geidam","region":"44","country":"NG","latitude":"12.89439","longitude":"11.92649","population":41367},{"name":"Gembu","slug":"gembu","region":"43","country":"NG","latitude":"6.72556","longitude":"11.25652","population":19881},{"name":"Gombe","slug":"gombe","region":"55","country":"NG","latitude":"10.28969","longitude":"11.16729","population":560000},{"name":"Gombi","slug":"gombi","region":"35","country":"NG","latitude":"10.16756","longitude":"12.73684","population":19616},{"name":"Gumel","slug":"gumel","region":"39","country":"NG","latitude":"12.6269","longitude":"9.38807","population":42742},{"name":"Gummi","slug":"gummi","region":"57","country":"NG","latitude":"12.14484","longitude":"5.11776","population":38744},{"name":"Gusau","slug":"gusau","region":"57","country":"NG","latitude":"12.17024","longitude":"6.66412","population":226857},{"name":"Gwadabawa","slug":"gwadabawa","region":"51","country":"NG","latitude":"13.35819","longitude":"5.23812","population":17486},{"name":"Gwaram","slug":"gwaram","region":"39","country":"NG","latitude":"11.27727","longitude":"9.88385","population":15806},{"name":"Gwarzo","slug":"gwarzo","region":"29","country":"NG","latitude":"11.91597","longitude":"7.9337","population":16303},{"name":"Gwoza","slug":"gwoza","region":"27","country":"NG","latitude":"11.08313","longitude":"13.69595","population":15176},{"name":"Hadejia","slug":"hadejia","region":"39","country":"NG","latitude":"12.45347","longitude":"10.04115","population":110753},{"name":"Ibadan","slug":"ibadan","region":"32","country":"NG","latitude":"7.37756","longitude":"3.90591","population":3649000},{"name":"Ibeto","slug":"ibeto","region":"31","country":"NG","latitude":"10.48536","longitude":"5.14501","population":15565},{"name":"Ibi","slug":"ibi","region":"43","country":"NG","latitude":"8.18122","longitude":"9.74431","population":22757},{"name":"Idah","slug":"idah","region":"41","country":"NG","latitude":"7.11345","longitude":"6.73866","population":68703},{"name":"Idanre","slug":"idanre","region":"48","country":"NG","latitude":"7.1127","longitude":"5.1159","population":86468},{"name":"Ifo","slug":"ifo","region":"16","country":"NG","latitude":"6.81491","longitude":"3.19518","population":88272},{"name":"Igangan","slug":"igangan","region":"32","country":"NG","latitude":"7.6807","longitude":"3.18413","population":36447},{"name":"Igbara-Odo","slug":"igbara-odo","region":"54","country":"NG","latitude":"7.50251","longitude":"5.06258","population":74121},{"name":"Igbeti","slug":"igbeti","region":"32","country":"NG","latitude":"8.74921","longitude":"4.13113","population":24690},{"name":"Igbo-Ora","slug":"igbo-ora","region":"32","country":"NG","latitude":"7.43383","longitude":"3.28788","population":92719},{"name":"Igbo-Ukwu","slug":"igbo-ukwu","region":"25","country":"NG","latitude":"6.01798","longitude":"7.02027","population":75224},{"name":"Igboho","slug":"igboho","region":"32","country":"NG","latitude":"8.83784","longitude":"3.75628","population":136764},{"name":"Igbor","slug":"igbor","region":"26","country":"NG","latitude":"7.45123","longitude":"8.60805","population":17666},{"name":"Igede-Ekiti","slug":"igede-ekiti","region":"54","country":"NG","latitude":"7.6685","longitude":"5.12627","population":87282},{"name":"Ihiala","slug":"ihiala","region":"25","country":"NG","latitude":"5.85475","longitude":"6.85944","population":83265},{"name":"Ijebu Ode","slug":"ijebu ode","region":"16","country":"NG","latitude":"6.81944","longitude":"3.91731","population":360000},{"name":"Ijebu-Igbo","slug":"ijebu-igbo","region":"16","country":"NG","latitude":"6.97198","longitude":"3.99938","population":109261},{"name":"Ijebu-Jesa","slug":"ijebu-jesa","region":"42","country":"NG","latitude":"7.68287","longitude":"4.81769","population":51730},{"name":"Ijero-Ekiti","slug":"ijero-ekiti","region":"54","country":"NG","latitude":"7.81514","longitude":"5.06716","population":167632},{"name":"Ikare","slug":"ikare","region":"48","country":"NG","latitude":"7.52591","longitude":"5.75342","population":465000},{"name":"Ikeja","slug":"ikeja","region":"05","country":"NG","latitude":"6.59651","longitude":"3.34205","population":313196},{"name":"Ikere-Ekiti","slug":"ikere-ekiti","region":"54","country":"NG","latitude":"7.49748","longitude":"5.23041","population":103054},{"name":"Ikire","slug":"ikire","region":"42","country":"NG","latitude":"7.36983","longitude":"4.1863","population":222160},{"name":"Ikirun","slug":"ikirun","region":"42","country":"NG","latitude":"7.91283","longitude":"4.66741","population":134240},{"name":"Ikom","slug":"ikom","region":"22","country":"NG","latitude":"5.96669","longitude":"8.70632","population":79103},{"name":"Ikot Ekpene","slug":"ikot ekpene","region":"21","country":"NG","latitude":"5.18194","longitude":"7.71481","population":254806},{"name":"Ila Orangun","slug":"ila orangun","region":"42","country":"NG","latitude":"8.01714","longitude":"4.90421","population":179192},{"name":"Ilaro","slug":"ilaro","region":"16","country":"NG","latitude":"6.88901","longitude":"3.01416","population":46999},{"name":"Ile-Ife","slug":"ile-ife","region":"42","country":"NG","latitude":"7.4824","longitude":"4.56032","population":560000},{"name":"Ilesa","slug":"ilesa","region":"42","country":"NG","latitude":"7.62789","longitude":"4.74161","population":325000},{"name":"Illela","slug":"illela","region":"51","country":"NG","latitude":"13.73064","longitude":"5.29777","population":17461},{"name":"Ilobu","slug":"ilobu","region":"42","country":"NG","latitude":"7.83879","longitude":"4.48672","population":118089},{"name":"Ilorin","slug":"ilorin","region":"30","country":"NG","latitude":"8.49664","longitude":"4.54214","population":1080000},{"name":"Inisa","slug":"inisa","region":"42","country":"NG","latitude":"7.84855","longitude":"4.32981","population":164161},{"name":"Iperu","slug":"iperu","region":"16","country":"NG","latitude":"6.91002","longitude":"3.66557","population":15935},{"name":"Ipoti","slug":"ipoti","region":"54","country":"NG","latitude":"7.87377","longitude":"5.07691","population":82113},{"name":"Irewe","slug":"irewe","region":"05","country":"NG","latitude":"6.41692","longitude":"3.14058","population":139494},{"name":"Isanlu-Itedoijowa","slug":"isanlu-itedoijowa","region":"41","country":"NG","latitude":"8.27338","longitude":"5.83526","population":15087},{"name":"Ise-Ekiti","slug":"ise-ekiti","region":"54","country":"NG","latitude":"7.46478","longitude":"5.42333","population":190063},{"name":"Iseyin","slug":"iseyin","region":"32","country":"NG","latitude":"7.97022","longitude":"3.59626","population":365300},{"name":"Isieke","slug":"isieke","region":"53","country":"NG","latitude":"6.38186","longitude":"8.03736","population":89990},{"name":"Itu","slug":"itu","region":"21","country":"NG","latitude":"5.20131","longitude":"7.98373","population":36358},{"name":"Iwo","slug":"iwo","region":"42","country":"NG","latitude":"7.63527","longitude":"4.18156","population":250443},{"name":"Jalingo","slug":"jalingo","region":"43","country":"NG","latitude":"8.89367","longitude":"11.3596","population":117757},{"name":"Jebba","slug":"jebba","region":"30","country":"NG","latitude":"9.11972","longitude":"4.8236","population":21488},{"name":"Jega","slug":"jega","region":"40","country":"NG","latitude":"12.22336","longitude":"4.37971","population":73495},{"name":"Jimeta","slug":"jimeta","region":"35","country":"NG","latitude":"9.27949","longitude":"12.45819","population":248148},{"name":"Jos","slug":"jos","region":"49","country":"NG","latitude":"9.92849","longitude":"8.89212","population":1040000},{"name":"Kabba","slug":"kabba","region":"41","country":"NG","latitude":"7.82719","longitude":"6.07502","population":49869},{"name":"Kachia","slug":"kachia","region":"23","country":"NG","latitude":"9.87342","longitude":"7.95407","population":30893},{"name":"Kaduna","slug":"kaduna","region":"23","country":"NG","latitude":"10.52641","longitude":"7.43879","population":1850000},{"name":"Kafanchan","slug":"kafanchan","region":"23","country":"NG","latitude":"9.58126","longitude":"8.2926","population":79522},{"name":"Kagoro","slug":"kagoro","region":"23","country":"NG","latitude":"9.60776","longitude":"8.39043","population":77008},{"name":"Kaiama","slug":"kaiama","region":"30","country":"NG","latitude":"9.6053","longitude":"3.94101","population":21897},{"name":"Kamba","slug":"kamba","region":"40","country":"NG","latitude":"11.85172","longitude":"3.65478","population":25568},{"name":"Kano","slug":"kano","region":"29","country":"NG","latitude":"12.00012","longitude":"8.51672","population":4910000},{"name":"Kari","slug":"kari","region":"46","country":"NG","latitude":"11.2471","longitude":"10.561","population":18812},{"name":"Katsina","slug":"katsina","region":"24","country":"NG","latitude":"12.99082","longitude":"7.60177","population":670000},{"name":"Katsina-Ala","slug":"katsina-ala","region":"26","country":"NG","latitude":"7.16938","longitude":"9.28465","population":36722},{"name":"Kaura Namoda","slug":"kaura namoda","region":"57","country":"NG","latitude":"12.59371","longitude":"6.58648","population":69725},{"name":"Keffi","slug":"keffi","region":"56","country":"NG","latitude":"8.84651","longitude":"7.87354","population":85911},{"name":"Kisi","slug":"kisi","region":"32","country":"NG","latitude":"9.08297","longitude":"3.85196","population":155510},{"name":"Kiyawa","slug":"kiyawa","region":"39","country":"NG","latitude":"11.78442","longitude":"9.6069","population":17704},{"name":"Kontagora","slug":"kontagora","region":"31","country":"NG","latitude":"10.40319","longitude":"5.4708","population":98754},{"name":"Kuje","slug":"kuje","region":"11","country":"NG","latitude":"8.87952","longitude":"7.22756","population":97367},{"name":"Kukawa","slug":"kukawa","region":"27","country":"NG","latitude":"12.92475","longitude":"13.56617","population":16077},{"name":"Kumagunnam","slug":"kumagunnam","region":"44","country":"NG","latitude":"13.15498","longitude":"10.63468","population":16557},{"name":"Kumo","slug":"kumo","region":"55","country":"NG","latitude":"10.04807","longitude":"11.21055","population":35712},{"name":"Kwale","slug":"kwale","region":"36","country":"NG","latitude":"5.70773","longitude":"6.43402","population":20226},{"name":"Lafia","slug":"lafia","region":"56","country":"NG","latitude":"8.4939","longitude":"8.51532","population":127236},{"name":"Lafiagi","slug":"lafiagi","region":"30","country":"NG","latitude":"8.85299","longitude":"5.41641","population":102779},{"name":"Lagos","slug":"lagos","region":"05","country":"NG","latitude":"6.45407","longitude":"3.39467","population":15388000},{"name":"Lalupon","slug":"lalupon","region":"32","country":"NG","latitude":"7.46791","longitude":"4.06594","population":81130},{"name":"Lapai","slug":"lapai","region":"31","country":"NG","latitude":"9.04439","longitude":"6.57089","population":16442},{"name":"Lekki","slug":"lekki","region":"05","country":"NG","latitude":"6.41222","longitude":"4.0947","population":401272},{"name":"Lere","slug":"lere","region":"23","country":"NG","latitude":"10.38584","longitude":"8.57286","population":93290},{"name":"Lokoja","slug":"lokoja","region":"41","country":"NG","latitude":"7.79688","longitude":"6.74048","population":60579},{"name":"Magumeri","slug":"magumeri","region":"27","country":"NG","latitude":"12.11451","longitude":"12.8262","population":19363},{"name":"Maiduguri","slug":"maiduguri","region":"27","country":"NG","latitude":"11.84692","longitude":"13.15712","population":1110000},{"name":"Makoko","slug":"makoko","region":"05","country":"NG","latitude":"6.49611","longitude":"3.38778","population":85840},{"name":"Makurdi","slug":"makurdi","region":"26","country":"NG","latitude":"7.73375","longitude":"8.52139","population":390000},{"name":"Malumfashi","slug":"malumfashi","region":"24","country":"NG","latitude":"11.78935","longitude":"7.62061","population":70709},{"name":"Marte","slug":"marte","region":"27","country":"NG","latitude":"12.36532","longitude":"13.8293","population":15707},{"name":"Minna","slug":"minna","region":"31","country":"NG","latitude":"9.61524","longitude":"6.54776","population":425000},{"name":"Modakeke","slug":"modakeke","region":"42","country":"NG","latitude":"7.38299","longitude":"4.26031","population":119529},{"name":"Mokwa","slug":"mokwa","region":"31","country":"NG","latitude":"9.29482","longitude":"5.05412","population":21128},{"name":"Monguno","slug":"monguno","region":"27","country":"NG","latitude":"12.67059","longitude":"13.61224","population":20297},{"name":"Moriki","slug":"moriki","region":"57","country":"NG","latitude":"12.87405","longitude":"6.48754","population":28735},{"name":"Mubi","slug":"mubi","region":"35","country":"NG","latitude":"10.26858","longitude":"13.26701","population":225705},{"name":"Mushin","slug":"mushin","region":"05","country":"NG","latitude":"6.52799","longitude":"3.35411","population":199000},{"name":"Nafada","slug":"nafada","region":"55","country":"NG","latitude":"11.09596","longitude":"11.33261","population":22920},{"name":"Nasarawa","slug":"nasarawa","region":"56","country":"NG","latitude":"8.53895","longitude":"7.70821","population":30949},{"name":"Nguru","slug":"nguru","region":"44","country":"NG","latitude":"12.87695","longitude":"10.45536","population":111014},{"name":"Nkpor","slug":"nkpor","region":"25","country":"NG","latitude":"6.15038","longitude":"6.83042","population":103733},{"name":"Nkwerre","slug":"nkwerre","region":"28","country":"NG","latitude":"5.75917","longitude":"7.10384","population":62973},{"name":"Nnewi","slug":"nnewi","region":"25","country":"NG","latitude":"6.01962","longitude":"6.91729","population":193987},{"name":"Nsukka","slug":"nsukka","region":"47","country":"NG","latitude":"6.85783","longitude":"7.39577","population":111017},{"name":"Numan","slug":"numan","region":"35","country":"NG","latitude":"9.46374","longitude":"12.03062","population":77617},{"name":"Obalende","slug":"obalende","region":"05","country":"NG","latitude":"6.44694","longitude":"3.41528","population":342000},{"name":"Obonoma","slug":"obonoma","region":"50","country":"NG","latitude":"4.71131","longitude":"6.79084","population":68584},{"name":"Obudu","slug":"obudu","region":"22","country":"NG","latitude":"6.66819","longitude":"9.16453","population":19668},{"name":"Ode","slug":"ode","region":"48","country":"NG","latitude":"7.7899","longitude":"5.7117","population":75463},{"name":"Offa","slug":"offa","region":"30","country":"NG","latitude":"8.14911","longitude":"4.72074","population":113830},{"name":"Ogaminana","slug":"ogaminana","region":"41","country":"NG","latitude":"7.59383","longitude":"6.21798","population":84373},{"name":"Ogbomoso","slug":"ogbomoso","region":"32","country":"NG","latitude":"8.13373","longitude":"4.24014","population":433030},{"name":"Ogoja","slug":"ogoja","region":"22","country":"NG","latitude":"6.6584","longitude":"8.79923","population":37466},{"name":"Oguta","slug":"oguta","region":"28","country":"NG","latitude":"5.71044","longitude":"6.80936","population":21639},{"name":"Ogwashi-Uku","slug":"ogwashi-uku","region":"36","country":"NG","latitude":"6.17811","longitude":"6.52461","population":26137},{"name":"Ohafia-Ifigh","slug":"ohafia-ifigh","region":"45","country":"NG","latitude":"5.61455","longitude":"7.81191","population":73355},{"name":"Oke Ila","slug":"oke ila","region":"54","country":"NG","latitude":"7.95","longitude":"4.98333","population":35000},{"name":"Oke Mesi","slug":"oke mesi","region":"42","country":"NG","latitude":"7.81667","longitude":"4.91667","population":79563},{"name":"Okene","slug":"okene","region":"41","country":"NG","latitude":"7.55122","longitude":"6.23589","population":479178},{"name":"Okigwe","slug":"okigwe","region":"28","country":"NG","latitude":"5.82917","longitude":"7.35056","population":115499},{"name":"Okrika","slug":"okrika","region":"50","country":"NG","latitude":"4.74215","longitude":"7.08368","population":133271},{"name":"Okuta","slug":"okuta","region":"30","country":"NG","latitude":"9.21866","longitude":"3.20117","population":26589},{"name":"Olupona","slug":"olupona","region":"42","country":"NG","latitude":"7.60039","longitude":"4.19264","population":95002},{"name":"Ondo","slug":"ondo","region":"48","country":"NG","latitude":"7.09316","longitude":"4.83528","population":375000},{"name":"Onitsha","slug":"onitsha","region":"25","country":"NG","latitude":"6.14978","longitude":"6.78569","population":1553000},{"name":"Orita-Eruwa","slug":"orita-eruwa","region":"32","country":"NG","latitude":"7.55632","longitude":"3.44107","population":71027},{"name":"Oshodi","slug":"oshodi","region":"05","country":"NG","latitude":"6.55504","longitude":"3.34363","population":170870},{"name":"Osogbo","slug":"osogbo","region":"42","country":"NG","latitude":"7.77104","longitude":"4.55698","population":645000},{"name":"Otan Ayegbaju","slug":"otan ayegbaju","region":"42","country":"NG","latitude":"7.94783","longitude":"4.78836","population":37783},{"name":"Otukpa","slug":"otukpa","region":"26","country":"NG","latitude":"7.10168","longitude":"7.65945","population":21686},{"name":"Owerri","slug":"owerri","region":"28","country":"NG","latitude":"5.48363","longitude":"7.03325","population":545000},{"name":"Owo","slug":"owo","region":"48","country":"NG","latitude":"7.1962","longitude":"5.58681","population":276574},{"name":"Oyan","slug":"oyan","region":"42","country":"NG","latitude":"8.05","longitude":"4.76667","population":73622},{"name":"Oyo","slug":"oyo","region":"32","country":"NG","latitude":"7.85367","longitude":"3.93235","population":736072},{"name":"Ozubulu","slug":"ozubulu","region":"25","country":"NG","latitude":"5.95753","longitude":"6.85305","population":73812},{"name":"Pankshin","slug":"pankshin","region":"49","country":"NG","latitude":"9.32541","longitude":"9.4352","population":31516},{"name":"Patigi","slug":"patigi","region":"30","country":"NG","latitude":"8.72851","longitude":"5.75561","population":28285},{"name":"Pindiga","slug":"pindiga","region":"55","country":"NG","latitude":"9.98433","longitude":"10.95229","population":106322},{"name":"Port Harcourt","slug":"port harcourt","region":"50","country":"NG","latitude":"4.77742","longitude":"7.0134","population":2120000},{"name":"Potiskum","slug":"potiskum","region":"44","country":"NG","latitude":"11.71391","longitude":"11.08108","population":86002},{"name":"Rano","slug":"rano","region":"29","country":"NG","latitude":"11.55684","longitude":"8.58065","population":17972},{"name":"Rijau","slug":"rijau","region":"31","country":"NG","latitude":"11.10389","longitude":"5.25556","population":16613},{"name":"Saki","slug":"saki","region":"32","country":"NG","latitude":"8.66762","longitude":"3.39393","population":178677},{"name":"Sapele","slug":"sapele","region":"36","country":"NG","latitude":"5.89405","longitude":"5.67666","population":305000},{"name":"Shagamu","slug":"shagamu","region":"16","country":"NG","latitude":"6.8485","longitude":"3.64633","population":214558},{"name":"Shomolu","slug":"shomolu","region":"05","country":"NG","latitude":"6.53891","longitude":"3.3742","population":154390},{"name":"Soba","slug":"soba","region":"23","country":"NG","latitude":"10.98133","longitude":"8.05749","population":15715},{"name":"Sofo-Birnin-Gwari","slug":"sofo-birnin-gwari","region":"23","country":"NG","latitude":"11.01537","longitude":"6.78036","population":22380},{"name":"Sokoto","slug":"sokoto","region":"51","country":"NG","latitude":"13.06269","longitude":"5.24322","population":1040000},{"name":"Suleja","slug":"suleja","region":"31","country":"NG","latitude":"9.18059","longitude":"7.17939","population":162135},{"name":"Surulere","slug":"surulere","region":"05","country":"NG","latitude":"6.50153","longitude":"3.35808","population":191920},{"name":"Takum","slug":"takum","region":"26","country":"NG","latitude":"7.26667","longitude":"9.98333","population":24822},{"name":"Talata Mafara","slug":"talata mafara","region":"57","country":"NG","latitude":"12.56841","longitude":"6.06225","population":39045},{"name":"Tambuwal","slug":"tambuwal","region":"51","country":"NG","latitude":"12.40592","longitude":"4.64605","population":20932},{"name":"Tegina","slug":"tegina","region":"31","country":"NG","latitude":"10.0706","longitude":"6.1906","population":24037},{"name":"Ubiaja","slug":"ubiaja","region":"37","country":"NG","latitude":"6.65581","longitude":"6.38494","population":21782},{"name":"Uga","slug":"uga","region":"25","country":"NG","latitude":"5.93576","longitude":"7.0793","population":64179},{"name":"Ugep","slug":"ugep","region":"22","country":"NG","latitude":"5.80865","longitude":"8.08098","population":200276},{"name":"Ughelli","slug":"ughelli","region":"36","country":"NG","latitude":"5.48956","longitude":"6.00407","population":79986},{"name":"Umuahia","slug":"umuahia","region":"45","country":"NG","latitude":"5.52491","longitude":"7.49461","population":370000},{"name":"Uromi","slug":"uromi","region":"37","country":"NG","latitude":"6.7","longitude":"6.33333","population":108608},{"name":"Uyo","slug":"uyo","region":"21","country":"NG","latitude":"5.05127","longitude":"7.9335","population":436606},{"name":"Wamba","slug":"wamba","region":"56","country":"NG","latitude":"8.94153","longitude":"8.60315","population":27137},{"name":"Warri","slug":"warri","region":"36","country":"NG","latitude":"5.51737","longitude":"5.75006","population":910000},{"name":"Wudil","slug":"wudil","region":"29","country":"NG","latitude":"11.80937","longitude":"8.84422","population":23066},{"name":"Wukari","slug":"wukari","region":"43","country":"NG","latitude":"7.87139","longitude":"9.77786","population":92933},{"name":"Yenagoa","slug":"yenagoa","region":"52","country":"NG","latitude":"4.92675","longitude":"6.26764","population":365000},{"name":"Yola","slug":"yola","region":"35","country":"NG","latitude":"9.20839","longitude":"12.48146","population":460000},{"name":"Zaria","slug":"zaria","region":"23","country":"NG","latitude":"11.11128","longitude":"7.7227","population":980000},{"name":"Zungeru","slug":"zungeru","region":"31","country":"NG","latitude":"9.80726","longitude":"6.15238","population":24447},{"name":"Zuru","slug":"zuru","region":"40","country":"NG","latitude":"11.43522","longitude":"5.23494","population":24338}]