[{"name":"'s-Gravenzande","slug":"'s-gravenzande","region":"11","country":"NL","latitude":"52.00167","longitude":"4.16528","population":19190},{"name":"'s-Hertogenbosch","slug":"'s-hertogenbosch","region":"06","country":"NL","latitude":"51.69917","longitude":"5.30417","population":160783},{"name":"Aalsmeer","slug":"aalsmeer","region":"07","country":"NL","latitude":"52.25917","longitude":"4.75972","population":22991},{"name":"Aalten","slug":"aalten","region":"03","country":"NL","latitude":"51.925","longitude":"6.58056","population":19141},{"name":"Alblasserdam","slug":"alblasserdam","region":"11","country":"NL","latitude":"51.86583","longitude":"4.66111","population":18348},{"name":"Alkmaar","slug":"alkmaar","region":"07","country":"NL","latitude":"52.63167","longitude":"4.74861","population":94853},{"name":"Almelo","slug":"almelo","region":"15","country":"NL","latitude":"52.35667","longitude":"6.6625","population":72725},{"name":"Almere Stad","slug":"almere stad","region":"16","country":"NL","latitude":"52.37025","longitude":"5.21413","population":176432},{"name":"Alphen aan den Rijn","slug":"alphen aan den rijn","region":"11","country":"NL","latitude":"52.12917","longitude":"4.65546","population":70251},{"name":"Amersfoort","slug":"amersfoort","region":"09","country":"NL","latitude":"52.155","longitude":"5.3875","population":139914},{"name":"Amstelveen","slug":"amstelveen","region":"07","country":"NL","latitude":"52.30083","longitude":"4.86389","population":79639},{"name":"Amsterdam","slug":"amsterdam","region":"07","country":"NL","latitude":"52.37403","longitude":"4.88969","population":741636},{"name":"Amsterdam-Zuidoost","slug":"amsterdam-zuidoost","region":"07","country":"NL","latitude":"52.3075","longitude":"4.97222","population":84811},{"name":"Apeldoorn","slug":"apeldoorn","region":"03","country":"NL","latitude":"52.21","longitude":"5.96944","population":136670},{"name":"Arnhem","slug":"arnhem","region":"03","country":"NL","latitude":"51.98","longitude":"5.91111","population":162424},{"name":"Assen","slug":"assen","region":"01","country":"NL","latitude":"52.99667","longitude":"6.5625","population":68836},{"name":"Assendelft","slug":"assendelft","region":"07","country":"NL","latitude":"52.46833","longitude":"4.74306","population":24230},{"name":"Baarn","slug":"baarn","region":"09","country":"NL","latitude":"52.21167","longitude":"5.2875","population":24584},{"name":"Barendrecht","slug":"barendrecht","region":"11","country":"NL","latitude":"51.85667","longitude":"4.53472","population":38672},{"name":"Barneveld","slug":"barneveld","region":"03","country":"NL","latitude":"52.14","longitude":"5.58472","population":35095},{"name":"Bennekom","slug":"bennekom","region":"03","country":"NL","latitude":"51.99833","longitude":"5.67639","population":15160},{"name":"Benthuizen","slug":"benthuizen","region":"11","country":"NL","latitude":"52.0775","longitude":"4.54444","population":18959},{"name":"Bergeijk","slug":"bergeyk","region":"06","country":"NL","latitude":"51.31917","longitude":"5.35833","population":18181},{"name":"Bergen","slug":"bergen","region":"07","country":"NL","latitude":"52.66917","longitude":"4.70417","population":29715},{"name":"Bergen op Zoom","slug":"bergen op zoom","region":"06","country":"NL","latitude":"51.495","longitude":"4.29167","population":66256},{"name":"Bergschenhoek","slug":"bergschenhoek","region":"11","country":"NL","latitude":"51.99","longitude":"4.49861","population":16579},{"name":"Berkel en Rodenrijs","slug":"berkel en rodenrijs","region":"11","country":"NL","latitude":"51.99313","longitude":"4.47865","population":20189},{"name":"Best","slug":"best","region":"06","country":"NL","latitude":"51.5075","longitude":"5.39028","population":29074},{"name":"Beuningen","slug":"beuningen","region":"03","country":"NL","latitude":"51.86083","longitude":"5.76667","population":25557},{"name":"Beverwijk","slug":"beverwijk","region":"07","country":"NL","latitude":"52.48333","longitude":"4.65694","population":37585},{"name":"Bilthoven","slug":"bilthoven","region":"09","country":"NL","latitude":"52.13","longitude":"5.20139","population":23248},{"name":"Blerick","slug":"blerick","region":"05","country":"NL","latitude":"51.37167","longitude":"6.14861","population":15820},{"name":"Bodegraven","slug":"bodegraven","region":"11","country":"NL","latitude":"52.0825","longitude":"4.75","population":19395},{"name":"Borne","slug":"borne","region":"15","country":"NL","latitude":"52.30136","longitude":"6.7482","population":23877},{"name":"Borssele","slug":"borssele","region":"10","country":"NL","latitude":"51.42333","longitude":"3.73472","population":22285},{"name":"Boskoop","slug":"boskoop","region":"11","country":"NL","latitude":"52.075","longitude":"4.65556","population":15222},{"name":"Boxtel","slug":"boxtel","region":"06","country":"NL","latitude":"51.59083","longitude":"5.32917","population":29511},{"name":"Breda","slug":"breda","region":"06","country":"NL","latitude":"51.58656","longitude":"4.77596","population":184126},{"name":"Brummen","slug":"brummen","region":"03","country":"NL","latitude":"52.09","longitude":"6.15556","population":21344},{"name":"Brunssum","slug":"brunssum","region":"05","country":"NL","latitude":"50.94667","longitude":"5.97083","population":29254},{"name":"Bussum","slug":"bussum","region":"07","country":"NL","latitude":"52.27333","longitude":"5.16111","population":31334},{"name":"Capelle aan den IJssel","slug":"capelle aan den ijssel","region":"11","country":"NL","latitude":"51.92917","longitude":"4.57778","population":65255},{"name":"Castricum","slug":"castricum","region":"07","country":"NL","latitude":"52.54833","longitude":"4.66944","population":35256},{"name":"Cranendonck","slug":"cranendonck","region":"06","country":"NL","latitude":"51.30417","longitude":"5.58889","population":19966},{"name":"Culemborg","slug":"culemborg","region":"03","country":"NL","latitude":"51.955","longitude":"5.22778","population":26826},{"name":"Dalfsen","slug":"dalfsen","region":"15","country":"NL","latitude":"52.51167","longitude":"6.25694","population":26575},{"name":"De Meern","slug":"de meern","region":"09","country":"NL","latitude":"52.08167","longitude":"5.03611","population":22116},{"name":"Delft","slug":"delft","region":"11","country":"NL","latitude":"52.00667","longitude":"4.35556","population":95060},{"name":"Delfzijl","slug":"delfzijl","region":"04","country":"NL","latitude":"53.33","longitude":"6.91806","population":28649},{"name":"Den Helder","slug":"den helder","region":"07","country":"NL","latitude":"52.95988","longitude":"4.75933","population":59569},{"name":"Deventer","slug":"deventer","region":"15","country":"NL","latitude":"52.255","longitude":"6.16389","population":97331},{"name":"Didam","slug":"didam","region":"03","country":"NL","latitude":"51.94083","longitude":"6.13194","population":17812},{"name":"Diemen","slug":"diemen","region":"07","country":"NL","latitude":"52.33964","longitude":"4.96256","population":24361},{"name":"Doetinchem","slug":"doetinchem","region":"03","country":"NL","latitude":"51.965","longitude":"6.28889","population":49906},{"name":"Dongen","slug":"dongen","region":"06","country":"NL","latitude":"51.62667","longitude":"4.93889","population":25464},{"name":"Dordrecht","slug":"dordrecht","region":"11","country":"NL","latitude":"51.81","longitude":"4.67361","population":119260},{"name":"Drachten","slug":"drachten","region":"02","country":"NL","latitude":"53.11254","longitude":"6.0989","population":45186},{"name":"Driebergen-Rijsenburg","slug":"driebergen-rijsenburg","region":"09","country":"NL","latitude":"52.05333","longitude":"5.28056","population":18553},{"name":"Dronten","slug":"dronten","region":"16","country":"NL","latitude":"52.525","longitude":"5.71806","population":28073},{"name":"Duiven","slug":"duiven","region":"03","country":"NL","latitude":"51.94667","longitude":"6.01389","population":25469},{"name":"Ede","slug":"ede","region":"03","country":"NL","latitude":"52.03333","longitude":"5.65833","population":67670},{"name":"Eersel","slug":"eersel","region":"06","country":"NL","latitude":"51.3575","longitude":"5.31806","population":18185},{"name":"Eibergen","slug":"eibergen","region":"03","country":"NL","latitude":"52.1","longitude":"6.64861","population":16493},{"name":"Eindhoven","slug":"eindhoven","region":"06","country":"NL","latitude":"51.44083","longitude":"5.47778","population":235691},{"name":"Elburg","slug":"elburg","region":"03","country":"NL","latitude":"52.4475","longitude":"5.84306","population":21844},{"name":"Elst","slug":"elst","region":"03","country":"NL","latitude":"51.91917","longitude":"5.84167","population":20488},{"name":"Emmeloord","slug":"emmeloord","region":"16","country":"NL","latitude":"52.71083","longitude":"5.74861","population":46409},{"name":"Emmen","slug":"emmen","region":"01","country":"NL","latitude":"52.77917","longitude":"6.90694","population":57010},{"name":"Enkhuizen","slug":"enkhuizen","region":"07","country":"NL","latitude":"52.70333","longitude":"5.29167","population":17365},{"name":"Enschede","slug":"enschede","region":"15","country":"NL","latitude":"52.21833","longitude":"6.89583","population":153655},{"name":"Epe","slug":"epe","region":"03","country":"NL","latitude":"52.3475","longitude":"5.98333","population":33385},{"name":"Geertruidenberg","slug":"geertruidenberg","region":"06","country":"NL","latitude":"51.70167","longitude":"4.85694","population":20941},{"name":"Geldermalsen","slug":"geldermalsen","region":"03","country":"NL","latitude":"51.88083","longitude":"5.28889","population":25734},{"name":"Geldrop","slug":"geldrop","region":"06","country":"NL","latitude":"51.42167","longitude":"5.55972","population":27900},{"name":"Geleen","slug":"geleen","region":"05","country":"NL","latitude":"50.97417","longitude":"5.82917","population":32790},{"name":"Gemert","slug":"gemert","region":"06","country":"NL","latitude":"51.55583","longitude":"5.69028","population":15995},{"name":"Gennep","slug":"gennep","region":"05","country":"NL","latitude":"51.69833","longitude":"5.97361","population":16642},{"name":"Goes","slug":"goes","region":"10","country":"NL","latitude":"51.50417","longitude":"3.88889","population":36931},{"name":"Goirle","slug":"goirle","region":"06","country":"NL","latitude":"51.52083","longitude":"5.06667","population":22646},{"name":"Gorinchem","slug":"gorinchem","region":"11","country":"NL","latitude":"51.83652","longitude":"4.97243","population":34736},{"name":"Gouda","slug":"gouda","region":"11","country":"NL","latitude":"52.01667","longitude":"4.70833","population":71952},{"name":"Groesbeek","slug":"groesbeek","region":"03","country":"NL","latitude":"51.77667","longitude":"5.93611","population":18741},{"name":"Groningen","slug":"groningen","region":"04","country":"NL","latitude":"53.21917","longitude":"6.56667","population":244807},{"name":"Groot IJsselmonde","slug":"groot ijsselmonde","region":"11","country":"NL","latitude":"51.88264","longitude":"4.54937","population":28120},{"name":"Haaksbergen","slug":"haaksbergen","region":"15","country":"NL","latitude":"52.15667","longitude":"6.73889","population":24137},{"name":"Haarlem","slug":"haarlem","region":"07","country":"NL","latitude":"52.38084","longitude":"4.63683","population":162543},{"name":"Hardenberg","slug":"hardenberg","region":"15","country":"NL","latitude":"52.57583","longitude":"6.61944","population":57909},{"name":"Harderwijk","slug":"harderwijk","region":"03","country":"NL","latitude":"52.34167","longitude":"5.62083","population":40516},{"name":"Harenkarspel","slug":"harenkarspel","region":"07","country":"NL","latitude":"52.73416","longitude":"4.77682","population":15941},{"name":"Harlingen","slug":"harlingen","region":"02","country":"NL","latitude":"53.17477","longitude":"5.42244","population":16119},{"name":"Heemskerk","slug":"heemskerk","region":"07","country":"NL","latitude":"52.51108","longitude":"4.67165","population":39191},{"name":"Heemstede","slug":"heemstede","region":"07","country":"NL","latitude":"52.34992","longitude":"4.62301","population":25562},{"name":"Heerenveen","slug":"heerenveen","region":"02","country":"NL","latitude":"52.95929","longitude":"5.91854","population":43094},{"name":"Heerhugowaard","slug":"heerhugowaard","region":"07","country":"NL","latitude":"52.67144","longitude":"4.84862","population":47580},{"name":"Heerlen","slug":"heerlen","region":"05","country":"NL","latitude":"50.88365","longitude":"5.98154","population":93084},{"name":"Heiloo","slug":"heiloo","region":"07","country":"NL","latitude":"52.60252","longitude":"4.68815","population":24144},{"name":"Hellevoetsluis","slug":"hellevoetsluis","region":"11","country":"NL","latitude":"51.83333","longitude":"4.13333","population":21927},{"name":"Helmond","slug":"helmond","region":"06","country":"NL","latitude":"51.48167","longitude":"5.66111","population":74740},{"name":"Hendrik-Ido-Ambacht","slug":"hendrik-ido-ambacht","region":"11","country":"NL","latitude":"51.84417","longitude":"4.63889","population":21027},{"name":"Hengelo","slug":"hengelo","region":"15","country":"NL","latitude":"52.26583","longitude":"6.79306","population":82311},{"name":"Hillegom","slug":"hillegom","region":"11","country":"NL","latitude":"52.29083","longitude":"4.58333","population":18419},{"name":"Hilversum","slug":"hilversum","region":"07","country":"NL","latitude":"52.22333","longitude":"5.17639","population":83640},{"name":"Hoensbroek","slug":"hoensbroek","region":"05","country":"NL","latitude":"50.92387","longitude":"5.92528","population":25000},{"name":"Hoge Vucht","slug":"hoge vucht","region":"06","country":"NL","latitude":"51.60794","longitude":"4.7915","population":16000},{"name":"Hoofddorp","slug":"hoofddorp","region":"07","country":"NL","latitude":"52.3025","longitude":"4.68889","population":132734},{"name":"Hoogeveen","slug":"hoogeveen","region":"01","country":"NL","latitude":"52.7225","longitude":"6.47639","population":38754},{"name":"Hoogezand","slug":"hoogezand","region":"04","country":"NL","latitude":"53.16167","longitude":"6.76111","population":21480},{"name":"Hoogvliet","slug":"hoogvliet","region":"11","country":"NL","latitude":"51.86333","longitude":"4.3625","population":34950},{"name":"Hoorn","slug":"hoorn","region":"07","country":"NL","latitude":"52.6425","longitude":"5.05972","population":68852},{"name":"Huissen","slug":"huissen","region":"03","country":"NL","latitude":"51.93833","longitude":"5.93333","population":19725},{"name":"Huizen","slug":"huizen","region":"07","country":"NL","latitude":"52.29917","longitude":"5.24167","population":41273},{"name":"IJmuiden","slug":"ijmuiden","region":"07","country":"NL","latitude":"52.4603","longitude":"4.61048","population":31925},{"name":"IJsselstein","slug":"ijsselstein","region":"09","country":"NL","latitude":"52.02","longitude":"5.04306","population":33886},{"name":"Julianadorp","slug":"julianadorp","region":"07","country":"NL","latitude":"52.89","longitude":"4.74028","population":15135},{"name":"Kampen","slug":"kampen","region":"15","country":"NL","latitude":"52.555","longitude":"5.91111","population":48980},{"name":"Katwijk aan Zee","slug":"katwijk aan zee","region":"11","country":"NL","latitude":"52.20333","longitude":"4.39861","population":20010},{"name":"Kerkrade","slug":"kerkrade","region":"05","country":"NL","latitude":"50.86583","longitude":"6.0625","population":49777},{"name":"Korrewegwijk","slug":"korrewegwijk","region":"04","country":"NL","latitude":"53.23235","longitude":"6.56804","population":16710},{"name":"Krimpen aan den IJssel","slug":"krimpen aan den ijssel","region":"11","country":"NL","latitude":"51.91667","longitude":"4.60278","population":29017},{"name":"Leek","slug":"leek","region":"04","country":"NL","latitude":"53.1625","longitude":"6.37639","population":19651},{"name":"Leerdam","slug":"leerdam","region":"09","country":"NL","latitude":"51.89333","longitude":"5.09167","population":20758},{"name":"Leeuwarden","slug":"leeuwarden","region":"02","country":"NL","latitude":"53.20271","longitude":"5.80973","population":124481},{"name":"Leiden","slug":"leiden","region":"11","country":"NL","latitude":"52.15833","longitude":"4.49306","population":119713},{"name":"Leiderdorp","slug":"leiderdorp","region":"11","country":"NL","latitude":"52.15833","longitude":"4.52917","population":25966},{"name":"Lelystad","slug":"lelystad","region":"16","country":"NL","latitude":"52.50833","longitude":"5.475","population":79811},{"name":"Leusden","slug":"leusden","region":"09","country":"NL","latitude":"52.1325","longitude":"5.43194","population":29215},{"name":"Lichtenvoorde","slug":"lichtenvoorde","region":"03","country":"NL","latitude":"51.98667","longitude":"6.56667","population":19590},{"name":"Lindenholt","slug":"lindenholt","region":"03","country":"NL","latitude":"51.8327","longitude":"5.7934","population":16121},{"name":"Lisse","slug":"lisse","region":"11","country":"NL","latitude":"52.26","longitude":"4.55694","population":22321},{"name":"Loon op Zand","slug":"loon op zand","region":"06","country":"NL","latitude":"51.6275","longitude":"5.075","population":23000},{"name":"Losser","slug":"losser","region":"15","country":"NL","latitude":"52.26083","longitude":"7.00417","population":22431},{"name":"Maarssen","slug":"maarssen","region":"09","country":"NL","latitude":"52.13917","longitude":"5.04167","population":39675},{"name":"Maaspoort","slug":"maaspoort","region":"06","country":"NL","latitude":"51.72611","longitude":"5.30194","population":16150},{"name":"Maassluis","slug":"maassluis","region":"11","country":"NL","latitude":"51.92333","longitude":"4.25","population":32780},{"name":"Maastricht","slug":"maastricht","region":"05","country":"NL","latitude":"50.84833","longitude":"5.68889","population":122378},{"name":"Medemblik","slug":"medemblik","region":"07","country":"NL","latitude":"52.77167","longitude":"5.10556","population":41500},{"name":"Meppel","slug":"meppel","region":"01","country":"NL","latitude":"52.69583","longitude":"6.19444","population":30697},{"name":"Merenwijk","slug":"merenwijk","region":"11","country":"NL","latitude":"52.17655","longitude":"4.50885","population":16500},{"name":"Middelburg","slug":"middelburg","region":"10","country":"NL","latitude":"51.5","longitude":"3.61389","population":46485},{"name":"Middelharnis","slug":"middelharnis","region":"11","country":"NL","latitude":"51.7575","longitude":"4.16528","population":17554},{"name":"Mijdrecht","slug":"mijdrecht","region":"09","country":"NL","latitude":"52.20667","longitude":"4.8625","population":15230},{"name":"Naaldwijk","slug":"naaldwijk","region":"11","country":"NL","latitude":"51.99417","longitude":"4.20972","population":17753},{"name":"Naarden","slug":"naarden","region":"07","country":"NL","latitude":"52.29583","longitude":"5.1625","population":17115},{"name":"Nieuw-Vennep","slug":"nieuw-vennep","region":"07","country":"NL","latitude":"52.26417","longitude":"4.63056","population":31415},{"name":"Nieuwegein","slug":"nieuwegein","region":"09","country":"NL","latitude":"52.02917","longitude":"5.08056","population":61489},{"name":"Nijkerk","slug":"nijkerk","region":"03","country":"NL","latitude":"52.22","longitude":"5.48611","population":38335},{"name":"Nijmegen","slug":"nijmegen","region":"03","country":"NL","latitude":"51.8425","longitude":"5.85278","population":177359},{"name":"Noordwijk-Binnen","slug":"noordwijk-binnen","region":"11","country":"NL","latitude":"52.234","longitude":"4.44474","population":24363},{"name":"Nootdorp","slug":"nootdorp","region":"11","country":"NL","latitude":"52.045","longitude":"4.39583","population":19020},{"name":"Nuenen","slug":"nuenen","region":"06","country":"NL","latitude":"51.47","longitude":"5.55278","population":23223},{"name":"Nunspeet","slug":"nunspeet","region":"03","country":"NL","latitude":"52.37917","longitude":"5.78611","population":19496},{"name":"Oegstgeest","slug":"oegstgeest","region":"11","country":"NL","latitude":"52.18","longitude":"4.46944","population":21149},{"name":"Oisterwijk","slug":"oisterwijk","region":"06","country":"NL","latitude":"51.57917","longitude":"5.18889","population":25980},{"name":"Oldenzaal","slug":"oldenzaal","region":"15","country":"NL","latitude":"52.31333","longitude":"6.92917","population":31410},{"name":"Ommoord","slug":"ommoord","region":"11","country":"NL","latitude":"51.95951","longitude":"4.54533","population":25150},{"name":"Oosterhout","slug":"oosterhout","region":"06","country":"NL","latitude":"51.645","longitude":"4.85972","population":53107},{"name":"Oss","slug":"oss","region":"06","country":"NL","latitude":"51.765","longitude":"5.51806","population":76430},{"name":"Oud-Beijerland","slug":"oud-beijerland","region":"11","country":"NL","latitude":"51.82417","longitude":"4.4125","population":23569},{"name":"Papendrecht","slug":"papendrecht","region":"11","country":"NL","latitude":"51.83167","longitude":"4.6875","population":31621},{"name":"Pijnacker","slug":"pijnacker","region":"11","country":"NL","latitude":"52.01954","longitude":"4.42946","population":18695},{"name":"Purmerend","slug":"purmerend","region":"07","country":"NL","latitude":"52.505","longitude":"4.95972","population":80117},{"name":"Putten","slug":"putten","region":"03","country":"NL","latitude":"52.25917","longitude":"5.60694","population":23168},{"name":"Raalte","slug":"raalte","region":"15","country":"NL","latitude":"52.38583","longitude":"6.275","population":20015},{"name":"Rhenen","slug":"rhenen","region":"09","country":"NL","latitude":"51.95917","longitude":"5.56806","population":18061},{"name":"Rhoon","slug":"rhoon","region":"11","country":"NL","latitude":"51.8575","longitude":"4.42222","population":18250},{"name":"Ridderkerk","slug":"ridderkerk","region":"11","country":"NL","latitude":"51.8725","longitude":"4.60278","population":45189},{"name":"Rijen","slug":"rijen","region":"06","country":"NL","latitude":"51.59083","longitude":"4.91944","population":16230},{"name":"Rijssen","slug":"rijssen","region":"15","country":"NL","latitude":"52.30667","longitude":"6.51806","population":27740},{"name":"Rijswijk","slug":"rijswijk","region":"11","country":"NL","latitude":"52.03634","longitude":"4.32501","population":47299},{"name":"Roermond","slug":"roermond","region":"05","country":"NL","latitude":"51.19417","longitude":"5.9875","population":44975},{"name":"Roosendaal","slug":"roosendaal","region":"06","country":"NL","latitude":"51.53083","longitude":"4.46528","population":77725},{"name":"Rotterdam","slug":"rotterdam","region":"11","country":"NL","latitude":"51.9225","longitude":"4.47917","population":868135},{"name":"Sassenheim","slug":"sassenheim","region":"11","country":"NL","latitude":"52.225","longitude":"4.52222","population":15510},{"name":"Scheveningen","slug":"scheveningen","region":"11","country":"NL","latitude":"52.10461","longitude":"4.27557","population":23000},{"name":"Schiebroek","slug":"schiebroek","region":"11","country":"NL","latitude":"51.95838","longitude":"4.47124","population":16305},{"name":"Schiedam","slug":"schiedam","region":"11","country":"NL","latitude":"51.91917","longitude":"4.38889","population":75438},{"name":"Schijndel","slug":"schijndel","region":"06","country":"NL","latitude":"51.6225","longitude":"5.43194","population":23239},{"name":"Sint-Oedenrode","slug":"sint-oedenrode","region":"06","country":"NL","latitude":"51.5675","longitude":"5.45972","population":16931},{"name":"Sittard","slug":"sittard","region":"05","country":"NL","latitude":"50.99833","longitude":"5.86944","population":48400},{"name":"Sliedrecht","slug":"sliedrecht","region":"11","country":"NL","latitude":"51.82083","longitude":"4.77639","population":23854},{"name":"Sneek","slug":"sneek","region":"02","country":"NL","latitude":"53.03297","longitude":"5.6589","population":32811},{"name":"Soest","slug":"soest","region":"09","country":"NL","latitude":"52.17333","longitude":"5.29167","population":45021},{"name":"Spijkenisse","slug":"spijkenisse","region":"11","country":"NL","latitude":"51.845","longitude":"4.32917","population":74988},{"name":"Stadskanaal","slug":"stadskanaal","region":"04","country":"NL","latitude":"52.98947","longitude":"6.9504","population":20000},{"name":"Staphorst","slug":"staphorst","region":"15","country":"NL","latitude":"52.645","longitude":"6.21111","population":15765},{"name":"Steenbergen","slug":"steenbergen","region":"06","country":"NL","latitude":"51.58417","longitude":"4.31944","population":23582},{"name":"Steenwijk","slug":"steenwijk","region":"15","country":"NL","latitude":"52.7875","longitude":"6.12083","population":17138},{"name":"Tegelen","slug":"tegelen","region":"05","country":"NL","latitude":"51.34417","longitude":"6.13611","population":20190},{"name":"Terneuzen","slug":"terneuzen","region":"10","country":"NL","latitude":"51.33583","longitude":"3.82778","population":27930},{"name":"The Hague","slug":"the hague","region":"11","country":"NL","latitude":"52.07667","longitude":"4.29861","population":474292},{"name":"Tiel","slug":"tiel","region":"03","country":"NL","latitude":"51.88667","longitude":"5.42917","population":40702},{"name":"Tilburg","slug":"tilburg","region":"06","country":"NL","latitude":"51.55551","longitude":"5.0913","population":221947},{"name":"Tongelre","slug":"tongelre","region":"06","country":"NL","latitude":"51.44889","longitude":"5.51978","population":19680},{"name":"Tubbergen","slug":"tubbergen","region":"15","country":"NL","latitude":"52.4075","longitude":"6.78472","population":20334},{"name":"Uden","slug":"uden","region":"06","country":"NL","latitude":"51.66083","longitude":"5.61944","population":34601},{"name":"Uithoorn","slug":"uithoorn","region":"07","country":"NL","latitude":"52.2375","longitude":"4.82639","population":26846},{"name":"Urk","slug":"urk","region":"16","country":"NL","latitude":"52.6625","longitude":"5.60139","population":22173},{"name":"Utrecht","slug":"utrecht","region":"09","country":"NL","latitude":"52.09083","longitude":"5.12222","population":376435},{"name":"Valkenswaard","slug":"valkenswaard","region":"06","country":"NL","latitude":"51.35083","longitude":"5.45972","population":31071},{"name":"Veendam","slug":"veendam","region":"04","country":"NL","latitude":"53.10667","longitude":"6.87917","population":28155},{"name":"Veenendaal","slug":"veenendaal","region":"09","country":"NL","latitude":"52.02863","longitude":"5.55891","population":61271},{"name":"Veghel","slug":"veghel","region":"06","country":"NL","latitude":"51.61667","longitude":"5.54861","population":25352},{"name":"Velp","slug":"velp","region":"03","country":"NL","latitude":"51.995","longitude":"5.97361","population":17669},{"name":"Velsen-Zuid","slug":"velsen-zuid","region":"07","country":"NL","latitude":"52.46","longitude":"4.65","population":67758},{"name":"Velserbroek","slug":"velserbroek","region":"07","country":"NL","latitude":"52.43283","longitude":"4.66155","population":15420},{"name":"Venlo","slug":"venlo","region":"05","country":"NL","latitude":"51.37","longitude":"6.16806","population":101988},{"name":"Venray","slug":"venray","region":"05","country":"NL","latitude":"51.525","longitude":"5.975","population":39047},{"name":"Vianen","slug":"vianen","region":"09","country":"NL","latitude":"51.9925","longitude":"5.09167","population":19931},{"name":"Vlaardingen","slug":"vlaardingen","region":"11","country":"NL","latitude":"51.9125","longitude":"4.34167","population":73798},{"name":"Vlissingen","slug":"vlissingen","region":"10","country":"NL","latitude":"51.4425","longitude":"3.57361","population":45273},{"name":"Volendam","slug":"volendam","region":"07","country":"NL","latitude":"52.495","longitude":"5.07083","population":22000},{"name":"Voorburg","slug":"voorburg","region":"11","country":"NL","latitude":"52.07417","longitude":"4.35972","population":38000},{"name":"Voorschoten","slug":"voorschoten","region":"11","country":"NL","latitude":"52.1275","longitude":"4.44861","population":22468},{"name":"Vught","slug":"vught","region":"06","country":"NL","latitude":"51.65333","longitude":"5.2875","population":25043},{"name":"Waalwijk","slug":"waalwijk","region":"06","country":"NL","latitude":"51.6825","longitude":"5.07083","population":45610},{"name":"Waddinxveen","slug":"waddinxveen","region":"11","country":"NL","latitude":"52.045","longitude":"4.65139","population":25338},{"name":"Wageningen","slug":"wageningen","region":"03","country":"NL","latitude":"51.97","longitude":"5.66667","population":35433},{"name":"Wassenaar","slug":"wassenaar","region":"11","country":"NL","latitude":"52.14583","longitude":"4.40278","population":25353},{"name":"Weert","slug":"weert","region":"05","country":"NL","latitude":"51.25167","longitude":"5.70694","population":48662},{"name":"Weesp","slug":"weesp","region":"07","country":"NL","latitude":"52.3075","longitude":"5.04167","population":17802},{"name":"Wierden","slug":"wierden","region":"15","country":"NL","latitude":"52.35917","longitude":"6.59306","population":25342},{"name":"Wijchen","slug":"wijchen","region":"03","country":"NL","latitude":"51.80917","longitude":"5.725","population":32693},{"name":"Wijk bij Duurstede","slug":"wijk bij duurstede","region":"09","country":"NL","latitude":"51.97417","longitude":"5.34167","population":17465},{"name":"Winschoten","slug":"winschoten","region":"04","country":"NL","latitude":"53.14417","longitude":"7.03472","population":18506},{"name":"Winterswijk","slug":"winterswijk","region":"03","country":"NL","latitude":"51.9725","longitude":"6.71944","population":29623},{"name":"Wisch","slug":"wisch","region":"03","country":"NL","latitude":"51.92648","longitude":"6.41705","population":19496},{"name":"Woerden","slug":"woerden","region":"09","country":"NL","latitude":"52.085","longitude":"4.88333","population":48431},{"name":"Ypenburg","slug":"ypenburg","region":"11","country":"NL","latitude":"52.04098","longitude":"4.36981","population":30000},{"name":"Zaandam","slug":"zaandam","region":"07","country":"NL","latitude":"52.43854","longitude":"4.82643","population":71708},{"name":"Zaanstad","slug":"zaanstad","region":"07","country":"NL","latitude":"52.45313","longitude":"4.81356","population":140085},{"name":"Zaltbommel","slug":"zaltbommel","region":"03","country":"NL","latitude":"51.81","longitude":"5.24444","population":26383},{"name":"Zandvoort","slug":"zandvoort","region":"07","country":"NL","latitude":"52.37125","longitude":"4.53306","population":16868},{"name":"Zeewolde","slug":"zeewolde","region":"16","country":"NL","latitude":"52.33","longitude":"5.54167","population":19022},{"name":"Zeist","slug":"zeist","region":"09","country":"NL","latitude":"52.09","longitude":"5.23333","population":60949},{"name":"Zevenaar","slug":"zevenaar","region":"03","country":"NL","latitude":"51.93","longitude":"6.07083","population":26063},{"name":"Zoetermeer","slug":"zoetermeer","region":"11","country":"NL","latitude":"52.0575","longitude":"4.49306","population":115845},{"name":"Zutphen","slug":"zutphen","region":"03","country":"NL","latitude":"52.13833","longitude":"6.20139","population":36188},{"name":"Zwijndrecht","slug":"zwijndrecht","region":"11","country":"NL","latitude":"51.8175","longitude":"4.63333","population":45696},{"name":"Zwolle","slug":"zwolle","region":"15","country":"NL","latitude":"52.5125","longitude":"6.09444","population":129840}]