[{"name":"Arawa","slug":"arawa","region":"07","country":"PG","latitude":"-6.22977","longitude":"155.56598","population":40266},{"name":"Bulolo","slug":"bulolo","region":"14","country":"PG","latitude":"-7.2036","longitude":"146.64014","population":16042},{"name":"Daru","slug":"daru","region":"06","country":"PG","latitude":"-9.07786","longitude":"143.20893","population":15214},{"name":"Goroka","slug":"goroka","region":"09","country":"PG","latitude":"-6.085","longitude":"145.38667","population":18503},{"name":"Kimbe","slug":"kimbe","region":"17","country":"PG","latitude":"-5.55085","longitude":"150.13766","population":18847},{"name":"Kokopo","slug":"kokopo","region":"10","country":"PG","latitude":"-4.3432","longitude":"152.26867","population":26273},{"name":"Lae","slug":"lae","region":"14","country":"PG","latitude":"-6.72333","longitude":"146.99611","population":76255},{"name":"Madang","slug":"madang","region":"12","country":"PG","latitude":"-5.22152","longitude":"145.78695","population":27419},{"name":"Mendi","slug":"mendi","region":"05","country":"PG","latitude":"-6.14755","longitude":"143.65633","population":26252},{"name":"Mount Hagen","slug":"mount hagen","region":"16","country":"PG","latitude":"-5.85746","longitude":"144.23058","population":33623},{"name":"Popondetta","slug":"popondetta","region":"04","country":"PG","latitude":"-8.76536","longitude":"148.23252","population":28198},{"name":"Port Moresby","slug":"port moresby","region":"20","country":"PG","latitude":"-9.47723","longitude":"147.15089","population":283733},{"name":"Wewak","slug":"wewak","region":"11","country":"PG","latitude":"-3.54964","longitude":"143.63229","population":18230}]