[{"name":"Abucay","slug":"abucay","region":"03","country":"PH","latitude":"14.73347","longitude":"120.53358","population":35508},{"name":"Abuyog","slug":"abuyog","region":"08","country":"PH","latitude":"10.747","longitude":"125.0107","population":15632},{"name":"Aglipay","slug":"aglipay","region":"02","country":"PH","latitude":"16.4889","longitude":"121.645","population":30714},{"name":"Agoo","slug":"agoo","region":"01","country":"PH","latitude":"16.08333","longitude":"120.1","population":28972},{"name":"Al-Barka","slug":"al-barka","region":"14","country":"PH","latitude":"6.48623","longitude":"122.17552","population":23736},{"name":"Alabel","slug":"alabel","region":"12","country":"PH","latitude":"6.10179","longitude":"125.29048","population":90120},{"name":"Alaminos","slug":"alaminos","region":"40","country":"PH","latitude":"14.06391","longitude":"121.24649","population":31427},{"name":"Aliaga","slug":"aliaga","region":"03","country":"PH","latitude":"15.5","longitude":"120.843","population":34020},{"name":"Alicia","slug":"alicia","region":"02","country":"PH","latitude":"16.77936","longitude":"121.69734","population":74699},{"name":"Amadeo","slug":"amadeo","region":"40","country":"PH","latitude":"14.17056","longitude":"120.92361","population":44190},{"name":"Angat","slug":"angat","region":"03","country":"PH","latitude":"14.9285","longitude":"121.03","population":67862},{"name":"Angeles City","slug":"angeles city","region":"03","country":"PH","latitude":"15.15","longitude":"120.58333","population":483452},{"name":"Angono","slug":"angono","region":"40","country":"PH","latitude":"14.5266","longitude":"121.1536","population":134975},{"name":"Antipolo","slug":"antipolo","region":"40","country":"PH","latitude":"14.62578","longitude":"121.12251","population":913712},{"name":"Apalit","slug":"apalit","region":"03","country":"PH","latitude":"14.95333","longitude":"120.77","population":121057},{"name":"Aparri","slug":"aparri","region":"02","country":"PH","latitude":"18.3566","longitude":"121.6406","population":68368},{"name":"Apas","slug":"apas","region":"07","country":"PH","latitude":"10.34076","longitude":"123.90261","population":22566},{"name":"Arayat","slug":"arayat","region":"03","country":"PH","latitude":"15.1505","longitude":"120.7697","population":87987},{"name":"Aringay","slug":"aringay","region":"01","country":"PH","latitude":"16.394","longitude":"120.3545","population":29825},{"name":"Asia","slug":"asia","region":"06","country":"PH","latitude":"9.5506","longitude":"122.5164","population":23546},{"name":"Atimonan","slug":"atimonan","region":"40","country":"PH","latitude":"14.0027","longitude":"121.92078","population":29356},{"name":"Aurora","slug":"aurora","region":"40","country":"PH","latitude":"13.3476","longitude":"122.5195","population":16178},{"name":"Ayala Alabang","slug":"ayala alabang","region":"NCR","country":"PH","latitude":"14.40599","longitude":"121.02222","population":25115},{"name":"Baao","slug":"baao","region":"05","country":"PH","latitude":"13.4549","longitude":"123.3653","population":19612},{"name":"Babo-Pangulo","slug":"babo-pangulo","region":"03","country":"PH","latitude":"15.08333","longitude":"120.51667","population":15066},{"name":"Baclaran","slug":"baclaran","region":"40","country":"PH","latitude":"14.53194","longitude":"120.99417","population":33850},{"name":"Bacolod City","slug":"bacolod city","region":"06","country":"PH","latitude":"10.66667","longitude":"122.95","population":454898},{"name":"Bacoor","slug":"bacoor","region":"40","country":"PH","latitude":"14.45896","longitude":"120.93851","population":356974},{"name":"Baggabag B","slug":"baggabag b","region":"02","country":"PH","latitude":"16.50588","longitude":"121.19014","population":24967},{"name":"Bago City","slug":"bago city","region":"06","country":"PH","latitude":"10.53333","longitude":"122.83333","population":192993},{"name":"Bagong Barrio","slug":"bagong barrio","region":"NCR","country":"PH","latitude":"14.66638","longitude":"120.99322","population":77490},{"name":"Bagong Pagasa","slug":"bagong pagasa","region":"NCR","country":"PH","latitude":"14.6627","longitude":"121.0328","population":29389},{"name":"Bagong Silang","slug":"bagong silang","region":"NCR","country":"PH","latitude":"14.7783","longitude":"121.04487","population":261729},{"name":"Bagong Silangan","slug":"bagong silangan","region":"NCR","country":"PH","latitude":"14.706","longitude":"121.108","population":106886},{"name":"Baguio","slug":"baguio","region":"15","country":"PH","latitude":"16.41639","longitude":"120.59306","population":272714},{"name":"Bah-Bah","slug":"bah-bah","region":"13","country":"PH","latitude":"8.60722","longitude":"125.91444","population":28643},{"name":"Bais","slug":"bais","region":"07","country":"PH","latitude":"9.59111","longitude":"123.12278","population":88050},{"name":"Balagtas","slug":"balagtas","region":"03","country":"PH","latitude":"14.81667","longitude":"120.86667","population":59826},{"name":"Balamban","slug":"balamban","region":"07","country":"PH","latitude":"10.5039","longitude":"123.7156","population":22283},{"name":"Balanga","slug":"balanga","region":"03","country":"PH","latitude":"14.67611","longitude":"120.53611","population":72954},{"name":"Balayan","slug":"balayan","region":"40","country":"PH","latitude":"13.93714","longitude":"120.73224","population":50115},{"name":"Baliuag","slug":"baliuag","region":"03","country":"PH","latitude":"14.95472","longitude":"120.89694","population":135679},{"name":"Bamban","slug":"bamban","region":"03","country":"PH","latitude":"15.27386","longitude":"120.56683","population":78260},{"name":"Bambang","slug":"bambang","region":"02","country":"PH","latitude":"16.3865","longitude":"121.1066","population":60146},{"name":"Banco Filipino Homes","slug":"banco filipino homes","region":"NCR","country":"PH","latitude":"14.43379","longitude":"121.02231","population":92752},{"name":"Bangued","slug":"bangued","region":"15","country":"PH","latitude":"17.60833","longitude":"120.63806","population":48331},{"name":"Bansalan","slug":"bansalan","region":"11","country":"PH","latitude":"6.78611","longitude":"125.21333","population":21391},{"name":"Bantay","slug":"bantay","region":"01","country":"PH","latitude":"17.58472","longitude":"120.38917","population":37088},{"name":"Bantayan","slug":"bantayan","region":"07","country":"PH","latitude":"11.1683","longitude":"123.7223","population":87394},{"name":"Baras","slug":"baras","region":"40","country":"PH","latitude":"14.51691","longitude":"121.2658","population":20250},{"name":"Batac City","slug":"batac city","region":"01","country":"PH","latitude":"18.0554","longitude":"120.56489","population":56781},{"name":"Batangas","slug":"batangas","region":"40","country":"PH","latitude":"13.7567","longitude":"121.0584","population":237370},{"name":"Bato","slug":"bato","region":"05","country":"PH","latitude":"13.3528","longitude":"123.3677","population":16939},{"name":"Bauan","slug":"bauan","region":"40","country":"PH","latitude":"13.7917","longitude":"121.0085","population":33560},{"name":"Bauang","slug":"bauang","region":"01","country":"PH","latitude":"16.53083","longitude":"120.33306","population":77670},{"name":"Bay","slug":"bay","region":"40","country":"PH","latitude":"14.18368","longitude":"121.28554","population":33547},{"name":"Bayambang","slug":"bayambang","region":"01","country":"PH","latitude":"15.8127","longitude":"120.4557","population":129506},{"name":"Bayawan","slug":"bayawan","region":"07","country":"PH","latitude":"9.3649","longitude":"122.804","population":126744},{"name":"Baybay","slug":"baybay","region":"08","country":"PH","latitude":"10.6785","longitude":"124.8006","population":17668},{"name":"Bayombong","slug":"bayombong","region":"02","country":"PH","latitude":"16.4812","longitude":"121.1497","population":48199},{"name":"Bayugan","slug":"bayugan","region":"13","country":"PH","latitude":"8.75611","longitude":"125.7675","population":110313},{"name":"Ba\u00f1ga","slug":"banga","region":"12","country":"PH","latitude":"6.42389","longitude":"124.77833","population":58855},{"name":"Bel Air","slug":"bel air","region":"NCR","country":"PH","latitude":"14.5594","longitude":"121.0258","population":36007},{"name":"Bignay Uno","slug":"bignay uno","region":"40","country":"PH","latitude":"13.86445","longitude":"121.48792","population":22401},{"name":"Binalbagan","slug":"binalbagan","region":"06","country":"PH","latitude":"10.1948","longitude":"122.8581","population":38587},{"name":"Binangonan","slug":"binangonan","region":"40","country":"PH","latitude":"14.4646","longitude":"121.1929","population":219204},{"name":"Binmaley","slug":"binmaley","region":"01","country":"PH","latitude":"16.03232","longitude":"120.26904","population":44026},{"name":"Binondo","slug":"binondo","region":"NCR","country":"PH","latitude":"14.603","longitude":"120.974","population":20491},{"name":"Binonga","slug":"binonga","region":"06","country":"PH","latitude":"10.7719","longitude":"122.9817","population":83980},{"name":"Bislig","slug":"bislig","region":"13","country":"PH","latitude":"8.21528","longitude":"126.31639","population":99872},{"name":"Bi\u00f1an","slug":"binan","region":"40","country":"PH","latitude":"14.34267","longitude":"121.08071","population":300000},{"name":"Bocaue","slug":"bocaue","region":"03","country":"PH","latitude":"14.79833","longitude":"120.92611","population":98649},{"name":"Bogo","slug":"bogo","region":"07","country":"PH","latitude":"11.0517","longitude":"124.0055","population":23562},{"name":"Bongabon","slug":"bongabon","region":"03","country":"PH","latitude":"15.6321","longitude":"121.1448","population":69376},{"name":"Bongao","slug":"bongao","region":"14","country":"PH","latitude":"5.02917","longitude":"119.77306","population":26518},{"name":"Bontoc","slug":"bontoc","region":"15","country":"PH","latitude":"17.08731","longitude":"120.97685","population":23466},{"name":"Borongan","slug":"borongan","region":"08","country":"PH","latitude":"11.60806","longitude":"125.43194","population":71431},{"name":"Boroon","slug":"boroon","region":"10","country":"PH","latitude":"8.18278","longitude":"124.17701","population":15490},{"name":"Botolan","slug":"botolan","region":"03","country":"PH","latitude":"15.2896","longitude":"120.0245","population":22994},{"name":"Brookes Point","slug":"brookes point","region":"41","country":"PH","latitude":"8.77201","longitude":"117.8371","population":76715},{"name":"Budta","slug":"budta","region":"14","country":"PH","latitude":"7.20417","longitude":"124.43972","population":1273715},{"name":"Buenavista","slug":"buenavista","region":"13","country":"PH","latitude":"8.97694","longitude":"125.40889","population":70691},{"name":"Bugo","slug":"bugo","region":"10","country":"PH","latitude":"8.50833","longitude":"124.75944","population":45787},{"name":"Buhi","slug":"buhi","region":"05","country":"PH","latitude":"13.4322","longitude":"123.517","population":30126},{"name":"Bulacan","slug":"bulacan","region":"03","country":"PH","latitude":"14.79278","longitude":"120.87889","population":83101},{"name":"Bulan","slug":"bulan","region":"05","country":"PH","latitude":"12.67139","longitude":"123.875","population":28529},{"name":"Bulaon","slug":"bulaon","region":"03","country":"PH","latitude":"15.08262","longitude":"120.66288","population":131818},{"name":"Buluan","slug":"buluan","region":"14","country":"PH","latitude":"6.72028","longitude":"124.80194","population":60931},{"name":"Bunawan","slug":"bunawan","region":"13","country":"PH","latitude":"8.16722","longitude":"125.99083","population":50999},{"name":"Burauen","slug":"burauen","region":"08","country":"PH","latitude":"10.97556","longitude":"124.89278","population":54635},{"name":"Burgos","slug":"burgos","region":"03","country":"PH","latitude":"15.72892","longitude":"120.57224","population":28178},{"name":"Bustos","slug":"bustos","region":"03","country":"PH","latitude":"14.95806","longitude":"120.91778","population":80565},{"name":"Butuan","slug":"butuan","region":"13","country":"PH","latitude":"8.94917","longitude":"125.54361","population":309709},{"name":"Cabadbaran","slug":"cabadbaran","region":"13","country":"PH","latitude":"9.12261","longitude":"125.53549","population":31114},{"name":"Cabagan","slug":"cabagan","region":"02","country":"PH","latitude":"17.42782","longitude":"121.76955","population":25304},{"name":"Cabanatuan City","slug":"cabanatuan city","region":"03","country":"PH","latitude":"15.48586","longitude":"120.96648","population":343672},{"name":"Cabayangan","slug":"cabayangan","region":"11","country":"PH","latitude":"7.40722","longitude":"125.73306","population":16539},{"name":"Cabiao","slug":"cabiao","region":"03","country":"PH","latitude":"15.2488","longitude":"120.8548","population":49980},{"name":"Cabuyao","slug":"cabuyao","region":"40","country":"PH","latitude":"14.2726","longitude":"121.1262","population":308745},{"name":"Cadiz","slug":"cadiz","region":"06","country":"PH","latitude":"10.9465","longitude":"123.288","population":129053},{"name":"Cagayan de Oro","slug":"cagayan de oro","region":"10","country":"PH","latitude":"8.48222","longitude":"124.64722","population":741617},{"name":"Cainta","slug":"cainta","region":"40","country":"PH","latitude":"14.5786","longitude":"121.1222","population":283172},{"name":"Calabanga","slug":"calabanga","region":"05","country":"PH","latitude":"13.7068","longitude":"123.2087","population":88918},{"name":"Calaca","slug":"calaca","region":"40","country":"PH","latitude":"13.93244","longitude":"120.81327","population":37443},{"name":"Calamba","slug":"calamba","region":"40","country":"PH","latitude":"14.21167","longitude":"121.16528","population":575046},{"name":"Calapan","slug":"calapan","region":"41","country":"PH","latitude":"13.4117","longitude":"121.1803","population":66008},{"name":"Calasiao","slug":"calasiao","region":"01","country":"PH","latitude":"16.0111","longitude":"120.36","population":100686},{"name":"Calatagan","slug":"calatagan","region":"40","country":"PH","latitude":"13.83224","longitude":"120.63219","population":16110},{"name":"Calauag","slug":"calauag","region":"40","country":"PH","latitude":"13.9575","longitude":"122.288","population":68999},{"name":"Calauan","slug":"calauan","region":"40","country":"PH","latitude":"14.14989","longitude":"121.3152","population":89670},{"name":"Calbayog City","slug":"calbayog city","region":"08","country":"PH","latitude":"12.0668","longitude":"124.5962","population":67921},{"name":"Caloocan","slug":"caloocan","region":"NCR","country":"PH","latitude":"14.64953","longitude":"120.96788","population":1712945},{"name":"Calumpang","slug":"calumpang","region":"NCR","country":"PH","latitude":"14.6228","longitude":"121.0897","population":15602},{"name":"Calumpit","slug":"calumpit","region":"03","country":"PH","latitude":"14.91639","longitude":"120.76583","population":122187},{"name":"Camiling","slug":"camiling","region":"03","country":"PH","latitude":"15.6866","longitude":"120.4128","population":39655},{"name":"Candaba","slug":"candaba","region":"03","country":"PH","latitude":"15.0956","longitude":"120.8267","population":47326},{"name":"Candelaria","slug":"candelaria","region":"40","country":"PH","latitude":"13.93111","longitude":"121.42333","population":137933},{"name":"Canlaon","slug":"canlaon","region":"07","country":"PH","latitude":"10.38697","longitude":"123.2227","population":44851},{"name":"Capas","slug":"capas","region":"03","country":"PH","latitude":"15.33117","longitude":"120.5898","population":162724},{"name":"Carcar","slug":"carcar","region":"07","country":"PH","latitude":"10.1061","longitude":"123.6402","population":40739},{"name":"Cardona","slug":"cardona","region":"40","country":"PH","latitude":"14.48646","longitude":"121.22752","population":51493},{"name":"Carigara","slug":"carigara","region":"08","country":"PH","latitude":"11.29811","longitude":"124.67895","population":17495},{"name":"Carmona","slug":"carmona","region":"40","country":"PH","latitude":"14.3132","longitude":"121.0576","population":112140},{"name":"Castillejos","slug":"castillejos","region":"03","country":"PH","latitude":"14.93363","longitude":"120.19785","population":27301},{"name":"Catanauan","slug":"catanauan","region":"40","country":"PH","latitude":"13.5926","longitude":"122.3215","population":26804},{"name":"Catarman","slug":"catarman","region":"08","country":"PH","latitude":"12.4989","longitude":"124.6377","population":97738},{"name":"Catbalogan","slug":"catbalogan","region":"08","country":"PH","latitude":"11.77528","longitude":"124.88611","population":107896},{"name":"Cavite City","slug":"cavite city","region":"40","country":"PH","latitude":"14.48369","longitude":"120.89878","population":115932},{"name":"Cebu City","slug":"cebu city","region":"07","country":"PH","latitude":"10.31672","longitude":"123.89071","population":965332},{"name":"City of Isabela","slug":"city of isabela","region":"14","country":"PH","latitude":"6.70407","longitude":"121.97117","population":67336},{"name":"Cogan","slug":"cogan","region":"07","country":"PH","latitude":"10.59306","longitude":"124.01778","population":60230},{"name":"Commonwealth","slug":"commonwealth","region":"NCR","country":"PH","latitude":"14.6969","longitude":"121.08006","population":215034},{"name":"Compostela","slug":"compostela","region":"07","country":"PH","latitude":"10.455","longitude":"124.0106","population":18727},{"name":"Compostela","slug":"compostela","region":"11","country":"PH","latitude":"7.67306","longitude":"126.08889","population":42563},{"name":"Concepcion","slug":"concepcion","region":"03","country":"PH","latitude":"15.32546","longitude":"120.65723","population":178549},{"name":"Concepcion Ibaba","slug":"concepcion ibaba","region":"40","country":"PH","latitude":"13.92309","longitude":"121.46099","population":25628},{"name":"Consolacion","slug":"consolacion","region":"07","country":"PH","latitude":"10.3766","longitude":"123.9573","population":48638},{"name":"Cordova","slug":"cordova","region":"07","country":"PH","latitude":"10.24394","longitude":"123.94222","population":29289},{"name":"Cotabato","slug":"cotabato","region":"14","country":"PH","latitude":"7.22361","longitude":"124.24639","population":383383},{"name":"Cuenca","slug":"cuenca","region":"40","country":"PH","latitude":"13.902","longitude":"121.0521","population":21558},{"name":"Culion","slug":"culion","region":"41","country":"PH","latitude":"11.8904","longitude":"120.0222","population":23213},{"name":"Daanbantayan","slug":"daanbantayan","region":"07","country":"PH","latitude":"11.24681","longitude":"124.01462","population":95080},{"name":"Daet","slug":"daet","region":"05","country":"PH","latitude":"14.1122","longitude":"122.9553","population":78142},{"name":"Dagupan","slug":"dagupan","region":"01","country":"PH","latitude":"16.04313","longitude":"120.33325","population":171271},{"name":"Danao","slug":"danao","region":"07","country":"PH","latitude":"10.52083","longitude":"124.02722","population":70270},{"name":"Danao","slug":"danao","region":"07","country":"PH","latitude":"9.55421","longitude":"123.75648","population":20245},{"name":"Dapitan","slug":"dapitan","region":"09","country":"PH","latitude":"8.6561","longitude":"123.4227","population":87699},{"name":"Dasmari\u00f1as","slug":"dasmarinas","region":"40","country":"PH","latitude":"14.32944","longitude":"120.93667","population":441876},{"name":"Davao","slug":"davao","region":"11","country":"PH","latitude":"7.07306","longitude":"125.61278","population":1848947},{"name":"Del Pilar","slug":"del pilar","region":"03","country":"PH","latitude":"15.03601","longitude":"120.69935","population":37329},{"name":"Del Remedio","slug":"del remedio","region":"40","country":"PH","latitude":"14.0866","longitude":"121.3118","population":17871},{"name":"Diadi","slug":"diadi","region":"02","country":"PH","latitude":"16.7262","longitude":"121.3589","population":15567},{"name":"Digos","slug":"digos","region":"11","country":"PH","latitude":"6.74972","longitude":"125.35722","population":116122},{"name":"Dinaig","slug":"dinaig","region":"14","country":"PH","latitude":"7.16985","longitude":"124.20836","population":116768},{"name":"Dinalupihan","slug":"dinalupihan","region":"03","country":"PH","latitude":"14.87827","longitude":"120.45221","population":66670},{"name":"Dipolog","slug":"dipolog","region":"09","country":"PH","latitude":"8.56697","longitude":"123.33471","population":93549},{"name":"Dologon","slug":"dologon","region":"10","country":"PH","latitude":"7.84083","longitude":"125.04444","population":15128},{"name":"Domalanoan","slug":"domalanoan","region":"01","country":"PH","latitude":"16.00292","longitude":"120.21154","population":15108},{"name":"Don Carlos","slug":"don carlos","region":"10","country":"PH","latitude":"7.68","longitude":"125.005","population":73592},{"name":"Dumaguete","slug":"dumaguete","region":"07","country":"PH","latitude":"9.30646","longitude":"123.30769","population":113541},{"name":"Dupax Del Norte","slug":"dupax del norte","region":"02","country":"PH","latitude":"16.3079","longitude":"121.1062","population":33295},{"name":"Dupax del Sur","slug":"dupax del sur","region":"02","country":"PH","latitude":"16.2838","longitude":"121.0896","population":21224},{"name":"El Nido","slug":"el nido","region":"41","country":"PH","latitude":"11.18583","longitude":"119.39556","population":51367},{"name":"Enrique B. Magalona","slug":"enrique b. magalona","region":"06","country":"PH","latitude":"10.87879","longitude":"122.97707","population":64290},{"name":"Escalante","slug":"escalante","region":"06","country":"PH","latitude":"10.84028","longitude":"123.49917","population":97050},{"name":"Esperanza","slug":"esperanza","region":"05","country":"PH","latitude":"11.7365","longitude":"124.042","population":17534},{"name":"Estancia","slug":"estancia","region":"06","country":"PH","latitude":"11.4551","longitude":"123.152","population":54882},{"name":"Gapan","slug":"gapan","region":"03","country":"PH","latitude":"15.3072","longitude":"120.9464","population":129610},{"name":"General Emilio Aguinaldo","slug":"general emilio aguinaldo","region":"40","country":"PH","latitude":"14.18417","longitude":"120.79583","population":24264},{"name":"General Mamerto Natividad","slug":"general mamerto natividad","region":"03","country":"PH","latitude":"15.6025","longitude":"121.0515","population":18393},{"name":"General Salipada K. Pendatun","slug":"general salipada k. pendatun","region":"14","country":"PH","latitude":"6.82626","longitude":"124.72171","population":31263},{"name":"General Santos","slug":"general santos","region":"12","country":"PH","latitude":"6.11278","longitude":"125.17167","population":722059},{"name":"General Tinio","slug":"general tinio","region":"03","country":"PH","latitude":"15.35075","longitude":"121.04773","population":32875},{"name":"General Trias","slug":"general trias","region":"40","country":"PH","latitude":"14.38694","longitude":"120.88167","population":96022},{"name":"Gerona","slug":"gerona","region":"03","country":"PH","latitude":"15.6065","longitude":"120.5978","population":40914},{"name":"Gingoog","slug":"gingoog","region":"10","country":"PH","latitude":"8.82778","longitude":"125.09972","population":138895},{"name":"Glan","slug":"glan","region":"12","country":"PH","latitude":"5.82417","longitude":"125.20333","population":24256},{"name":"Goa","slug":"goa","region":"05","country":"PH","latitude":"13.6978","longitude":"123.4892","population":20936},{"name":"Gubat","slug":"gubat","region":"05","country":"PH","latitude":"12.92056","longitude":"124.12306","population":61095},{"name":"Guiguinto","slug":"guiguinto","region":"03","country":"PH","latitude":"14.83333","longitude":"120.88333","population":118173},{"name":"Guihul\u00f1gan","slug":"guihulngan","region":"07","country":"PH","latitude":"10.11947","longitude":"123.27287","population":22931},{"name":"Guimba","slug":"guimba","region":"03","country":"PH","latitude":"15.6605","longitude":"120.7683","population":32306},{"name":"Guiset East","slug":"guiset east","region":"01","country":"PH","latitude":"16.06667","longitude":"120.68333","population":21994},{"name":"Gumaca","slug":"gumaca","region":"40","country":"PH","latitude":"13.921","longitude":"122.1002","population":22496},{"name":"Guyong","slug":"guyong","region":"03","country":"PH","latitude":"14.8361","longitude":"120.97844","population":155391},{"name":"Hagonoy","slug":"hagonoy","region":"03","country":"PH","latitude":"14.83413","longitude":"120.73271","population":123531},{"name":"Hermosa","slug":"hermosa","region":"03","country":"PH","latitude":"14.8314","longitude":"120.5081","population":33714},{"name":"Himamaylan","slug":"himamaylan","region":"06","country":"PH","latitude":"10.09889","longitude":"122.87056","population":117286},{"name":"Hinatuan","slug":"hinatuan","region":"13","country":"PH","latitude":"8.37222","longitude":"126.33417","population":44475},{"name":"Hinigaran","slug":"hinigaran","region":"06","country":"PH","latitude":"10.2706","longitude":"122.8507","population":39636},{"name":"Iba","slug":"iba","region":"03","country":"PH","latitude":"15.3276","longitude":"119.978","population":26935},{"name":"Ilagan","slug":"ilagan","region":"02","country":"PH","latitude":"17.14854","longitude":"121.88924","population":164020},{"name":"Iligan","slug":"iligan","region":"10","country":"PH","latitude":"8.2289","longitude":"124.24344","population":342618},{"name":"Iligan City","slug":"iligan city","region":"12","country":"PH","latitude":"8.25","longitude":"124.4","population":312323},{"name":"Iloilo","slug":"iloilo","region":"06","country":"PH","latitude":"10.69694","longitude":"122.56444","population":473728},{"name":"Impasugong","slug":"impasugong","region":"10","country":"PH","latitude":"8.30972","longitude":"125.00194","population":55901},{"name":"Imus","slug":"imus","region":"40","country":"PH","latitude":"14.42972","longitude":"120.93667","population":481949},{"name":"Inabanga","slug":"inabanga","region":"07","country":"PH","latitude":"10.0307","longitude":"124.0671","population":48534},{"name":"Indang","slug":"indang","region":"40","country":"PH","latitude":"14.19528","longitude":"120.87694","population":70092},{"name":"Inopacan","slug":"inopacan","region":"08","country":"PH","latitude":"10.4997","longitude":"124.7405","population":21389},{"name":"Ipil","slug":"ipil","region":"09","country":"PH","latitude":"7.78444","longitude":"122.58611","population":19195},{"name":"Iriga City","slug":"iriga city","region":"05","country":"PH","latitude":"13.4324","longitude":"123.4115","population":115306},{"name":"Irosin","slug":"irosin","region":"05","country":"PH","latitude":"12.70013","longitude":"124.03221","population":20716},{"name":"Isabela","slug":"isabela","region":"06","country":"PH","latitude":"10.2048","longitude":"122.9888","population":15897},{"name":"Isulan","slug":"isulan","region":"12","country":"PH","latitude":"6.62944","longitude":"124.605","population":101455},{"name":"Itogon","slug":"itogon","region":"15","country":"PH","latitude":"16.36389","longitude":"120.67694","population":59736},{"name":"Jaen","slug":"jaen","region":"03","country":"PH","latitude":"15.3275","longitude":"120.9192","population":39700},{"name":"Jagna","slug":"jagna","region":"07","country":"PH","latitude":"9.6531","longitude":"124.3697","population":32566},{"name":"Jalajala","slug":"jalajala","region":"40","country":"PH","latitude":"14.353","longitude":"121.3225","population":34901},{"name":"Jasaan","slug":"jasaan","region":"10","country":"PH","latitude":"8.65417","longitude":"124.75556","population":16435},{"name":"Jetafe","slug":"jetafe","region":"07","country":"PH","latitude":"10.14722","longitude":"124.15389","population":33485},{"name":"Jolo","slug":"jolo","region":"14","country":"PH","latitude":"6.05222","longitude":"121.00222","population":101002},{"name":"Jose Pa\u00f1ganiban","slug":"jose panganiban","region":"05","country":"PH","latitude":"14.2906","longitude":"122.6917","population":21236},{"name":"Jose Rizal","slug":"jose rizal","region":"41","country":"PH","latitude":"8.87722","longitude":"117.50415","population":59040},{"name":"Kabacan","slug":"kabacan","region":"12","country":"PH","latitude":"7.10667","longitude":"124.82917","population":31769},{"name":"Kabankalan","slug":"kabankalan","region":"06","country":"PH","latitude":"9.9839","longitude":"122.81423","population":210893},{"name":"Kalamansig","slug":"kalamansig","region":"12","country":"PH","latitude":"6.55187","longitude":"124.05111","population":52257},{"name":"Kalibo (poblacion)","slug":"kalibo (poblacion)","region":"06","country":"PH","latitude":"11.70611","longitude":"122.36444","population":89127},{"name":"Kawit","slug":"kawit","region":"40","country":"PH","latitude":"14.44426","longitude":"120.90164","population":73210},{"name":"Kidapawan","slug":"kidapawan","region":"12","country":"PH","latitude":"7.00833","longitude":"125.08944","population":79652},{"name":"Koronadal","slug":"koronadal","region":"12","country":"PH","latitude":"6.50306","longitude":"124.84694","population":201844},{"name":"La Carlota","slug":"la carlota","region":"06","country":"PH","latitude":"10.4242","longitude":"122.9212","population":67740},{"name":"La Castellana","slug":"la castellana","region":"06","country":"PH","latitude":"10.3239","longitude":"123.0215","population":24407},{"name":"La Paz","slug":"la paz","region":"03","country":"PH","latitude":"15.44125","longitude":"120.72863","population":71978},{"name":"La Trinidad","slug":"la trinidad","region":"15","country":"PH","latitude":"16.455","longitude":"120.5875","population":142925},{"name":"Labo","slug":"labo","region":"05","country":"PH","latitude":"14.1532","longitude":"122.8303","population":18105},{"name":"Lagawe","slug":"lagawe","region":"15","country":"PH","latitude":"16.79997","longitude":"121.11924","population":19124},{"name":"Laguilayan","slug":"laguilayan","region":"12","country":"PH","latitude":"6.67213","longitude":"124.52491","population":17764},{"name":"Lake Sebu","slug":"lake sebu","region":"12","country":"PH","latitude":"6.22482","longitude":"124.71042","population":21767},{"name":"Lambayong","slug":"lambayong","region":"12","country":"PH","latitude":"6.51944","longitude":"125.04444","population":81288},{"name":"Laoag","slug":"laoag","region":"01","country":"PH","latitude":"18.1978","longitude":"120.5957","population":112117},{"name":"Laoang","slug":"laoang","region":"08","country":"PH","latitude":"12.5698","longitude":"125.0141","population":16725},{"name":"Lapu-Lapu City","slug":"lapu-lapu city","region":"07","country":"PH","latitude":"10.31028","longitude":"123.94944","population":497813},{"name":"Las Pi\u00f1as","slug":"las pinas","region":"NCR","country":"PH","latitude":"14.45056","longitude":"120.98278","population":615549},{"name":"Laur","slug":"laur","region":"03","country":"PH","latitude":"15.5865","longitude":"121.1834","population":19206},{"name":"Legaspi","slug":"legaspi","region":"05","country":"PH","latitude":"13.14125","longitude":"123.74073","population":179481},{"name":"Libertad","slug":"libertad","region":"13","country":"PH","latitude":"8.94417","longitude":"125.50194","population":250353},{"name":"Libon","slug":"libon","region":"05","country":"PH","latitude":"13.2997","longitude":"123.4386","population":68846},{"name":"Lilio","slug":"lilio","region":"40","country":"PH","latitude":"14.1313","longitude":"121.4362","population":15246},{"name":"Liloan","slug":"liloan","region":"07","country":"PH","latitude":"10.3991","longitude":"123.9992","population":49198},{"name":"Limay","slug":"limay","region":"03","country":"PH","latitude":"14.56194","longitude":"120.59833","population":81960},{"name":"Lingayen","slug":"lingayen","region":"01","country":"PH","latitude":"16.02182","longitude":"120.23194","population":56580},{"name":"Lipa City","slug":"lipa city","region":"40","country":"PH","latitude":"13.9411","longitude":"121.1631","population":212287},{"name":"Loboc","slug":"loboc","region":"07","country":"PH","latitude":"9.63833","longitude":"124.03482","population":16312},{"name":"Loma de Gato","slug":"loma de gato","region":"03","country":"PH","latitude":"14.78869","longitude":"120.99889","population":21990},{"name":"Lopez","slug":"lopez","region":"40","country":"PH","latitude":"13.884","longitude":"122.2604","population":25752},{"name":"Los Ba\u00f1os","slug":"los banos","region":"40","country":"PH","latitude":"14.17025","longitude":"121.24181","population":117030},{"name":"Lubao","slug":"lubao","region":"03","country":"PH","latitude":"14.9405","longitude":"120.6011","population":55645},{"name":"Lucban","slug":"lucban","region":"40","country":"PH","latitude":"14.11356","longitude":"121.55574","population":30992},{"name":"Lucena","slug":"lucena","region":"40","country":"PH","latitude":"13.93139","longitude":"121.61722","population":228758},{"name":"Lumbang","slug":"lumbang","region":"40","country":"PH","latitude":"14.2973","longitude":"121.4598","population":30269},{"name":"Lupon","slug":"lupon","region":"11","country":"PH","latitude":"6.89814","longitude":"126.00961","population":68717},{"name":"Maao","slug":"maao","region":"06","country":"PH","latitude":"10.4896","longitude":"122.9907","population":25837},{"name":"Maasin","slug":"maasin","region":"08","country":"PH","latitude":"10.13272","longitude":"124.84082","population":18313},{"name":"Mabalacat City","slug":"mabalacat city","region":"03","country":"PH","latitude":"15.22303","longitude":"120.57117","population":188050},{"name":"Maco","slug":"maco","region":"11","country":"PH","latitude":"7.36194","longitude":"125.85528","population":87680},{"name":"Magalang","slug":"magalang","region":"03","country":"PH","latitude":"15.2151","longitude":"120.6596","population":68988},{"name":"Maganoy","slug":"maganoy","region":"14","country":"PH","latitude":"6.86472","longitude":"124.44167","population":17394},{"name":"Magarao","slug":"magarao","region":"05","country":"PH","latitude":"13.6604","longitude":"123.1869","population":15205},{"name":"Magsaysay","slug":"magsaysay","region":"11","country":"PH","latitude":"6.76667","longitude":"125.18333","population":57936},{"name":"Magugpo Poblacion","slug":"magugpo poblacion","region":"11","country":"PH","latitude":"7.4475","longitude":"125.8046","population":233254},{"name":"Mahayag","slug":"mahayag","region":"09","country":"PH","latitude":"8.1183","longitude":"123.4455","population":17144},{"name":"Majayjay","slug":"majayjay","region":"40","country":"PH","latitude":"14.1463","longitude":"121.4729","population":28504},{"name":"Makati City","slug":"makati city","region":"NCR","country":"PH","latitude":"14.55027","longitude":"121.03269","population":510383},{"name":"Malabanban Norte","slug":"malabanban norte","region":"40","country":"PH","latitude":"13.94521","longitude":"121.43065","population":19471},{"name":"Malabon","slug":"malabon","region":"NCR","country":"PH","latitude":"14.67333","longitude":"120.93972","population":365525},{"name":"Malanday","slug":"malanday","region":"03","country":"PH","latitude":"14.71694","longitude":"120.95806","population":19060},{"name":"Malanday","slug":"malanday","region":"40","country":"PH","latitude":"14.7069","longitude":"121.1306","population":21901},{"name":"Malapatan","slug":"malapatan","region":"12","country":"PH","latitude":"5.96917","longitude":"125.28944","population":82577},{"name":"Malaybalay","slug":"malaybalay","region":"10","country":"PH","latitude":"8.1575","longitude":"125.12778","population":61524},{"name":"Malilipot","slug":"malilipot","region":"05","country":"PH","latitude":"13.3188","longitude":"123.7385","population":41066},{"name":"Malingao","slug":"malingao","region":"12","country":"PH","latitude":"7.16083","longitude":"124.475","population":1121974},{"name":"Malita","slug":"malita","region":"11","country":"PH","latitude":"6.415","longitude":"125.61167","population":118438},{"name":"Malolos","slug":"malolos","region":"03","country":"PH","latitude":"14.8443","longitude":"120.81039","population":269809},{"name":"Maluso","slug":"maluso","region":"14","country":"PH","latitude":"6.543","longitude":"121.8753","population":31374},{"name":"Malu\u00f1gun","slug":"malungun","region":"12","country":"PH","latitude":"6.27917","longitude":"125.28167","population":52248},{"name":"Malvar","slug":"malvar","region":"40","country":"PH","latitude":"14.04472","longitude":"121.15861","population":29880},{"name":"Mamatid","slug":"mamatid","region":"40","country":"PH","latitude":"14.2349","longitude":"121.15902","population":40271},{"name":"Mamburao","slug":"mamburao","region":"41","country":"PH","latitude":"13.2233","longitude":"120.596","population":23892},{"name":"Manaoag","slug":"manaoag","region":"01","country":"PH","latitude":"16.0438","longitude":"120.4861","population":59115},{"name":"Manapla","slug":"manapla","region":"06","country":"PH","latitude":"10.95803","longitude":"123.123","population":34312},{"name":"Manay","slug":"manay","region":"11","country":"PH","latitude":"7.215","longitude":"126.53972","population":20336},{"name":"Mandaluyong","slug":"mandaluyong","region":"NCR","country":"PH","latitude":"14.57837","longitude":"121.03522","population":425000},{"name":"Mandaluyong City","slug":"mandaluyong city","region":"NCR","country":"PH","latitude":"14.5832","longitude":"121.0409","population":465902},{"name":"Mandaue City","slug":"mandaue city","region":"07","country":"PH","latitude":"10.32361","longitude":"123.92222","population":331320},{"name":"Mangaldan","slug":"mangaldan","region":"01","country":"PH","latitude":"16.07","longitude":"120.4025","population":88818},{"name":"Manibaug Pasig","slug":"manibaug pasig","region":"03","country":"PH","latitude":"15.09621","longitude":"120.56445","population":24618},{"name":"Manila","slug":"manila","region":"NCR","country":"PH","latitude":"14.6042","longitude":"120.9822","population":1600000},{"name":"Mankayan","slug":"mankayan","region":"15","country":"PH","latitude":"16.8632","longitude":"120.7829","population":15886},{"name":"Manolo Fortich","slug":"manolo fortich","region":"10","country":"PH","latitude":"8.36972","longitude":"124.86444","population":118075},{"name":"Mansalay","slug":"mansalay","region":"41","country":"PH","latitude":"12.52044","longitude":"121.43851","population":23044},{"name":"Mansilingan","slug":"mansilingan","region":"06","country":"PH","latitude":"10.63111","longitude":"122.97889","population":454150},{"name":"Mantampay","slug":"mantampay","region":"10","country":"PH","latitude":"8.16667","longitude":"124.21667","population":265032},{"name":"Mapun","slug":"mapun","region":"41","country":"PH","latitude":"6.9747","longitude":"118.5144","population":29218},{"name":"Maragondon","slug":"maragondon","region":"40","country":"PH","latitude":"14.2733","longitude":"120.7377","population":41977},{"name":"Maramag","slug":"maramag","region":"10","country":"PH","latitude":"7.76333","longitude":"125.00528","population":109864},{"name":"Marawi City","slug":"marawi city","region":"14","country":"PH","latitude":"8.0034","longitude":"124.28395","population":259993},{"name":"Mariano","slug":"mariano","region":"10","country":"PH","latitude":"8.83333","longitude":"125.11667","population":70516},{"name":"Marikina City","slug":"marikina city","region":"NCR","country":"PH","latitude":"14.6481","longitude":"121.1133","population":471323},{"name":"Marilao","slug":"marilao","region":"03","country":"PH","latitude":"14.75778","longitude":"120.94833","population":83276},{"name":"Mariveles","slug":"mariveles","region":"03","country":"PH","latitude":"14.43385","longitude":"120.48569","population":156200},{"name":"Masantol","slug":"masantol","region":"03","country":"PH","latitude":"14.896","longitude":"120.7092","population":41278},{"name":"Masbate","slug":"masbate","region":"05","country":"PH","latitude":"12.37169","longitude":"123.62494","population":47490},{"name":"Masinloc","slug":"masinloc","region":"03","country":"PH","latitude":"15.5363","longitude":"119.9502","population":56579},{"name":"Mati","slug":"mati","region":"11","country":"PH","latitude":"6.95508","longitude":"126.21655","population":105908},{"name":"Mauban","slug":"mauban","region":"40","country":"PH","latitude":"14.191","longitude":"121.7309","population":70135},{"name":"Mendez-Nu\u00f1ez","slug":"mendez-nunez","region":"40","country":"PH","latitude":"14.12861","longitude":"120.90583","population":36518},{"name":"Mercedes","slug":"mercedes","region":"05","country":"PH","latitude":"14.1093","longitude":"123.0109","population":53702},{"name":"Mexico","slug":"mexico","region":"03","country":"PH","latitude":"15.0646","longitude":"120.7198","population":43694},{"name":"Meycauayan","slug":"meycauayan","region":"03","country":"PH","latitude":"14.73694","longitude":"120.96083","population":228023},{"name":"Midsayap","slug":"midsayap","region":"12","country":"PH","latitude":"7.19083","longitude":"124.53028","population":117365},{"name":"Minglanilla","slug":"minglanilla","region":"07","country":"PH","latitude":"10.24498","longitude":"123.7964","population":62058},{"name":"Molave","slug":"molave","region":"09","country":"PH","latitude":"8.0844","longitude":"123.491","population":21088},{"name":"Monkayo","slug":"monkayo","region":"11","country":"PH","latitude":"7.81528","longitude":"126.05444","population":96405},{"name":"Morong","slug":"morong","region":"03","country":"PH","latitude":"14.67889","longitude":"120.26611","population":16117},{"name":"Morong","slug":"morong","region":"40","country":"PH","latitude":"14.51849","longitude":"121.23778","population":49589},{"name":"Murcia","slug":"murcia","region":"06","country":"PH","latitude":"10.60516","longitude":"123.0417","population":17448},{"name":"Muricay","slug":"muricay","region":"09","country":"PH","latitude":"7.8275","longitude":"123.4782","population":132094},{"name":"Mu\u00f1oz","slug":"munoz","region":"03","country":"PH","latitude":"15.71611","longitude":"120.90306","population":85061},{"name":"NIA Valencia","slug":"nia valencia","region":"10","country":"PH","latitude":"7.90639","longitude":"125.09417","population":223620},{"name":"Nabua","slug":"nabua","region":"05","country":"PH","latitude":"13.4075","longitude":"123.3724","population":25687},{"name":"Nabunturan","slug":"nabunturan","region":"11","country":"PH","latitude":"7.60778","longitude":"125.96639","population":16671},{"name":"Naga","slug":"naga","region":"05","country":"PH","latitude":"13.61917","longitude":"123.18139","population":174931},{"name":"Naga","slug":"naga","region":"07","country":"PH","latitude":"10.20898","longitude":"123.758","population":138727},{"name":"Nagcarlan","slug":"nagcarlan","region":"40","country":"PH","latitude":"14.1364","longitude":"121.4165","population":24560},{"name":"Naic","slug":"naic","region":"40","country":"PH","latitude":"14.31812","longitude":"120.76609","population":55195},{"name":"Narra","slug":"narra","region":"41","country":"PH","latitude":"9.26877","longitude":"118.4043","population":28342},{"name":"Nasugbu","slug":"nasugbu","region":"40","country":"PH","latitude":"14.06694","longitude":"120.63181","population":62857},{"name":"Navotas","slug":"navotas","region":"NCR","country":"PH","latitude":"14.66667","longitude":"120.95","population":249463},{"name":"New Corella","slug":"new corella","region":"11","country":"PH","latitude":"7.5866","longitude":"125.8237","population":20574},{"name":"Norala","slug":"norala","region":"12","country":"PH","latitude":"6.5225","longitude":"124.65917","population":48499},{"name":"Norzagaray","slug":"norzagaray","region":"03","country":"PH","latitude":"14.9109","longitude":"121.0493","population":140697},{"name":"Novaliches Proper","slug":"novaliches proper","region":"NCR","country":"PH","latitude":"14.72259","longitude":"121.04616","population":16096},{"name":"Noveleta","slug":"noveleta","region":"40","country":"PH","latitude":"14.42922","longitude":"120.87989","population":46172},{"name":"Nunungan","slug":"nunungan","region":"10","country":"PH","latitude":"7.8236","longitude":"123.965","population":18827},{"name":"Oas","slug":"oas","region":"05","country":"PH","latitude":"13.2593","longitude":"123.4963","population":64890},{"name":"Obando","slug":"obando","region":"03","country":"PH","latitude":"14.7098","longitude":"120.9362","population":59929},{"name":"Olongapo","slug":"olongapo","region":"03","country":"PH","latitude":"14.82917","longitude":"120.28278","population":221178},{"name":"Orani","slug":"orani","region":"03","country":"PH","latitude":"14.8006","longitude":"120.5371","population":44877},{"name":"Orion","slug":"orion","region":"03","country":"PH","latitude":"14.62056","longitude":"120.58167","population":63044},{"name":"Ormoc","slug":"ormoc","region":"08","country":"PH","latitude":"11.00639","longitude":"124.6075","population":238545},{"name":"Oroquieta","slug":"oroquieta","region":"10","country":"PH","latitude":"8.4859","longitude":"123.8048","population":71373},{"name":"Ozamiz City","slug":"ozamiz city","region":"10","country":"PH","latitude":"8.1481","longitude":"123.8405","population":93082},{"name":"Paco","slug":"paco","region":"NCR","country":"PH","latitude":"14.588","longitude":"120.993","population":79839},{"name":"Pacol","slug":"pacol","region":"06","country":"PH","latitude":"10.45","longitude":"122.81667","population":19839},{"name":"Paete","slug":"paete","region":"40","country":"PH","latitude":"14.3647","longitude":"121.4829","population":26855},{"name":"Pagadian","slug":"pagadian","region":"09","country":"PH","latitude":"7.8257","longitude":"123.437","population":206483},{"name":"Pagalu\u00f1gan","slug":"pagalungan","region":"14","country":"PH","latitude":"7.14167","longitude":"124.38056","population":31052},{"name":"Pagbilao","slug":"pagbilao","region":"40","country":"PH","latitude":"13.96689","longitude":"121.69835","population":82132},{"name":"Palayan City","slug":"palayan city","region":"03","country":"PH","latitude":"15.5415","longitude":"121.0848","population":23742},{"name":"Palo","slug":"palo","region":"08","country":"PH","latitude":"11.1575","longitude":"124.99083","population":17534},{"name":"Panabo","slug":"panabo","region":"11","country":"PH","latitude":"7.30806","longitude":"125.68417","population":211242},{"name":"Panalanoy","slug":"panalanoy","region":"08","country":"PH","latitude":"11.25111","longitude":"125.00639","population":189090},{"name":"Pandacaqui","slug":"pandacaqui","region":"03","country":"PH","latitude":"15.1719","longitude":"120.65457","population":28603},{"name":"Pandan","slug":"pandan","region":"06","country":"PH","latitude":"11.74479","longitude":"122.10027","population":37325},{"name":"Pandi","slug":"pandi","region":"03","country":"PH","latitude":"14.865","longitude":"120.95722","population":162725},{"name":"Pangil","slug":"pangil","region":"40","country":"PH","latitude":"14.4033","longitude":"121.46506","population":25318},{"name":"Paniqui","slug":"paniqui","region":"03","country":"PH","latitude":"15.6689","longitude":"120.5806","population":106190},{"name":"Pantubig","slug":"pantubig","region":"03","country":"PH","latitude":"14.96806","longitude":"120.95472","population":39285},{"name":"Paombong","slug":"paombong","region":"03","country":"PH","latitude":"14.83111","longitude":"120.78917","population":58453},{"name":"Papaya","slug":"papaya","region":"03","country":"PH","latitude":"15.32016","longitude":"120.83574","population":38640},{"name":"Paraiso","slug":"paraiso","region":"06","country":"PH","latitude":"10.8849","longitude":"123.3627","population":30494},{"name":"Paranaque City","slug":"paranaque city","region":"NCR","country":"PH","latitude":"14.48156","longitude":"121.01749","population":703245},{"name":"Parang","slug":"parang","region":"14","country":"PH","latitude":"7.37035","longitude":"124.26973","population":44930},{"name":"Pasay","slug":"pasay","region":"NCR","country":"PH","latitude":"14.53748","longitude":"121.00144","population":416522},{"name":"Pasig City","slug":"pasig city","region":"NCR","country":"PH","latitude":"14.58691","longitude":"121.0614","population":853050},{"name":"Passi","slug":"passi","region":"06","country":"PH","latitude":"11.10778","longitude":"122.64194","population":42794},{"name":"Pateros","slug":"pateros","region":"NCR","country":"PH","latitude":"14.5391","longitude":"121.0726","population":63840},{"name":"Patuto","slug":"patuto","region":"40","country":"PH","latitude":"14.11667","longitude":"120.96667","population":52883},{"name":"Pe\u00f1aranda","slug":"penaranda","region":"03","country":"PH","latitude":"15.35116","longitude":"121.00393","population":27465},{"name":"Pila","slug":"pila","region":"40","country":"PH","latitude":"14.2325","longitude":"121.3648","population":34383},{"name":"Pilar","slug":"pilar","region":"03","country":"PH","latitude":"14.66","longitude":"120.56528","population":17831},{"name":"Pililla","slug":"pililla","region":"40","country":"PH","latitude":"14.4854","longitude":"121.3062","population":30408},{"name":"Pinamalayan","slug":"pinamalayan","region":"41","country":"PH","latitude":"13.04603","longitude":"121.46205","population":43521},{"name":"Pinamungahan","slug":"pinamungahan","region":"07","country":"PH","latitude":"10.2708","longitude":"123.5839","population":23068},{"name":"Pio","slug":"pio","region":"03","country":"PH","latitude":"15.04741","longitude":"120.51891","population":24345},{"name":"Plaridel","slug":"plaridel","region":"03","country":"PH","latitude":"14.88722","longitude":"120.85722","population":120939},{"name":"Polangui","slug":"polangui","region":"05","country":"PH","latitude":"13.2923","longitude":"123.4855","population":89176},{"name":"Polomolok","slug":"polomolok","region":"12","country":"PH","latitude":"6.22167","longitude":"125.06398","population":63987},{"name":"Porac","slug":"porac","region":"03","country":"PH","latitude":"15.0711","longitude":"120.5423","population":21660},{"name":"Port Area","slug":"port area","region":"NCR","country":"PH","latitude":"14.58945","longitude":"120.96698","population":72605},{"name":"Prosperidad","slug":"prosperidad","region":"13","country":"PH","latitude":"8.58","longitude":"125.89639","population":90162},{"name":"Puerto Princesa","slug":"puerto princesa","region":"41","country":"PH","latitude":"9.73917","longitude":"118.73528","population":222673},{"name":"Pulilan","slug":"pulilan","region":"03","country":"PH","latitude":"14.90167","longitude":"120.84917","population":111384},{"name":"Pulong Santa Cruz","slug":"pulong santa cruz","region":"40","country":"PH","latitude":"14.27324","longitude":"121.07643","population":126844},{"name":"Pulupandan","slug":"pulupandan","region":"06","country":"PH","latitude":"10.51784","longitude":"122.80259","population":27363},{"name":"Quezon","slug":"quezon","region":"03","country":"PH","latitude":"15.5512","longitude":"120.8147","population":18451},{"name":"Quezon","slug":"quezon","region":"10","country":"PH","latitude":"7.73028","longitude":"125.09889","population":114521},{"name":"Quezon City","slug":"quezon city","region":"NCR","country":"PH","latitude":"14.6488","longitude":"121.0509","population":3084270},{"name":"Quiapo","slug":"quiapo","region":"NCR","country":"PH","latitude":"14.6","longitude":"120.9833","population":32236},{"name":"Ramon","slug":"ramon","region":"02","country":"PH","latitude":"16.78416","longitude":"121.53504","population":36307},{"name":"Ramos","slug":"ramos","region":"03","country":"PH","latitude":"15.6653","longitude":"120.6406","population":15066},{"name":"Recodo","slug":"recodo","region":"09","country":"PH","latitude":"6.95194","longitude":"121.96361","population":42788},{"name":"Rizal","slug":"rizal","region":"03","country":"PH","latitude":"15.7118","longitude":"121.1061","population":26201},{"name":"Rodriguez","slug":"rodriguez","region":"40","country":"PH","latitude":"14.76011","longitude":"121.19993","population":134432},{"name":"Romblon","slug":"romblon","region":"41","country":"PH","latitude":"12.57513","longitude":"122.27081","population":15316},{"name":"Rosales","slug":"rosales","region":"01","country":"PH","latitude":"15.89444","longitude":"120.63278","population":67510},{"name":"Rosario","slug":"rosario","region":"40","country":"PH","latitude":"13.6323","longitude":"121.2207","population":128352},{"name":"Roxas","slug":"roxas","region":"02","country":"PH","latitude":"17.11894","longitude":"121.62014","population":16618},{"name":"Roxas","slug":"roxas","region":"41","country":"PH","latitude":"10.3215","longitude":"119.3451","population":15242},{"name":"Roxas City","slug":"roxas city","region":"06","country":"PH","latitude":"11.58528","longitude":"122.75111","population":185236},{"name":"Sablayan","slug":"sablayan","region":"41","country":"PH","latitude":"12.8346","longitude":"120.769","population":91406},{"name":"Sagay","slug":"sagay","region":"06","country":"PH","latitude":"10.94472","longitude":"123.42417","population":72153},{"name":"Samal","slug":"samal","region":"03","country":"PH","latitude":"14.76778","longitude":"120.54306","population":40843},{"name":"Samal","slug":"samal","region":"11","country":"PH","latitude":"7.07444","longitude":"125.70833","population":43526},{"name":"Sampaloc","slug":"sampaloc","region":"40","country":"PH","latitude":"14.5402","longitude":"121.3602","population":20157},{"name":"San Antonio","slug":"san antonio","region":"03","country":"PH","latitude":"15.3062","longitude":"120.856","population":26247},{"name":"San Antonio","slug":"san antonio","region":"03","country":"PH","latitude":"14.94659","longitude":"120.08673","population":38617},{"name":"San Fernando","slug":"san fernando","region":"01","country":"PH","latitude":"16.61591","longitude":"120.31663","population":83003},{"name":"San Fernando","slug":"san fernando","region":"03","country":"PH","latitude":"15.03425","longitude":"120.68445","population":251248},{"name":"San Fernando","slug":"san fernando","region":"07","country":"PH","latitude":"10.1624","longitude":"123.7076","population":23706},{"name":"San Francisco","slug":"san francisco","region":"03","country":"PH","latitude":"15.35566","longitude":"120.84001","population":19570},{"name":"San Francisco","slug":"san francisco","region":"13","country":"PH","latitude":"8.53556","longitude":"125.95","population":79718},{"name":"San Ildefonso","slug":"san ildefonso","region":"03","country":"PH","latitude":"15.0809","longitude":"120.941","population":65669},{"name":"San Jose","slug":"san jose","region":"05","country":"PH","latitude":"13.35","longitude":"123.55","population":35768},{"name":"San Jose","slug":"san jose","region":"41","country":"PH","latitude":"12.35275","longitude":"121.06761","population":143495},{"name":"San Jose","slug":"san jose","region":"13","country":"PH","latitude":"10.18","longitude":"125.56833","population":26735},{"name":"San Jose del Monte","slug":"san jose del monte","region":"03","country":"PH","latitude":"14.81389","longitude":"121.04528","population":357828},{"name":"San Juan","slug":"san juan","region":"NCR","country":"PH","latitude":"14.6","longitude":"121.0333","population":134312},{"name":"San Leonardo","slug":"san leonardo","region":"03","country":"PH","latitude":"15.363","longitude":"120.9639","population":69180},{"name":"San Luis","slug":"san luis","region":"03","country":"PH","latitude":"15.0401","longitude":"120.7883","population":33467},{"name":"San Marcelino","slug":"san marcelino","region":"03","country":"PH","latitude":"14.97418","longitude":"120.15733","population":18721},{"name":"San Mariano","slug":"san mariano","region":"11","country":"PH","latitude":"7.5","longitude":"126","population":18668},{"name":"San Mateo","slug":"san mateo","region":"02","country":"PH","latitude":"16.88206","longitude":"121.58694","population":16233},{"name":"San Mateo","slug":"san mateo","region":"40","country":"PH","latitude":"14.6982","longitude":"121.1236","population":134327},{"name":"San Miguel","slug":"san miguel","region":"03","country":"PH","latitude":"15.44397","longitude":"120.59923","population":18582},{"name":"San Miguel","slug":"san miguel","region":"03","country":"PH","latitude":"15.1423","longitude":"120.97568","population":65661},{"name":"San Narciso","slug":"san narciso","region":"03","country":"PH","latitude":"15.0143","longitude":"120.0803","population":32180},{"name":"San Nicolas","slug":"san nicolas","region":"01","country":"PH","latitude":"18.1725","longitude":"120.5953","population":34237},{"name":"San Pablo","slug":"san pablo","region":"40","country":"PH","latitude":"14.0683","longitude":"121.3256","population":300166},{"name":"San Pascual","slug":"san pascual","region":"40","country":"PH","latitude":"13.81045","longitude":"121.022","population":39395},{"name":"San Pedro","slug":"san pedro","region":"40","country":"PH","latitude":"14.3595","longitude":"121.0473","population":348968},{"name":"San Simon","slug":"san simon","region":"03","country":"PH","latitude":"14.9996","longitude":"120.7808","population":29049},{"name":"San Vicente","slug":"san vicente","region":"03","country":"PH","latitude":"15.2921","longitude":"120.65498","population":16116},{"name":"Sanchez-Mira","slug":"sanchez-mira","region":"02","country":"PH","latitude":"18.56163","longitude":"121.23189","population":26292},{"name":"Santa Ana","slug":"santa ana","region":"03","country":"PH","latitude":"15.0955","longitude":"120.767","population":47158},{"name":"Santa Barbara","slug":"santa barbara","region":"01","country":"PH","latitude":"16.0009","longitude":"120.4023","population":15445},{"name":"Santa Catalina","slug":"santa catalina","region":"07","country":"PH","latitude":"9.3337","longitude":"122.8637","population":26457},{"name":"Santa Cruz","slug":"santa cruz","region":"NCR","country":"PH","latitude":"14.6","longitude":"120.98333","population":126735},{"name":"Santa Cruz","slug":"santa cruz","region":"03","country":"PH","latitude":"15.7654","longitude":"119.9092","population":66647},{"name":"Santa Cruz","slug":"santa cruz","region":"03","country":"PH","latitude":"14.9127","longitude":"120.56659","population":15408},{"name":"Santa Cruz","slug":"santa cruz","region":"40","country":"PH","latitude":"14.2814","longitude":"121.4161","population":108145},{"name":"Santa Maria","slug":"santa maria","region":"01","country":"PH","latitude":"16.9518","longitude":"120.4445","population":28002},{"name":"Santa Maria","slug":"santa maria","region":"11","country":"PH","latitude":"6.55361","longitude":"125.47083","population":16758},{"name":"Santa Rosa","slug":"santa rosa","region":"40","country":"PH","latitude":"14.31222","longitude":"121.11139","population":216650},{"name":"Santiago","slug":"santiago","region":"02","country":"PH","latitude":"16.68808","longitude":"121.5487","population":108414},{"name":"Santo Tomas","slug":"santo tomas","region":"40","country":"PH","latitude":"14.1079","longitude":"121.14136","population":57438},{"name":"Santol","slug":"santol","region":"03","country":"PH","latitude":"15.16222","longitude":"120.5675","population":298976},{"name":"Sariaya","slug":"sariaya","region":"40","country":"PH","latitude":"13.9624","longitude":"121.5265","population":44977},{"name":"Sasmuan","slug":"sasmuan","region":"03","country":"PH","latitude":"14.9438","longitude":"120.6229","population":21124},{"name":"Sibonga","slug":"sibonga","region":"07","country":"PH","latitude":"10.0168","longitude":"123.6171","population":54610},{"name":"Sibulan","slug":"sibulan","region":"07","country":"PH","latitude":"9.3584","longitude":"123.285","population":28079},{"name":"Silang","slug":"silang","region":"40","country":"PH","latitude":"14.21567","longitude":"120.97137","population":119475},{"name":"Siocon","slug":"siocon","region":"09","country":"PH","latitude":"7.70611","longitude":"122.13528","population":51239},{"name":"Sipalay","slug":"sipalay","region":"06","country":"PH","latitude":"9.75194","longitude":"122.40417","population":73847},{"name":"Sitangkai","slug":"sitangkai","region":"14","country":"PH","latitude":"4.66115","longitude":"119.39647","population":17200},{"name":"Solana","slug":"solana","region":"02","country":"PH","latitude":"17.6528","longitude":"121.691","population":71475},{"name":"Solano","slug":"solano","region":"02","country":"PH","latitude":"16.51918","longitude":"121.18124","population":36222},{"name":"Sorsogon","slug":"sorsogon","region":"05","country":"PH","latitude":"12.97389","longitude":"123.99333","population":187670},{"name":"Suay","slug":"suay","region":"06","country":"PH","latitude":"10.0533","longitude":"122.8423","population":19672},{"name":"Subic","slug":"subic","region":"03","country":"PH","latitude":"14.8787","longitude":"120.23194","population":67664},{"name":"Sultan Kudarat","slug":"sultan kudarat","region":"14","country":"PH","latitude":"7.22889","longitude":"124.25778","population":124965},{"name":"Sultan sa Barongis","slug":"sultan sa barongis","region":"14","country":"PH","latitude":"6.8","longitude":"124.63667","population":39182},{"name":"Sumag","slug":"sumag","region":"06","country":"PH","latitude":"10.60139","longitude":"122.91924","population":18752},{"name":"Surallah","slug":"surallah","region":"12","country":"PH","latitude":"6.37527","longitude":"124.74521","population":91412},{"name":"Surigao","slug":"surigao","region":"13","country":"PH","latitude":"9.789","longitude":"125.495","population":87832},{"name":"Taal","slug":"taal","region":"40","country":"PH","latitude":"13.87992","longitude":"120.92311","population":39745},{"name":"Tabaco","slug":"tabaco","region":"05","country":"PH","latitude":"13.35861","longitude":"123.73361","population":57860},{"name":"Tabuk","slug":"tabuk","region":"15","country":"PH","latitude":"17.47378","longitude":"121.46799","population":122771},{"name":"Tabuk","slug":"tabuk","region":"15","country":"PH","latitude":"17.4084","longitude":"121.2785","population":122771},{"name":"Tacloban","slug":"tacloban","region":"08","country":"PH","latitude":"11.24333","longitude":"125.00472","population":259353},{"name":"Tacurong","slug":"tacurong","region":"12","country":"PH","latitude":"6.6925","longitude":"124.67639","population":116945},{"name":"Tagas","slug":"tagas","region":"05","country":"PH","latitude":"13.16667","longitude":"123.71667","population":15292},{"name":"Tagaytay","slug":"tagaytay","region":"40","country":"PH","latitude":"14.09532","longitude":"120.93355","population":87811},{"name":"Tagbilaran City","slug":"tagbilaran city","region":"07","country":"PH","latitude":"9.65556","longitude":"123.85219","population":86411},{"name":"Tagbina","slug":"tagbina","region":"13","country":"PH","latitude":"8.45194","longitude":"126.17139","population":41157},{"name":"Tagoloan","slug":"tagoloan","region":"10","country":"PH","latitude":"8.53954","longitude":"124.75411","population":30390},{"name":"Tagudin","slug":"tagudin","region":"01","country":"PH","latitude":"16.9355","longitude":"120.4442","population":35791},{"name":"Taguig","slug":"taguig","region":"NCR","country":"PH","latitude":"14.5243","longitude":"121.0792","population":1308085},{"name":"Talacogon","slug":"talacogon","region":"13","country":"PH","latitude":"8.45611","longitude":"125.78417","population":15581},{"name":"Talavera","slug":"talavera","region":"03","country":"PH","latitude":"15.5883","longitude":"120.9192","population":64610},{"name":"Talipapa","slug":"talipapa","region":"NCR","country":"PH","latitude":"14.6857","longitude":"121.0269","population":39244},{"name":"Talisay","slug":"talisay","region":"40","country":"PH","latitude":"14.0925","longitude":"121.02194","population":24969},{"name":"Talisay","slug":"talisay","region":"06","country":"PH","latitude":"10.7375","longitude":"122.9666","population":109204},{"name":"Talisay","slug":"talisay","region":"07","country":"PH","latitude":"10.24472","longitude":"123.84944","population":133148},{"name":"Talitay","slug":"talitay","region":"14","country":"PH","latitude":"7.03333","longitude":"124.7","population":19750},{"name":"Taloc","slug":"taloc","region":"06","country":"PH","latitude":"10.5746","longitude":"122.8954","population":20409},{"name":"Tanauan","slug":"tanauan","region":"40","country":"PH","latitude":"14.08627","longitude":"121.14975","population":68456},{"name":"Tanauan","slug":"tanauan","region":"08","country":"PH","latitude":"11.10944","longitude":"125.01556","population":16567},{"name":"Tanay","slug":"tanay","region":"40","country":"PH","latitude":"14.4968","longitude":"121.2846","population":59950},{"name":"Tandag","slug":"tandag","region":"13","country":"PH","latitude":"9.07833","longitude":"126.19861","population":29011},{"name":"Tangub","slug":"tangub","region":"10","country":"PH","latitude":"8.0618","longitude":"123.7477","population":29721},{"name":"Tanjay","slug":"tanjay","region":"07","country":"PH","latitude":"9.5162","longitude":"123.158","population":84593},{"name":"Tanza","slug":"tanza","region":"NCR","country":"PH","latitude":"14.6753","longitude":"120.9389","population":105510},{"name":"Tarlac City","slug":"tarlac city","region":"03","country":"PH","latitude":"15.48017","longitude":"120.59794","population":401892},{"name":"Tayabas","slug":"tayabas","region":"40","country":"PH","latitude":"14.0259","longitude":"121.5929","population":115318},{"name":"Taytay","slug":"taytay","region":"40","country":"PH","latitude":"14.55883","longitude":"121.13285","population":231460},{"name":"Telabastagan","slug":"telabastagan","region":"03","country":"PH","latitude":"15.11854","longitude":"120.60773","population":25935},{"name":"Teresa","slug":"teresa","region":"40","country":"PH","latitude":"14.5612","longitude":"121.2195","population":34716},{"name":"Ternate","slug":"ternate","region":"40","country":"PH","latitude":"14.2897","longitude":"120.7168","population":20049},{"name":"Tinongan","slug":"tinongan","region":"06","country":"PH","latitude":"10.215","longitude":"123.03528","population":62146},{"name":"Tiwi","slug":"tiwi","region":"05","country":"PH","latitude":"13.4585","longitude":"123.6805","population":16826},{"name":"Toledo","slug":"toledo","region":"07","country":"PH","latitude":"10.3773","longitude":"123.6386","population":206692},{"name":"Trento","slug":"trento","region":"13","country":"PH","latitude":"8.04583","longitude":"126.06361","population":15916},{"name":"Tubod","slug":"tubod","region":"10","country":"PH","latitude":"8.0555","longitude":"123.7904","population":50395},{"name":"Tuguegarao","slug":"tuguegarao","region":"02","country":"PH","latitude":"17.61577","longitude":"121.72285","population":167297},{"name":"Tunasan","slug":"tunasan","region":"40","country":"PH","latitude":"14.37917","longitude":"121.0525","population":61374},{"name":"Tupi","slug":"tupi","region":"12","country":"PH","latitude":"6.33444","longitude":"124.95278","population":78599},{"name":"Ualog","slug":"ualog","region":"06","country":"PH","latitude":"10.57396","longitude":"123.3933","population":60548},{"name":"Upper Bicutan","slug":"upper bicutan","region":"NCR","country":"PH","latitude":"14.4996","longitude":"121.0507","population":47397},{"name":"Urdaneta","slug":"urdaneta","region":"01","country":"PH","latitude":"15.97611","longitude":"120.57111","population":145935},{"name":"Valenzuela","slug":"valenzuela","region":"NCR","country":"PH","latitude":"14.7","longitude":"120.9667","population":725173},{"name":"Veruela","slug":"veruela","region":"13","country":"PH","latitude":"8.0731","longitude":"125.9558","population":18114},{"name":"Victoria","slug":"victoria","region":"40","country":"PH","latitude":"14.2277","longitude":"121.3292","population":24456},{"name":"Victoria","slug":"victoria","region":"41","country":"PH","latitude":"13.17722","longitude":"121.27806","population":52215},{"name":"Victorias","slug":"victorias","region":"06","country":"PH","latitude":"10.90154","longitude":"123.0705","population":86510},{"name":"Vigan","slug":"vigan","region":"01","country":"PH","latitude":"17.57472","longitude":"120.38694","population":48545},{"name":"Villasis","slug":"villasis","region":"01","country":"PH","latitude":"15.90167","longitude":"120.58833","population":65086},{"name":"Vinzons","slug":"vinzons","region":"05","country":"PH","latitude":"14.1737","longitude":"122.9066","population":45173},{"name":"Virac","slug":"virac","region":"05","country":"PH","latitude":"13.5848","longitude":"124.2374","population":75135},{"name":"Wao","slug":"wao","region":"14","country":"PH","latitude":"7.68333","longitude":"124.66667","population":17845},{"name":"Zamboanga","slug":"zamboanga","region":"09","country":"PH","latitude":"6.91028","longitude":"122.07389","population":1018849},{"name":"Zaragoza","slug":"zaragoza","region":"03","country":"PH","latitude":"15.44903","longitude":"120.79627","population":53090},{"name":"Zumarraga","slug":"zumarraga","region":"08","country":"PH","latitude":"11.6388","longitude":"124.8417","population":16279}]