[{"name":"Afurada de Baixo","slug":"afurada de baixo","region":"17","country":"PT","latitude":"41.14389","longitude":"-8.64639","population":34332},{"name":"Albufeira","slug":"albufeira","region":"09","country":"PT","latitude":"37.08819","longitude":"-8.2503","population":15851},{"name":"Alcabideche","slug":"alcabideche","region":"14","country":"PT","latitude":"38.73366","longitude":"-9.40928","population":33315},{"name":"Alcoba\u00e7a","slug":"alcobaca","region":"13","country":"PT","latitude":"39.55223","longitude":"-8.97749","population":15800},{"name":"Alc\u00e2ntara","slug":"alcantara","region":"14","country":"PT","latitude":"38.70102","longitude":"-9.17145","population":20267},{"name":"Aldoar","slug":"aldoar","region":"17","country":"PT","latitude":"41.1671","longitude":"-8.6691","population":29085},{"name":"Alfena","slug":"alfena","region":"17","country":"PT","latitude":"41.23671","longitude":"-8.52454","population":15211},{"name":"Alfornelos","slug":"alfornelos","region":"14","country":"PT","latitude":"38.76098","longitude":"-9.20508","population":27093},{"name":"Alfragide","slug":"alfragide","region":"14","country":"PT","latitude":"38.73203","longitude":"-9.2192","population":17044},{"name":"Algueir\u00e3o","slug":"algueirao","region":"14","country":"PT","latitude":"38.79764","longitude":"-9.3437","population":66250},{"name":"Alg\u00e9s","slug":"alges","region":"14","country":"PT","latitude":"38.70245","longitude":"-9.22936","population":19327},{"name":"Almada","slug":"almada","region":"19","country":"PT","latitude":"38.67902","longitude":"-9.1569","population":34008},{"name":"Alvalade","slug":"alvalade","region":"14","country":"PT","latitude":"38.75328","longitude":"-9.14397","population":31813},{"name":"Amadora","slug":"amadora","region":"14","country":"PT","latitude":"38.75382","longitude":"-9.23083","population":178858},{"name":"Amora","slug":"amora","region":"19","country":"PT","latitude":"38.62961","longitude":"-9.11557","population":52577},{"name":"Arcos de Valdevez","slug":"arcos de valdevez","region":"20","country":"PT","latitude":"41.84668","longitude":"-8.41905","population":22847},{"name":"Areeiro","slug":"areeiro","region":"14","country":"PT","latitude":"38.741","longitude":"-9.138","population":21160},{"name":"Arouca","slug":"arouca","region":"02","country":"PT","latitude":"40.93057","longitude":"-8.24488","population":21146},{"name":"Arrentela","slug":"arrentela","region":"19","country":"PT","latitude":"38.625","longitude":"-9.10151","population":30156},{"name":"Aveiro","slug":"aveiro","region":"02","country":"PT","latitude":"40.64575","longitude":"-8.64643","population":80880},{"name":"Azambuja","slug":"azambuja","region":"14","country":"PT","latitude":"39.07029","longitude":"-8.86822","population":21422},{"name":"Azeit\u00e3o","slug":"azeitao","region":"19","country":"PT","latitude":"38.51919","longitude":"-9.0139","population":18877},{"name":"Baguim do Monte","slug":"baguim do monte","region":"17","country":"PT","latitude":"41.19203","longitude":"-8.54118","population":15850},{"name":"Bairro Novo","slug":"bairro novo","region":"04","country":"PT","latitude":"41.54317","longitude":"-8.40725","population":32876},{"name":"Bai\u00e3o","slug":"baiao","region":"17","country":"PT","latitude":"41.16273","longitude":"-8.0347","population":20522},{"name":"Barcelos","slug":"barcelos","region":"04","country":"PT","latitude":"41.53174","longitude":"-8.61843","population":19085},{"name":"Barreiro","slug":"barreiro","region":"19","country":"PT","latitude":"38.66314","longitude":"-9.0724","population":51280},{"name":"Beja","slug":"beja","region":"03","country":"PT","latitude":"38.01469","longitude":"-7.86284","population":34760},{"name":"Belas","slug":"belas","region":"14","country":"PT","latitude":"38.7767","longitude":"-9.26353","population":21019},{"name":"Bel\u00e9m","slug":"belem","region":"14","country":"PT","latitude":"38.69875","longitude":"-9.19289","population":16546},{"name":"Benfica","slug":"benfica","region":"14","country":"PT","latitude":"38.75087","longitude":"-9.20282","population":36985},{"name":"Bomfim","slug":"bomfim","region":"17","country":"PT","latitude":"41.15417","longitude":"-8.58688","population":22978},{"name":"Bougado","slug":"bougado","region":"17","country":"PT","latitude":"41.33979","longitude":"-8.5518","population":21680},{"name":"Braga","slug":"braga","region":"04","country":"PT","latitude":"41.5514","longitude":"-8.42311","population":193324},{"name":"Bragan\u00e7a","slug":"braganca","region":"05","country":"PT","latitude":"41.80716","longitude":"-6.75898","population":35341},{"name":"Buraca","slug":"buraca","region":"14","country":"PT","latitude":"38.73333","longitude":"-9.2","population":16081},{"name":"Cabeceiras de Basto","slug":"cabeceiras de basto","region":"04","country":"PT","latitude":"41.51431","longitude":"-7.98942","population":16710},{"name":"Cac\u00e9m","slug":"cacem","region":"14","country":"PT","latitude":"38.76698","longitude":"-9.29793","population":93982},{"name":"Caldas da Rainha","slug":"caldas da rainha","region":"13","country":"PT","latitude":"39.40326","longitude":"-9.13839","population":27378},{"name":"Camarate","slug":"camarate","region":"14","country":"PT","latitude":"38.80358","longitude":"-9.12809","population":20177},{"name":"Campanh\u00e3","slug":"campanha","region":"17","country":"PT","latitude":"41.15706","longitude":"-8.57466","population":29666},{"name":"Campo De Ourique","slug":"campo de ourique","region":"14","country":"PT","latitude":"38.72134","longitude":"-9.16738","population":22140},{"name":"Campo Grande","slug":"campo grande","region":"14","country":"PT","latitude":"38.75471","longitude":"-9.16651","population":15514},{"name":"Canidelo","slug":"canidelo","region":"17","country":"PT","latitude":"41.12314","longitude":"-8.64654","population":26431},{"name":"Cani\u00e7o","slug":"canico","region":"10","country":"PT","latitude":"32.65078","longitude":"-16.83749","population":23368},{"name":"Caparica","slug":"caparica","region":"19","country":"PT","latitude":"38.66179","longitude":"-9.20032","population":21167},{"name":"Carcavelos","slug":"carcavelos","region":"14","country":"PT","latitude":"38.69105","longitude":"-9.32215","population":20366},{"name":"Carnaxide","slug":"carnaxide","region":"14","country":"PT","latitude":"38.72706","longitude":"-9.24671","population":23698},{"name":"Carnide","slug":"carnide","region":"14","country":"PT","latitude":"38.76667","longitude":"-9.18333","population":18028},{"name":"Cascais","slug":"cascais","region":"14","country":"PT","latitude":"38.69681","longitude":"-9.42147","population":36436},{"name":"Castelo Branco","slug":"castelo branco","region":"06","country":"PT","latitude":"39.82364","longitude":"-7.49101","population":33479},{"name":"Charneca de Caparica","slug":"charneca de caparica","region":"19","country":"PT","latitude":"38.62032","longitude":"-9.19426","population":29763},{"name":"Chaves","slug":"chaves","region":"21","country":"PT","latitude":"41.74019","longitude":"-7.46879","population":17535},{"name":"Cidade Universit\u00e1ria","slug":"cidade universitaria","region":"14","country":"PT","latitude":"38.75199","longitude":"-9.15917","population":37000},{"name":"Coimbra","slug":"coimbra","region":"07","country":"PT","latitude":"40.20686","longitude":"-8.41996","population":140796},{"name":"Condeixa-a-Nova","slug":"condeixa-a-nova","region":"07","country":"PT","latitude":"40.11283","longitude":"-8.49804","population":17078},{"name":"Corroios","slug":"corroios","region":"19","country":"PT","latitude":"38.64004","longitude":"-9.1508","population":52520},{"name":"Covilh\u00e3","slug":"covilha","region":"06","country":"PT","latitude":"40.28106","longitude":"-7.50504","population":17610},{"name":"Custoias","slug":"custoias","region":"11","country":"PT","latitude":"41.1053","longitude":"-7.32097","population":19406},{"name":"C\u00e2mara de Lobos","slug":"camara de lobos","region":"10","country":"PT","latitude":"32.65043","longitude":"-16.97718","population":32209},{"name":"Damaia","slug":"damaia","region":"14","country":"PT","latitude":"38.75141","longitude":"-9.21227","population":37607},{"name":"Eiras","slug":"eiras","region":"07","country":"PT","latitude":"40.24827","longitude":"-8.41549","population":17154},{"name":"Entroncamento","slug":"entroncamento","region":"18","country":"PT","latitude":"39.46667","longitude":"-8.46667","population":19887},{"name":"Ermesinde","slug":"ermesinde","region":"17","country":"PT","latitude":"41.21653","longitude":"-8.55318","population":39420},{"name":"Espinho","slug":"espinho","region":"02","country":"PT","latitude":"41.00763","longitude":"-8.64125","population":32786},{"name":"Esposende","slug":"esposende","region":"04","country":"PT","latitude":"41.5361","longitude":"-8.78201","population":34625},{"name":"Estoril","slug":"estoril","region":"14","country":"PT","latitude":"38.70571","longitude":"-9.39773","population":23700},{"name":"Fafe","slug":"fafe","region":"04","country":"PT","latitude":"41.45083","longitude":"-8.17258","population":16868},{"name":"Falagueira","slug":"falagueira","region":"14","country":"PT","latitude":"38.76392","longitude":"-9.22804","population":20788},{"name":"Faro","slug":"faro","region":"09","country":"PT","latitude":"37.01869","longitude":"-7.92716","population":70347},{"name":"Feira","slug":"feira","region":"02","country":"PT","latitude":"40.92535","longitude":"-8.54277","population":16376},{"name":"Felgueiras","slug":"felgueiras","region":"17","country":"PT","latitude":"41.36806","longitude":"-8.19396","population":58065},{"name":"Figueira da Foz","slug":"figueira da foz","region":"07","country":"PT","latitude":"40.15085","longitude":"-8.86179","population":46600},{"name":"Funchal","slug":"funchal","region":"10","country":"PT","latitude":"32.66568","longitude":"-16.92547","population":105795},{"name":"F\u00e2nzeres","slug":"fanzeres","region":"17","country":"PT","latitude":"41.16754","longitude":"-8.52981","population":23916},{"name":"Gondomar","slug":"gondomar","region":"17","country":"PT","latitude":"41.14454","longitude":"-8.53223","population":27691},{"name":"Guarda","slug":"guarda","region":"11","country":"PT","latitude":"40.53754","longitude":"-7.26631","population":40126},{"name":"Guimar\u00e3es","slug":"guimaraes","region":"04","country":"PT","latitude":"41.44443","longitude":"-8.29619","population":40604},{"name":"Lagos","slug":"lagos","region":"09","country":"PT","latitude":"37.10202","longitude":"-8.67422","population":33494},{"name":"Laranjeiro","slug":"laranjeiro","region":"09","country":"PT","latitude":"37.06799","longitude":"-7.8078","population":20473},{"name":"Laranjeiro","slug":"laranjeiro","region":"19","country":"PT","latitude":"38.65599","longitude":"-9.15376","population":20988},{"name":"Lavradio","slug":"lavradio","region":"19","country":"PT","latitude":"38.66808","longitude":"-9.05204","population":21877},{"name":"Leiria","slug":"leiria","region":"13","country":"PT","latitude":"39.74362","longitude":"-8.80705","population":128640},{"name":"Le\u00e7a da Palmeira","slug":"leca da palmeira","region":"17","country":"PT","latitude":"41.191","longitude":"-8.70027","population":17996},{"name":"Le\u00e7a do Bailio","slug":"leca do bailio","region":"17","country":"PT","latitude":"41.21201","longitude":"-8.63422","population":16103},{"name":"Linda-a-Velha","slug":"linda-a-velha","region":"14","country":"PT","latitude":"38.71446","longitude":"-9.2422","population":20895},{"name":"Lisbon","slug":"lisbon","region":"14","country":"PT","latitude":"38.72509","longitude":"-9.1498","population":517802},{"name":"Lordelo do Ouro","slug":"lordelo do ouro","region":"17","country":"PT","latitude":"41.15059","longitude":"-8.64845","population":22270},{"name":"Loul\u00e9","slug":"loule","region":"09","country":"PT","latitude":"37.13772","longitude":"-8.01968","population":17930},{"name":"Loures","slug":"loures","region":"14","country":"PT","latitude":"38.83091","longitude":"-9.16845","population":66231},{"name":"Lumiar","slug":"lumiar","region":"14","country":"PT","latitude":"38.77478","longitude":"-9.15601","population":46334},{"name":"Maia","slug":"maia","region":"17","country":"PT","latitude":"41.23574","longitude":"-8.6199","population":36426},{"name":"Marinha Grande","slug":"marinha grande","region":"13","country":"PT","latitude":"39.74769","longitude":"-8.93228","population":28916},{"name":"Marvila","slug":"marvila","region":"14","country":"PT","latitude":"38.73981","longitude":"-9.10165","population":35463},{"name":"Massam\u00e1","slug":"massama","region":"14","country":"PT","latitude":"38.75279","longitude":"-9.2811","population":28112},{"name":"Matosinhos","slug":"matosinhos","region":"17","country":"PT","latitude":"41.18207","longitude":"-8.68908","population":28070},{"name":"Moita","slug":"moita","region":"19","country":"PT","latitude":"38.65078","longitude":"-8.99038","population":17795},{"name":"Monsanto","slug":"monsanto","region":"18","country":"PT","latitude":"39.46203","longitude":"-8.7118","population":50000},{"name":"Monte Estoril","slug":"monte estoril","region":"14","country":"PT","latitude":"38.70636","longitude":"-9.40595","population":23375},{"name":"Montijo","slug":"montijo","region":"19","country":"PT","latitude":"38.70675","longitude":"-8.97388","population":30011},{"name":"Mon\u00e7\u00e3o","slug":"moncao","region":"20","country":"PT","latitude":"42.07892","longitude":"-8.48076","population":19738},{"name":"Moscavide e Portela","slug":"moscavide e portela","region":"14","country":"PT","latitude":"38.77929","longitude":"-9.10222","population":22488},{"name":"Odivelas","slug":"odivelas","region":"14","country":"PT","latitude":"38.79269","longitude":"-9.1838","population":54624},{"name":"Oeiras","slug":"oeiras","region":"14","country":"PT","latitude":"38.69105","longitude":"-9.31085","population":35000},{"name":"Olh\u00e3o","slug":"olhao","region":"09","country":"PT","latitude":"37.0286","longitude":"-7.8411","population":29239},{"name":"Olivais","slug":"olivais","region":"14","country":"PT","latitude":"38.76994","longitude":"-9.10674","population":33788},{"name":"Olival","slug":"olival","region":"14","country":"PT","latitude":"38.77079","longitude":"-9.25015","population":42961},{"name":"Oliveira do Douro","slug":"oliveira do douro","region":"17","country":"PT","latitude":"41.12466","longitude":"-8.58463","population":24407},{"name":"Ovar","slug":"ovar","region":"02","country":"PT","latitude":"40.85862","longitude":"-8.62513","population":18452},{"name":"Palmela","slug":"palmela","region":"19","country":"PT","latitude":"38.56902","longitude":"-8.90126","population":16934},{"name":"Paranhos","slug":"paranhos","region":"17","country":"PT","latitude":"41.17289","longitude":"-8.59931","population":45883},{"name":"Parede","slug":"parede","region":"14","country":"PT","latitude":"38.69282","longitude":"-9.35412","population":17212},{"name":"Paredes","slug":"paredes","region":"17","country":"PT","latitude":"41.20485","longitude":"-8.33147","population":19834},{"name":"Parque das Na\u00e7\u00f5es","slug":"parque das nacoes","region":"14","country":"PT","latitude":"38.76908","longitude":"-9.09632","population":22382},{"name":"Pa\u00e7o de Arcos","slug":"paco de arcos","region":"14","country":"PT","latitude":"38.69569","longitude":"-9.29143","population":25974},{"name":"Pedroso","slug":"pedroso","region":"17","country":"PT","latitude":"41.41103","longitude":"-8.74897","population":18963},{"name":"Peniche","slug":"peniche","region":"13","country":"PT","latitude":"39.3558","longitude":"-9.38112","population":15662},{"name":"Piedade","slug":"piedade","region":"19","country":"PT","latitude":"38.67005","longitude":"-9.15852","population":19472},{"name":"Pinhal Novo","slug":"pinhal novo","region":"19","country":"PT","latitude":"38.63106","longitude":"-8.91376","population":23510},{"name":"Pombal","slug":"pombal","region":"13","country":"PT","latitude":"39.91674","longitude":"-8.62847","population":17355},{"name":"Ponta Delgada","slug":"ponta delgada","region":"23","country":"PT","latitude":"37.73952","longitude":"-25.66874","population":20056},{"name":"Ponte de Lima","slug":"ponte de lima","region":"20","country":"PT","latitude":"41.76719","longitude":"-8.58393","population":44667},{"name":"Pontinha","slug":"pontinha","region":"14","country":"PT","latitude":"38.76771","longitude":"-9.19935","population":23249},{"name":"Portalegre","slug":"portalegre","region":"16","country":"PT","latitude":"39.29379","longitude":"-7.43122","population":22368},{"name":"Portim\u00e3o","slug":"portimao","region":"09","country":"PT","latitude":"37.13856","longitude":"-8.53775","population":38487},{"name":"Porto","slug":"porto","region":"17","country":"PT","latitude":"41.1485","longitude":"-8.61097","population":252687},{"name":"Porto de M\u00f3s","slug":"porto de mos","region":"09","country":"PT","latitude":"37.08534","longitude":"-8.68366","population":23648},{"name":"P\u00f3voa de Santa Iria","slug":"povoa de santa iria","region":"14","country":"PT","latitude":"38.86101","longitude":"-9.06453","population":28901},{"name":"P\u00f3voa de Varzim","slug":"povoa de varzim","region":"17","country":"PT","latitude":"41.38344","longitude":"-8.76364","population":29044},{"name":"Quarteira","slug":"quarteira","region":"09","country":"PT","latitude":"37.06946","longitude":"-8.10064","population":24420},{"name":"Quelfes","slug":"quelfes","region":"09","country":"PT","latitude":"37.06003","longitude":"-7.82158","population":17253},{"name":"Queluz","slug":"queluz","region":"14","country":"PT","latitude":"38.75657","longitude":"-9.25451","population":103399},{"name":"Quinta Do Conde","slug":"quinta do conde","region":"19","country":"PT","latitude":"38.56528","longitude":"-9.04316","population":25606},{"name":"Ramada","slug":"ramada","region":"14","country":"PT","latitude":"38.80368","longitude":"-9.1877","population":17535},{"name":"Ribeira de Frades","slug":"ribeira de frades","region":"07","country":"PT","latitude":"40.20503","longitude":"-8.47929","population":15315},{"name":"Rio Tinto","slug":"rio tinto","region":"17","country":"PT","latitude":"41.17872","longitude":"-8.55953","population":49966},{"name":"Rio de Mouro","slug":"rio de mouro","region":"14","country":"PT","latitude":"38.76613","longitude":"-9.32804","population":54695},{"name":"Sacav\u00e9m","slug":"sacavem","region":"14","country":"PT","latitude":"38.79202","longitude":"-9.10801","population":17718},{"name":"Santa Iria da Az\u00f3ia","slug":"santa iria da azoia","region":"14","country":"PT","latitude":"38.8411","longitude":"-9.09908","population":18573},{"name":"Santar\u00e9m","slug":"santarem","region":"18","country":"PT","latitude":"39.23379","longitude":"-8.68617","population":29385},{"name":"Santo Ant\u00f3nio","slug":"santo antonio","region":"10","country":"PT","latitude":"32.66138","longitude":"-16.93482","population":25940},{"name":"Santo Ant\u00f3nio dos Olivais","slug":"santo antonio dos olivais","region":"07","country":"PT","latitude":"40.21805","longitude":"-8.40523","population":41150},{"name":"Santo Ov\u00eddio","slug":"santo ovidio","region":"17","country":"PT","latitude":"41.11379","longitude":"-8.60235","population":38544},{"name":"Senhora da Hora","slug":"senhora da hora","region":"17","country":"PT","latitude":"41.18641","longitude":"-8.65172","population":28930},{"name":"Sequeira","slug":"sequeira","region":"11","country":"PT","latitude":"40.55364","longitude":"-7.22594","population":28502},{"name":"Sesimbra","slug":"sesimbra","region":"19","country":"PT","latitude":"38.44451","longitude":"-9.10149","population":41134},{"name":"Sete Rios","slug":"sete rios","region":"14","country":"PT","latitude":"38.74134","longitude":"-9.16133","population":23261},{"name":"Set\u00fabal","slug":"setubal","region":"19","country":"PT","latitude":"38.5244","longitude":"-8.8882","population":118166},{"name":"Sintra","slug":"sintra","region":"14","country":"PT","latitude":"38.80097","longitude":"-9.37826","population":26193},{"name":"S\u00e3o Domingos de Rana","slug":"sao domingos de rana","region":"14","country":"PT","latitude":"38.70194","longitude":"-9.34083","population":46718},{"name":"S\u00e3o Jorge de Arroios","slug":"sao jorge de arroios","region":"14","country":"PT","latitude":"38.7289","longitude":"-9.13806","population":22990},{"name":"S\u00e3o Jo\u00e3o da Madeira","slug":"sao joao da madeira","region":"02","country":"PT","latitude":"40.9007","longitude":"-8.4902","population":22079},{"name":"S\u00e3o Jo\u00e3o da Talha","slug":"sao joao da talha","region":"14","country":"PT","latitude":"38.82378","longitude":"-9.09719","population":18925},{"name":"S\u00e3o Mamede de Infesta","slug":"sao mamede de infesta","region":"17","country":"PT","latitude":"41.19183","longitude":"-8.61105","population":25940},{"name":"S\u00e3o Martinho","slug":"sao martinho","region":"10","country":"PT","latitude":"32.6448","longitude":"-16.93843","population":26482},{"name":"S\u00e3o Martinho do Bispo","slug":"sao martinho do bispo","region":"07","country":"PT","latitude":"40.21021","longitude":"-8.45692","population":15315},{"name":"S\u00e3o Paulo de Frades","slug":"sao paulo de frades","region":"07","country":"PT","latitude":"40.24678","longitude":"-8.39402","population":17154},{"name":"S\u00e3o Pedro da Cova","slug":"sao pedro da cova","region":"17","country":"PT","latitude":"41.14331","longitude":"-8.50033","population":17011},{"name":"S\u00e3o Tiago de Custoias","slug":"sao tiago de custoias","region":"17","country":"PT","latitude":"41.2","longitude":"-8.63333","population":19000},{"name":"Tavira","slug":"tavira","region":"09","country":"PT","latitude":"37.12734","longitude":"-7.64861","population":15133},{"name":"Tomar","slug":"tomar","region":"18","country":"PT","latitude":"39.60199","longitude":"-8.40924","population":19168},{"name":"Torres Novas","slug":"torres novas","region":"18","country":"PT","latitude":"39.47581","longitude":"-8.54348","population":15002},{"name":"Torres Vedras","slug":"torres vedras","region":"14","country":"PT","latitude":"39.09109","longitude":"-9.2586","population":24443},{"name":"Trofa","slug":"trofa","region":"17","country":"PT","latitude":"41.33729","longitude":"-8.5596","population":20692},{"name":"Valadares","slug":"valadares","region":"17","country":"PT","latitude":"41.09294","longitude":"-8.63219","population":22322},{"name":"Valongo","slug":"valongo","region":"17","country":"PT","latitude":"41.18883","longitude":"-8.49857","population":21328},{"name":"Vermoim","slug":"vermoim","region":"17","country":"PT","latitude":"41.24315","longitude":"-8.60651","population":15764},{"name":"Vialonga","slug":"vialonga","region":"14","country":"PT","latitude":"38.87206","longitude":"-9.07805","population":16088},{"name":"Viana do Castelo","slug":"viana do castelo","region":"20","country":"PT","latitude":"41.69323","longitude":"-8.83287","population":36148},{"name":"Vila Franca de Xira","slug":"vila franca de xira","region":"14","country":"PT","latitude":"38.95525","longitude":"-8.98966","population":18355},{"name":"Vila Nova de Gaia","slug":"vila nova de gaia","region":"17","country":"PT","latitude":"41.12401","longitude":"-8.61241","population":70811},{"name":"Vila Real","slug":"vila real","region":"21","country":"PT","latitude":"41.3001","longitude":"-7.7432","population":17001},{"name":"Vila do Conde","slug":"vila do conde","region":"17","country":"PT","latitude":"41.35326","longitude":"-8.74516","population":27642},{"name":"Vilar","slug":"vilar","region":"02","country":"PT","latitude":"40.62731","longitude":"-8.63225","population":21227},{"name":"Vilar de Andorinho","slug":"vilar de andorinho","region":"17","country":"PT","latitude":"41.10574","longitude":"-8.58622","population":18944},{"name":"Viseu","slug":"viseu","region":"22","country":"PT","latitude":"40.66165","longitude":"-7.90905","population":103502},{"name":"\u00c1guas Santas","slug":"aguas santas","region":"17","country":"PT","latitude":"41.21017","longitude":"-8.57599","population":27686},{"name":"\u00c9vora","slug":"evora","region":"08","country":"PT","latitude":"38.56587","longitude":"-7.90405","population":53591},{"name":"\u00cdlhavo","slug":"ilhavo","region":"02","country":"PT","latitude":"40.60188","longitude":"-8.67021","population":17236}]