[{"name":"Apatin","slug":"apatin","region":"VO","country":"RS","latitude":"45.6726","longitude":"18.978","population":18320},{"name":"Aran\u0111elovac","slug":"arangelovac","region":"SE","country":"RS","latitude":"44.30694","longitude":"20.56","population":24309},{"name":"Ba\u010dka Palanka","slug":"backa palanka","region":"VO","country":"RS","latitude":"45.24966","longitude":"19.39664","population":29449},{"name":"Ba\u010dka Topola","slug":"backa topola","region":"VO","country":"RS","latitude":"45.81516","longitude":"19.6318","population":16154},{"name":"Belgrade","slug":"belgrade","region":"SE","country":"RS","latitude":"44.80401","longitude":"20.46513","population":1273651},{"name":"Be\u010dej","slug":"becej","region":"VO","country":"RS","latitude":"45.61632","longitude":"20.03331","population":25774},{"name":"Bor","slug":"bor","region":"SE","country":"RS","latitude":"44.07488","longitude":"22.09591","population":39387},{"name":"Futog","slug":"futog","region":"VO","country":"RS","latitude":"45.23874","longitude":"19.71416","population":18018},{"name":"Gornji Milanovac","slug":"gornji milanovac","region":"SE","country":"RS","latitude":"44.02603","longitude":"20.46152","population":23982},{"name":"In\u0111ija","slug":"ingija","region":"VO","country":"RS","latitude":"45.04816","longitude":"20.08165","population":28450},{"name":"Jagodina","slug":"jagodina","region":"SE","country":"RS","latitude":"43.97713","longitude":"21.26121","population":35589},{"name":"Kikinda","slug":"kikinda","region":"VO","country":"RS","latitude":"45.82972","longitude":"20.46528","population":41935},{"name":"Knjazevac","slug":"knjazevac","region":"SE","country":"RS","latitude":"43.56634","longitude":"22.25701","population":25000},{"name":"Kragujevac","slug":"kragujevac","region":"SE","country":"RS","latitude":"44.01667","longitude":"20.91667","population":147473},{"name":"Kraljevo","slug":"kraljevo","region":"SE","country":"RS","latitude":"43.72583","longitude":"20.68944","population":82846},{"name":"Kru\u0161evac","slug":"krusevac","region":"SE","country":"RS","latitude":"43.58","longitude":"21.33389","population":75256},{"name":"Lazarevac","slug":"lazarevac","region":"SE","country":"RS","latitude":"44.38534","longitude":"20.2557","population":23551},{"name":"Leskovac","slug":"leskovac","region":"SE","country":"RS","latitude":"42.99806","longitude":"21.94611","population":94758},{"name":"Loznica","slug":"loznica","region":"SE","country":"RS","latitude":"44.53118","longitude":"19.24267","population":19515},{"name":"Negotin","slug":"negotin","region":"SE","country":"RS","latitude":"44.22639","longitude":"22.53083","population":17612},{"name":"Ni\u0161","slug":"nis","region":"SE","country":"RS","latitude":"43.32472","longitude":"21.90333","population":250000},{"name":"Nova Pazova","slug":"nova pazova","region":"VO","country":"RS","latitude":"44.94366","longitude":"20.21931","population":15488},{"name":"Novi Pazar","slug":"novi pazar","region":"SE","country":"RS","latitude":"43.13667","longitude":"20.51222","population":85996},{"name":"Novi Sad","slug":"novi sad","region":"VO","country":"RS","latitude":"45.25167","longitude":"19.83694","population":215400},{"name":"Obrenovac","slug":"obrenovac","region":"SE","country":"RS","latitude":"44.65486","longitude":"20.20017","population":16821},{"name":"Pan\u010devo","slug":"pancevo","region":"VO","country":"RS","latitude":"44.87177","longitude":"20.64167","population":76654},{"name":"Pirot","slug":"pirot","region":"SE","country":"RS","latitude":"43.15306","longitude":"22.58611","population":40678},{"name":"Po\u017earevac","slug":"pozarevac","region":"SE","country":"RS","latitude":"44.62133","longitude":"21.18782","population":41736},{"name":"Prokuplje","slug":"prokuplje","region":"SE","country":"RS","latitude":"43.23417","longitude":"21.58806","population":27673},{"name":"Ruma","slug":"ruma","region":"VO","country":"RS","latitude":"45.00806","longitude":"19.82222","population":32229},{"name":"Senta","slug":"senta","region":"VO","country":"RS","latitude":"45.9275","longitude":"20.07722","population":20302},{"name":"Smederevo","slug":"smederevo","region":"SE","country":"RS","latitude":"44.66436","longitude":"20.92763","population":62000},{"name":"Smederevska Palanka","slug":"smederevska palanka","region":"SE","country":"RS","latitude":"44.36548","longitude":"20.95885","population":27000},{"name":"Sombor","slug":"sombor","region":"VO","country":"RS","latitude":"45.77417","longitude":"19.11222","population":48454},{"name":"Sremska Mitrovica","slug":"sremska mitrovica","region":"VO","country":"RS","latitude":"44.97639","longitude":"19.61222","population":39084},{"name":"Srem\u010dica","slug":"sremcica","region":"SE","country":"RS","latitude":"44.67653","longitude":"20.39232","population":23000},{"name":"Stara Pazova","slug":"stara pazova","region":"VO","country":"RS","latitude":"44.985","longitude":"20.16083","population":16217},{"name":"Subotica","slug":"subotica","region":"VO","country":"RS","latitude":"46.1","longitude":"19.66667","population":100000},{"name":"Trstenik","slug":"trstenik","region":"SE","country":"RS","latitude":"43.61694","longitude":"21.0025","population":49043},{"name":"U\u017eice","slug":"uzice","region":"SE","country":"RS","latitude":"43.85861","longitude":"19.84878","population":63577},{"name":"Valjevo","slug":"valjevo","region":"SE","country":"RS","latitude":"44.27513","longitude":"19.89821","population":61035},{"name":"Vranje","slug":"vranje","region":"SE","country":"RS","latitude":"42.55139","longitude":"21.90028","population":56199},{"name":"Vrbas","slug":"vrbas","region":"VO","country":"RS","latitude":"45.57139","longitude":"19.64083","population":25907},{"name":"Vr\u0161ac","slug":"vrsac","region":"VO","country":"RS","latitude":"45.11667","longitude":"21.30361","population":36300},{"name":"Zaje\u010dar","slug":"zajecar","region":"SE","country":"RS","latitude":"43.90358","longitude":"22.26405","population":49800},{"name":"Zemun","slug":"zemun","region":"SE","country":"RS","latitude":"44.8458","longitude":"20.40116","population":155591},{"name":"Zrenjanin","slug":"zrenjanin","region":"VO","country":"RS","latitude":"45.38361","longitude":"20.38194","population":79773},{"name":"\u0106uprija","slug":"cuprija","region":"SE","country":"RS","latitude":"43.9275","longitude":"21.37","population":20585},{"name":"\u010ca\u010dak","slug":"cacak","region":"SE","country":"RS","latitude":"43.89139","longitude":"20.34972","population":117072},{"name":"\u0160abac","slug":"sabac","region":"SE","country":"RS","latitude":"44.74667","longitude":"19.69","population":55114}]