[{"name":"Bugaragara","slug":"bugaragara","region":"11","country":"RW","latitude":"-1.29289","longitude":"30.40766","population":15732},{"name":"Bugarama","slug":"bugarama","region":"14","country":"RW","latitude":"-2.6924","longitude":"29.0077","population":31086},{"name":"Bushekeri","slug":"bushekeri","region":"14","country":"RW","latitude":"-2.4195","longitude":"29.0908","population":29680},{"name":"Bushenge","slug":"bushenge","region":"14","country":"RW","latitude":"-2.4421","longitude":"28.9824","population":22624},{"name":"Busogo","slug":"busogo","region":"13","country":"RW","latitude":"-1.5584","longitude":"29.5434","population":28264},{"name":"Butare","slug":"butare","region":"15","country":"RW","latitude":"-2.59667","longitude":"29.73944","population":62823},{"name":"Byumba","slug":"byumba","region":"13","country":"RW","latitude":"-1.5763","longitude":"30.0675","population":43134},{"name":"Cyangugu","slug":"cyangugu","region":"14","country":"RW","latitude":"-2.4846","longitude":"28.9075","population":43866},{"name":"Cyato","slug":"cyato","region":"14","country":"RW","latitude":"-2.3871","longitude":"29.1929","population":26996},{"name":"Gihombo","slug":"gihombo","region":"14","country":"RW","latitude":"-2.21896","longitude":"29.2343","population":29843},{"name":"Gikongoro","slug":"gikongoro","region":"15","country":"RW","latitude":"-2.46397","longitude":"29.57389","population":21029},{"name":"Gisenyi","slug":"gisenyi","region":"14","country":"RW","latitude":"-1.70278","longitude":"29.25639","population":172357},{"name":"Gitarama","slug":"gitarama","region":"15","country":"RW","latitude":"-2.07444","longitude":"29.75667","population":87613},{"name":"Gitesi","slug":"gitesi","region":"14","country":"RW","latitude":"-2.1139","longitude":"29.4022","population":24859},{"name":"Kagano","slug":"kagano","region":"14","country":"RW","latitude":"-2.3429","longitude":"29.0912","population":39994},{"name":"Kamuhanda \/ Ruyenzi","slug":"kamuhanda \/ ruyenzi","region":"15","country":"RW","latitude":"-1.96571","longitude":"29.98462","population":16369},{"name":"Karambi","slug":"karambi","region":"14","country":"RW","latitude":"-2.31695","longitude":"29.24413","population":29726},{"name":"Karengera","slug":"karengera","region":"14","country":"RW","latitude":"-2.5169","longitude":"29.0326","population":32504},{"name":"Kayonza","slug":"kayonza","region":"11","country":"RW","latitude":"-1.9509","longitude":"30.5205","population":27059},{"name":"Kibungo","slug":"kibungo","region":"11","country":"RW","latitude":"-2.1597","longitude":"30.5427","population":46240},{"name":"Kibuye","slug":"kibuye","region":"14","country":"RW","latitude":"-2.06028","longitude":"29.34778","population":48024},{"name":"Kigali","slug":"kigali","region":"12","country":"RW","latitude":"-1.94995","longitude":"30.05885","population":1132686},{"name":"Kirambo","slug":"kirambo","region":"14","country":"RW","latitude":"-2.3155","longitude":"29.1415","population":40341},{"name":"Kirimbi","slug":"kirimbi","region":"14","country":"RW","latitude":"-2.26469","longitude":"29.19644","population":25647},{"name":"Kora","slug":"kora","region":"14","country":"RW","latitude":"-1.6101","longitude":"29.445","population":15134},{"name":"Macuba","slug":"macuba","region":"14","country":"RW","latitude":"-2.2933","longitude":"29.1877","population":33319},{"name":"Mahembe","slug":"mahembe","region":"14","country":"RW","latitude":"-2.2386","longitude":"29.2929","population":20043},{"name":"Mugina","slug":"mugina","region":"15","country":"RW","latitude":"-2.1057","longitude":"29.9417","population":18586},{"name":"Muhanga","slug":"muhanga","region":"15","country":"RW","latitude":"-2.02269","longitude":"29.70691","population":82797},{"name":"Mukamira","slug":"mukamira","region":"14","country":"RW","latitude":"-1.61112","longitude":"29.49687","population":19021},{"name":"Mukingo","slug":"mukingo","region":"13","country":"RW","latitude":"-1.5394","longitude":"29.5558","population":15695},{"name":"Musanze","slug":"musanze","region":"13","country":"RW","latitude":"-1.49984","longitude":"29.63497","population":153368},{"name":"Ndera","slug":"ndera","region":"12","country":"RW","latitude":"-1.9495","longitude":"30.1697","population":41764},{"name":"Ngororero","slug":"ngororero","region":"14","country":"RW","latitude":"-1.8628","longitude":"29.62541","population":38823},{"name":"Nyabitekeli","slug":"nyabitekeli","region":"14","country":"RW","latitude":"-2.3541","longitude":"29.0298","population":29293},{"name":"Nyagatare","slug":"nyagatare","region":"11","country":"RW","latitude":"-1.2952","longitude":"30.3226","population":100000},{"name":"Nyamata","slug":"nyamata","region":"11","country":"RW","latitude":"-2.20419","longitude":"30.14494","population":21509},{"name":"Nyanza","slug":"nyanza","region":"15","country":"RW","latitude":"-2.35187","longitude":"29.75089","population":32016},{"name":"Nzega","slug":"nzega","region":"15","country":"RW","latitude":"-2.479","longitude":"29.5564","population":33832},{"name":"Rangiro","slug":"rangiro","region":"14","country":"RW","latitude":"-2.4045","longitude":"29.1606","population":17967},{"name":"Ruhango","slug":"ruhango","region":"15","country":"RW","latitude":"-2.2246","longitude":"29.79088","population":21478},{"name":"Rwamagana","slug":"rwamagana","region":"11","country":"RW","latitude":"-1.9487","longitude":"30.4347","population":47203},{"name":"Shangi","slug":"shangi","region":"14","country":"RW","latitude":"-2.4036","longitude":"29.0059","population":28064},{"name":"Shyorongi","slug":"shyorongi","region":"13","country":"RW","latitude":"-1.85439","longitude":"29.96238","population":43744},{"name":"Umutara","slug":"umutara","region":"11","country":"RW","latitude":"-1.29547","longitude":"30.32297","population":18038}]