[{"name":"Abha","slug":"abha","region":"11","country":"SA","latitude":"18.21639","longitude":"42.50528","population":210886},{"name":"Abqaiq","slug":"abqaiq","region":"06","country":"SA","latitude":"25.93402","longitude":"49.6688","population":29474},{"name":"Ab\u016b \u2018Ar\u012bsh","slug":"abu `arish","region":"17","country":"SA","latitude":"16.96887","longitude":"42.83251","population":49171},{"name":"Ad Daw\u0101dim\u012b","slug":"ad dawadimi","region":"10","country":"SA","latitude":"24.50772","longitude":"44.39237","population":54474},{"name":"Ad Dilam","slug":"ad dilam","region":"10","country":"SA","latitude":"23.99104","longitude":"47.16181","population":35371},{"name":"Ad Dir\u2018\u012byah","slug":"ad dir'iyah","region":"10","country":"SA","latitude":"24.75187","longitude":"46.53874","population":61609},{"name":"Afif","slug":"afif","region":"10","country":"SA","latitude":"23.9065","longitude":"42.91724","population":45525},{"name":"Al Bad\u0101\u2019i\u2018 al Wus\u0163\u00e1","slug":"al bada'i' al wusta","region":"08","country":"SA","latitude":"25.98546","longitude":"43.73659","population":48474},{"name":"Al Bahah","slug":"al bahah","region":"02","country":"SA","latitude":"20.01288","longitude":"41.46767","population":88419},{"name":"Al Ba\u0163\u0163\u0101l\u012byah","slug":"al battaliyah","region":"06","country":"SA","latitude":"25.43333","longitude":"49.63333","population":16606},{"name":"Al Bukayr\u012byah","slug":"al bukayriyah","region":"08","country":"SA","latitude":"26.13915","longitude":"43.65782","population":43229},{"name":"Al Huf\u016bf","slug":"al hufuf","region":"06","country":"SA","latitude":"25.36467","longitude":"49.58764","population":293179},{"name":"Al Jubayl","slug":"al jubayl","region":"06","country":"SA","latitude":"27.0174","longitude":"49.62251","population":237274},{"name":"Al Jum\u016bm","slug":"al jumum","region":"14","country":"SA","latitude":"21.61951","longitude":"39.69659","population":22207},{"name":"Al Khabr\u0101\u2019","slug":"al khabra'","region":"08","country":"SA","latitude":"26.07179","longitude":"43.62497","population":16906},{"name":"Al Khafj\u012b","slug":"al khafji","region":"06","country":"SA","latitude":"28.43905","longitude":"48.49132","population":54857},{"name":"Al Kharj","slug":"al kharj","region":"10","country":"SA","latitude":"24.15541","longitude":"47.33457","population":425300},{"name":"Al L\u012bth","slug":"al lith","region":"14","country":"SA","latitude":"20.14804","longitude":"40.27224","population":72000},{"name":"Al Mithnab","slug":"al mithnab","region":"08","country":"SA","latitude":"25.86012","longitude":"44.22228","population":33341},{"name":"Al Mubarraz","slug":"al mubarraz","region":"06","country":"SA","latitude":"25.40768","longitude":"49.59028","population":290802},{"name":"Al Munayzilah","slug":"al munayzilah","region":"06","country":"SA","latitude":"25.38333","longitude":"49.66667","population":16296},{"name":"Al Qa\u0163\u012bf","slug":"al qatif","region":"06","country":"SA","latitude":"26.56542","longitude":"50.0089","population":98259},{"name":"Al Wajh","slug":"al wajh","region":"19","country":"SA","latitude":"26.23094","longitude":"36.46492","population":26636},{"name":"Al \u2018Aq\u012bq","slug":"al 'aqiq","region":"02","country":"SA","latitude":"20.65","longitude":"41.41667","population":19269},{"name":"Al \u2018Aww\u0101m\u012byah","slug":"al 'awwamiyah","region":"06","country":"SA","latitude":"26.59144","longitude":"49.97951","population":26276},{"name":"Al-`Ula","slug":"al-`ula","region":"05","country":"SA","latitude":"26.60853","longitude":"37.92316","population":32413},{"name":"An Nimas","slug":"an nimas","region":"11","country":"SA","latitude":"19.14547","longitude":"42.12009","population":24153},{"name":"Ar Rass","slug":"ar rass","region":"08","country":"SA","latitude":"25.86944","longitude":"43.4973","population":81728},{"name":"Arar","slug":"arar","region":"15","country":"SA","latitude":"30.97531","longitude":"41.03808","population":148540},{"name":"As Sulayyil","slug":"as sulayyil","region":"10","country":"SA","latitude":"20.46067","longitude":"45.57792","population":24097},{"name":"Ash Shaf\u0101","slug":"ash shafa","region":"14","country":"SA","latitude":"21.07268","longitude":"40.31842","population":72190},{"name":"Az Zulf\u012b","slug":"az zulfi","region":"10","country":"SA","latitude":"26.29945","longitude":"44.81542","population":125000},{"name":"A\u0163 \u0162araf","slug":"at taraf","region":"06","country":"SA","latitude":"25.36232","longitude":"49.72757","population":21386},{"name":"Badr \u1e28unayn","slug":"badr hunayn","region":"05","country":"SA","latitude":"23.78292","longitude":"38.79047","population":27257},{"name":"Baq\u2018\u0101\u2019","slug":"baq'a'","region":"13","country":"SA","latitude":"27.90647","longitude":"42.38898","population":19659},{"name":"Bariq","slug":"bariq","region":"11","country":"SA","latitude":"18.92966","longitude":"41.92953","population":75351},{"name":"Buraydah","slug":"buraydah","region":"08","country":"SA","latitude":"26.32599","longitude":"43.97497","population":745353},{"name":"Dammam","slug":"dammam","region":"06","country":"SA","latitude":"26.43442","longitude":"50.10326","population":1252523},{"name":"Dhahran","slug":"dhahran","region":"06","country":"SA","latitude":"26.28864","longitude":"50.11396","population":99540},{"name":"Duba","slug":"duba","region":"19","country":"SA","latitude":"27.35134","longitude":"35.69014","population":22000},{"name":"Fayf\u0101\u2019","slug":"fayfa'","region":"17","country":"SA","latitude":"17.2806","longitude":"43.13735","population":29793},{"name":"Ha'il","slug":"ha'il","region":"13","country":"SA","latitude":"27.52188","longitude":"41.69073","population":605930},{"name":"Hafar Al-Batin","slug":"hafar al-batin","region":"06","country":"SA","latitude":"28.43279","longitude":"45.97077","population":271642},{"name":"Jeddah","slug":"jeddah","region":"14","country":"SA","latitude":"21.49012","longitude":"39.18624","population":4697000},{"name":"Jizan","slug":"jizan","region":"17","country":"SA","latitude":"16.88917","longitude":"42.55111","population":105198},{"name":"Khamis Mushait","slug":"khamis mushait","region":"11","country":"SA","latitude":"18.3","longitude":"42.73333","population":387553},{"name":"Khobar","slug":"khobar","region":"06","country":"SA","latitude":"26.27944","longitude":"50.20833","population":165799},{"name":"Khulay\u015f","slug":"khulays","region":"14","country":"SA","latitude":"22.15553","longitude":"39.32015","population":20139},{"name":"Layl\u00e1","slug":"layla","region":"10","country":"SA","latitude":"22.29206","longitude":"46.72376","population":29698},{"name":"Madinah","slug":"madinah","region":"05","country":"SA","latitude":"24.46861","longitude":"39.61417","population":1300000},{"name":"Mahd adh Dhahab","slug":"mahd adh dhahab","region":"05","country":"SA","latitude":"23.49966","longitude":"40.88408","population":20272},{"name":"Makkah","slug":"makkah","region":"14","country":"SA","latitude":"21.42664","longitude":"39.82563","population":1578722},{"name":"Najr\u0101n","slug":"najran","region":"16","country":"SA","latitude":"17.49326","longitude":"44.12766","population":505652},{"name":"Qaisumah","slug":"qaisumah","region":"06","country":"SA","latitude":"28.31117","longitude":"46.12729","population":20685},{"name":"Qal\u2018at B\u012bshah","slug":"qal`at bishah","region":"11","country":"SA","latitude":"20.00054","longitude":"42.6052","population":81828},{"name":"Qurayyat","slug":"qurayyat","region":"20","country":"SA","latitude":"31.33176","longitude":"37.34282","population":102903},{"name":"Ra\u1e29\u012bmah","slug":"rahimah","region":"06","country":"SA","latitude":"26.70791","longitude":"50.06194","population":41188},{"name":"Riyadh","slug":"riyadh","region":"10","country":"SA","latitude":"24.68773","longitude":"46.72185","population":4205961},{"name":"Riy\u0101\u1e11 al Khabr\u0101\u2019","slug":"riyad al khabra'","region":"08","country":"SA","latitude":"26.06672","longitude":"43.55344","population":25588},{"name":"Rum\u0101\u1e29","slug":"rumah","region":"10","country":"SA","latitude":"25.56395","longitude":"47.16408","population":25031},{"name":"R\u0101bigh","slug":"rabigh","region":"14","country":"SA","latitude":"22.79856","longitude":"39.03493","population":72928},{"name":"Sabt Alalayah","slug":"sabt alalayah","region":"11","country":"SA","latitude":"19.5773","longitude":"41.96357","population":100000},{"name":"Sakakah","slug":"sakakah","region":"20","country":"SA","latitude":"29.96974","longitude":"40.20641","population":128332},{"name":"Sar\u0101t \u2018Ab\u012bdah","slug":"sarat 'abidah","region":"11","country":"SA","latitude":"18.089","longitude":"43.132","population":19855},{"name":"Sayh\u0101t","slug":"sayhat","region":"06","country":"SA","latitude":"26.48345","longitude":"50.04849","population":66702},{"name":"Shaqra","slug":"shaqra","region":"10","country":"SA","latitude":"25.24019","longitude":"45.25104","population":32215},{"name":"Sul\u0163\u0101nah","slug":"sultanah","region":"05","country":"SA","latitude":"24.49258","longitude":"39.58572","population":946697},{"name":"Tabuk","slug":"tabuk","region":"19","country":"SA","latitude":"28.3998","longitude":"36.57151","population":667000},{"name":"Taym\u0101\u2019","slug":"tayma'","region":"19","country":"SA","latitude":"27.62233","longitude":"38.53882","population":37579},{"name":"Ta\u2019if","slug":"ta'if","region":"14","country":"SA","latitude":"21.27028","longitude":"40.41583","population":688693},{"name":"Thuqbah","slug":"thuqbah","region":"06","country":"SA","latitude":"26.26022","longitude":"50.20486","population":248888},{"name":"Thuwal","slug":"thuwal","region":"14","country":"SA","latitude":"22.28272","longitude":"39.11245","population":26957},{"name":"Turabah","slug":"turabah","region":"14","country":"SA","latitude":"21.21406","longitude":"41.6331","population":23235},{"name":"Turaif","slug":"turaif","region":"15","country":"SA","latitude":"31.67252","longitude":"38.66374","population":40819},{"name":"Turubah","slug":"turubah","region":"13","country":"SA","latitude":"28.25849","longitude":"42.92457","population":28279},{"name":"T\u0101r\u016bt","slug":"tarut","region":"06","country":"SA","latitude":"26.5733","longitude":"50.04028","population":85371},{"name":"Umluj","slug":"umluj","region":"19","country":"SA","latitude":"25.02126","longitude":"37.2685","population":33874},{"name":"Unaizah","slug":"unaizah","region":"08","country":"SA","latitude":"26.1","longitude":"44","population":183319},{"name":"Yanbu","slug":"yanbu","region":"05","country":"SA","latitude":"24.08954","longitude":"38.0618","population":200161},{"name":"\u015eaby\u0101","slug":"sabya","region":"17","country":"SA","latitude":"17.1495","longitude":"42.62537","population":54108},{"name":"\u015eafw\u00e1","slug":"safwa","region":"06","country":"SA","latitude":"26.6497","longitude":"49.95522","population":45876},{"name":"\u015e\u0101mitah","slug":"samitah","region":"17","country":"SA","latitude":"16.59601","longitude":"42.94435","population":26945},{"name":"\u0162ubarjal","slug":"tubarjal","region":"20","country":"SA","latitude":"30.49987","longitude":"38.21603","population":40019},{"name":"\u0162urayf","slug":"turayf","region":"15","country":"SA","latitude":"31.672","longitude":"38.663","population":66014},{"name":"\u1e28aql","slug":"haql","region":"20","country":"SA","latitude":"29.28627","longitude":"34.94687","population":25649},{"name":"\u2018Inak","slug":"'inak","region":"06","country":"SA","latitude":"26.51959","longitude":"50.02715","population":20038},{"name":"\u2018Irqah","slug":"'irqah","region":"10","country":"SA","latitude":"24.68029","longitude":"46.61109","population":42179},{"name":"\u2018Uy\u016bn al Jiw\u0101\u2019","slug":"'uyun al jiwa'","region":"08","country":"SA","latitude":"26.49829","longitude":"43.6312","population":15619}]