[{"name":"Anak Bukit","slug":"anak bukit","region":"","country":"SG","latitude":"1.34067","longitude":"103.77301","population":22960},{"name":"Ang Mo Kio New Town","slug":"ang mo kio new town","region":"02","country":"SG","latitude":"1.38028","longitude":"103.83972","population":159340},{"name":"Bangkit","slug":"bangkit","region":"","country":"SG","latitude":"1.37982","longitude":"103.77251","population":21010},{"name":"Bedok New Town","slug":"bedok new town","region":"04","country":"SG","latitude":"1.32639","longitude":"103.94167","population":276990},{"name":"Bishan New Town","slug":"bishan new town","region":"00","country":"SG","latitude":"1.3504","longitude":"103.84875","population":87320},{"name":"Boon Lay","slug":"boon lay","region":"00","country":"SG","latitude":"1.311","longitude":"103.694","population":19160},{"name":"Brickworks Estate","slug":"brickworks estate","region":"00","country":"SG","latitude":"1.28722","longitude":"103.80833","population":19820},{"name":"Bukit Batok New Town","slug":"bukit batok new town","region":"00","country":"SG","latitude":"1.35903","longitude":"103.76368","population":158030},{"name":"Bukit Merah Estate","slug":"bukit merah estate","region":"00","country":"SG","latitude":"1.28417","longitude":"103.82306","population":151250},{"name":"Bukit Panjang New Town","slug":"bukit panjang new town","region":"05","country":"SG","latitude":"1.37972","longitude":"103.76472","population":138050},{"name":"Bukit Timah","slug":"bukit timah","region":"00","country":"SG","latitude":"1.328","longitude":"103.791","population":77860},{"name":"Choa Chu Kang New Town","slug":"choa chu kang new town","region":"03","country":"SG","latitude":"1.3825","longitude":"103.74972","population":190890},{"name":"Clementi Housing Estate","slug":"clementi housing estate","region":"00","country":"SG","latitude":"1.31583","longitude":"103.76472","population":92420},{"name":"Eunos","slug":"eunos","region":"","country":"SG","latitude":"1.32252","longitude":"103.89822","population":29920},{"name":"Fajar","slug":"fajar","region":"","country":"SG","latitude":"1.38436","longitude":"103.77059","population":26420},{"name":"Geylang","slug":"geylang","region":"00","country":"SG","latitude":"1.31953","longitude":"103.88689","population":110201},{"name":"Hong Kah","slug":"hong kah","region":"00","country":"SG","latitude":"1.35944","longitude":"103.72278","population":26150},{"name":"Hougang New Town","slug":"hougang new town","region":"00","country":"SG","latitude":"1.35667","longitude":"103.89083","population":227560},{"name":"Jelebu","slug":"jelebu","region":"","country":"SG","latitude":"1.37953","longitude":"103.76286","population":29960},{"name":"Jurong East","slug":"jurong east","region":"04","country":"SG","latitude":"1.32888","longitude":"103.73995","population":78600},{"name":"Jurong Town","slug":"jurong town","region":"05","country":"SG","latitude":"1.33417","longitude":"103.72278","population":262730},{"name":"Jurong West","slug":"jurong west","region":"00","country":"SG","latitude":"1.35028","longitude":"103.72278","population":257470},{"name":"Kaki Bukit Estate","slug":"kaki bukit estate","region":"00","country":"SG","latitude":"1.3375","longitude":"103.90917","population":37150},{"name":"Kallang","slug":"kallang","region":"00","country":"SG","latitude":"1.33333","longitude":"103.86667","population":101290},{"name":"Kampong Loyang","slug":"kampong loyang","region":"00","country":"SG","latitude":"1.37778","longitude":"103.95944","population":15340},{"name":"Kampong Pasir Ris","slug":"kampong pasir ris","region":"00","country":"SG","latitude":"1.37833","longitude":"103.93194","population":145150},{"name":"Kangkar","slug":"kangkar","region":"00","country":"SG","latitude":"1.37611","longitude":"103.90167","population":32290},{"name":"Keat Hong Village","slug":"keat hong village","region":"00","country":"SG","latitude":"1.37778","longitude":"103.74417","population":39370},{"name":"Kembangan","slug":"kembangan","region":"00","country":"SG","latitude":"1.32228","longitude":"103.91135","population":130252},{"name":"Loyang","slug":"loyang","region":"00","country":"SG","latitude":"1.37861","longitude":"103.97167","population":15340},{"name":"MacPherson","slug":"macpherson","region":"01","country":"SG","latitude":"1.32713","longitude":"103.88413","population":28360},{"name":"Margaret Drive","slug":"margaret drive","region":"","country":"SG","latitude":"1.29682","longitude":"103.80839","population":24160},{"name":"Marine Parade","slug":"marine parade","region":"03","country":"SG","latitude":"1.30306","longitude":"103.90778","population":46690},{"name":"Marsiling","slug":"marsiling","region":"03","country":"SG","latitude":"1.43254","longitude":"103.77407","population":22000},{"name":"Matilda Estate","slug":"matilda estate","region":"00","country":"SG","latitude":"1.39944","longitude":"103.90278","population":52200},{"name":"Novena","slug":"novena","region":"02","country":"SG","latitude":"1.31697","longitude":"103.8438","population":49330},{"name":"Outram Park","slug":"outram park","region":"00","country":"SG","latitude":"1.2825","longitude":"103.83806","population":18340},{"name":"Pasir Ris New Town","slug":"pasir ris new town","region":"04","country":"SG","latitude":"1.37222","longitude":"103.94778","population":54420},{"name":"Paya Lebar","slug":"paya lebar","region":"00","country":"SG","latitude":"1.35389","longitude":"103.89056","population":16920},{"name":"Peng Siang","slug":"peng siang","region":"","country":"SG","latitude":"1.37995","longitude":"103.74066","population":33860},{"name":"Punggol","slug":"punggol","region":"02","country":"SG","latitude":"1.41444","longitude":"103.90694","population":199400},{"name":"Queenstown Estate","slug":"queenstown estate","region":"00","country":"SG","latitude":"1.29417","longitude":"103.8025","population":95930},{"name":"Saujana","slug":"saujana","region":"","country":"SG","latitude":"1.38254","longitude":"103.7679","population":25000},{"name":"Sembawang Estate","slug":"sembawang estate","region":"00","country":"SG","latitude":"1.45083","longitude":"103.82861","population":110090},{"name":"Sengkang New Town","slug":"sengkang new town","region":"02","country":"SG","latitude":"1.39167","longitude":"103.89444","population":244600},{"name":"Senja","slug":"senja","region":"","country":"SG","latitude":"1.38516","longitude":"103.76073","population":23830},{"name":"Serangoon","slug":"serangoon","region":"00","country":"SG","latitude":"1.36278","longitude":"103.8975","population":116900},{"name":"Serangoon Garden","slug":"serangoon garden","region":"00","country":"SG","latitude":"1.36389","longitude":"103.8575","population":36080},{"name":"Serangoon New Town","slug":"serangoon new town","region":"00","country":"SG","latitude":"1.35083","longitude":"103.87083","population":116900},{"name":"Simei New Town","slug":"simei new town","region":"00","country":"SG","latitude":"1.34111","longitude":"103.95611","population":39450},{"name":"Singapore","slug":"singapore","region":"","country":"SG","latitude":"1.28967","longitude":"103.85007","population":5638700},{"name":"Sungai Simpang","slug":"sungai simpang","region":"03","country":"SG","latitude":"1.43806","longitude":"103.82667","population":20000},{"name":"Tampines Estate","slug":"tampines estate","region":"00","country":"SG","latitude":"1.35806","longitude":"103.94028","population":265340},{"name":"Tampines New Town","slug":"tampines new town","region":"00","country":"SG","latitude":"1.34917","longitude":"103.94972","population":259900},{"name":"Tanglin","slug":"tanglin","region":"00","country":"SG","latitude":"1.31667","longitude":"103.81667","population":21810},{"name":"Teck Whye","slug":"teck whye","region":"","country":"SG","latitude":"1.3803","longitude":"103.75197","population":24560},{"name":"Telok Blangah","slug":"telok blangah","region":"00","country":"SG","latitude":"1.27472","longitude":"103.81167","population":19320},{"name":"Thomson","slug":"thomson","region":"00","country":"SG","latitude":"1.34917","longitude":"103.84361","population":29390},{"name":"Tiong Bahru Estate","slug":"tiong bahru estate","region":"01","country":"SG","latitude":"1.28333","longitude":"103.83278","population":15120},{"name":"Toa Payoh New Town","slug":"toa payoh new town","region":"00","country":"SG","latitude":"1.33611","longitude":"103.85","population":120650},{"name":"Ulu Bedok","slug":"ulu bedok","region":"00","country":"SG","latitude":"1.33333","longitude":"103.93333","population":276990},{"name":"Woodlands","slug":"woodlands","region":"03","country":"SG","latitude":"1.43801","longitude":"103.78877","population":255180},{"name":"Yew Tee","slug":"yew tee","region":"03","country":"SG","latitude":"1.39665","longitude":"103.74738","population":40390},{"name":"Yio Chu Kang","slug":"yio chu kang","region":"00","country":"SG","latitude":"1.39111","longitude":"103.85139","population":28350},{"name":"Yishun New Town","slug":"yishun new town","region":"03","country":"SG","latitude":"1.43333","longitude":"103.83111","population":221610}]