[{"name":"Afgooye","slug":"afgooye","region":"14","country":"SO","latitude":"2.1381","longitude":"45.1212","population":65461},{"name":"Baardheere","slug":"baardheere","region":"06","country":"SO","latitude":"2.34464","longitude":"42.27644","population":42240},{"name":"Baidoa","slug":"baidoa","region":"04","country":"SO","latitude":"3.11383","longitude":"43.6498","population":129839},{"name":"Baki","slug":"baki","region":"21","country":"SO","latitude":"9.89206","longitude":"43.38531","population":20000},{"name":"Balanbale","slug":"balanbale","region":"05","country":"SO","latitude":"5.76897","longitude":"45.76297","population":68000},{"name":"Beled Hawo","slug":"beled hawo","region":"06","country":"SO","latitude":"3.9284","longitude":"41.87997","population":73000},{"name":"Beledweyne","slug":"beledweyne","region":"07","country":"SO","latitude":"4.73583","longitude":"45.20361","population":55410},{"name":"Berbera","slug":"berbera","region":"20","country":"SO","latitude":"10.43959","longitude":"45.01432","population":242344},{"name":"Borama","slug":"borama","region":"21","country":"SO","latitude":"9.93611","longitude":"43.18278","population":597842},{"name":"Bosaso","slug":"bosaso","region":"03","country":"SO","latitude":"11.28421","longitude":"49.18158","population":74287},{"name":"Burao","slug":"burao","region":"19","country":"SO","latitude":"9.52213","longitude":"45.53363","population":99270},{"name":"Buulobarde","slug":"buulobarde","region":"07","country":"SO","latitude":"3.85375","longitude":"45.56744","population":16928},{"name":"Buurhakaba","slug":"buurhakaba","region":"04","country":"SO","latitude":"2.80257","longitude":"44.07805","population":27792},{"name":"Cabudwaaq","slug":"cabudwaaq","region":"05","country":"SO","latitude":"6.24585","longitude":"46.2247","population":120000},{"name":"Ceeldheer","slug":"ceeldheer","region":"05","country":"SO","latitude":"3.84878","longitude":"47.18064","population":26562},{"name":"Ceerigaabo","slug":"ceerigaabo","region":"12","country":"SO","latitude":"10.61616","longitude":"47.36795","population":33853},{"name":"Dhabad","slug":"dhabad","region":"05","country":"SO","latitude":"6.43167","longitude":"46.46194","population":36000},{"name":"Dhamas","slug":"dhamas","region":"06","country":"SO","latitude":"3.15296","longitude":"41.33565","population":27000},{"name":"Diinsoor","slug":"diinsoor","region":"04","country":"SO","latitude":"2.4085","longitude":"42.9771","population":20000},{"name":"El Dibir","slug":"el dibir","region":"03","country":"SO","latitude":"11.76667","longitude":"51.21667","population":200000},{"name":"Eyl","slug":"eyl","region":"18","country":"SO","latitude":"7.9803","longitude":"49.8164","population":18904},{"name":"Gaalkacyo","slug":"gaalkacyo","region":"10","country":"SO","latitude":"6.76972","longitude":"47.43083","population":61200},{"name":"Garoowe","slug":"garoowe","region":"18","country":"SO","latitude":"8.40207","longitude":"48.48284","population":57300},{"name":"Gebiley","slug":"gebiley","region":"20","country":"SO","latitude":"9.70028","longitude":"43.62444","population":77320},{"name":"Hargeysa","slug":"hargeysa","region":"20","country":"SO","latitude":"9.56","longitude":"44.065","population":477876},{"name":"Jamaame","slug":"jamaame","region":"09","country":"SO","latitude":"0.06968","longitude":"42.74497","population":42270},{"name":"Jawhar","slug":"jawhar","region":"13","country":"SO","latitude":"2.78087","longitude":"45.50048","population":47086},{"name":"Jilib","slug":"jilib","region":"08","country":"SO","latitude":"0.48829","longitude":"42.78535","population":43694},{"name":"Kaambooni","slug":"kaambooni","region":"09","country":"SO","latitude":"-1.63772","longitude":"41.5866","population":79000},{"name":"Kismayo","slug":"kismayo","region":"09","country":"SO","latitude":"-0.35817","longitude":"42.54536","population":234852},{"name":"Laascaanood","slug":"laascaanood","region":"22","country":"SO","latitude":"8.47738","longitude":"47.35971","population":60100},{"name":"Luuq","slug":"luuq","region":"06","country":"SO","latitude":"3.80315","longitude":"42.54417","population":33820},{"name":"Marka","slug":"marka","region":"14","country":"SO","latitude":"1.71594","longitude":"44.77166","population":230100},{"name":"Mogadishu","slug":"mogadishu","region":"02","country":"SO","latitude":"2.03711","longitude":"45.34375","population":2587183},{"name":"Qandala","slug":"qandala","region":"03","country":"SO","latitude":"11.47197","longitude":"49.87282","population":19300},{"name":"Qoryooley","slug":"qoryooley","region":"14","country":"SO","latitude":"1.78784","longitude":"44.52999","population":51720},{"name":"Ruqi","slug":"ruqi","region":"21","country":"SO","latitude":"9.97293","longitude":"43.4276","population":148702},{"name":"Saaxo","slug":"saaxo","region":"10","country":"SO","latitude":"6.77287","longitude":"46.79689","population":26000},{"name":"Saylac","slug":"saylac","region":"21","country":"SO","latitude":"11.3539","longitude":"43.4731","population":18600},{"name":"Tog Wajaale","slug":"tog wajaale","region":"20","country":"SO","latitude":"9.59972","longitude":"43.335","population":22700},{"name":"Wanlaweyn","slug":"wanlaweyn","region":"14","country":"SO","latitude":"2.6185","longitude":"44.8938","population":22022}]