[{"name":"Ani\u00e9","slug":"anie","region":"25","country":"TG","latitude":"7.75","longitude":"1.2","population":37398},{"name":"An\u00e9ho","slug":"aneho","region":"24","country":"TG","latitude":"6.22798","longitude":"1.5919","population":47579},{"name":"Atakpam\u00e9","slug":"atakpame","region":"25","country":"TG","latitude":"7.53333","longitude":"1.13333","population":80683},{"name":"Badou","slug":"badou","region":"25","country":"TG","latitude":"7.58333","longitude":"0.6","population":24000},{"name":"Bafilo","slug":"bafilo","region":"23","country":"TG","latitude":"9.35","longitude":"1.26667","population":22543},{"name":"Bassar","slug":"bassar","region":"23","country":"TG","latitude":"9.25025","longitude":"0.78213","population":61845},{"name":"Dapaong","slug":"dapaong","region":"26","country":"TG","latitude":"10.86225","longitude":"0.20762","population":58071},{"name":"Kara","slug":"kara","region":"23","country":"TG","latitude":"9.55111","longitude":"1.18611","population":104207},{"name":"Kpalim\u00e9","slug":"kpalime","region":"25","country":"TG","latitude":"6.9","longitude":"0.63333","population":75084},{"name":"Lom\u00e9","slug":"lome","region":"24","country":"TG","latitude":"6.12874","longitude":"1.22154","population":2188376},{"name":"Mango","slug":"mango","region":"26","country":"TG","latitude":"10.35917","longitude":"0.47083","population":37748},{"name":"Niamtougou","slug":"niamtougou","region":"23","country":"TG","latitude":"9.76806","longitude":"1.10528","population":23261},{"name":"Nots\u00e9","slug":"notse","region":"25","country":"TG","latitude":"6.95","longitude":"1.16667","population":35039},{"name":"Sinkass\u00e9","slug":"sinkasse","region":"26","country":"TG","latitude":"11.10389","longitude":"0.00944","population":26926},{"name":"Sokod\u00e9","slug":"sokode","region":"22","country":"TG","latitude":"8.98333","longitude":"1.13333","population":117811},{"name":"Sotouboua","slug":"sotouboua","region":"22","country":"TG","latitude":"8.5634","longitude":"0.98399","population":24332},{"name":"Tabligbo","slug":"tabligbo","region":"24","country":"TG","latitude":"6.58333","longitude":"1.5","population":22304},{"name":"Tchamba","slug":"tchamba","region":"22","country":"TG","latitude":"9.03333","longitude":"1.41667","population":25668},{"name":"Ts\u00e9vi\u00e9","slug":"tsevie","region":"24","country":"TG","latitude":"6.42611","longitude":"1.21333","population":55775},{"name":"Vogan","slug":"vogan","region":"24","country":"TG","latitude":"6.33333","longitude":"1.53333","population":20569}]