[{"name":"Arima","slug":"arima","region":"01","country":"TT","latitude":"10.63737","longitude":"-61.28228","population":35000},{"name":"Chaguanas","slug":"chaguanas","region":"CHA","country":"TT","latitude":"10.51667","longitude":"-61.41667","population":67433},{"name":"Diego Martin","slug":"diego martin","region":"DMN","country":"TT","latitude":"10.72081","longitude":"-61.56616","population":25370},{"name":"Laventille","slug":"laventille","region":"SJL","country":"TT","latitude":"10.64917","longitude":"-61.49889","population":21000},{"name":"Marabella","slug":"marabella","region":"10","country":"TT","latitude":"10.30618","longitude":"-61.44671","population":26700},{"name":"Mon Repos","slug":"mon repos","region":"10","country":"TT","latitude":"10.27979","longitude":"-61.4459","population":56380},{"name":"Paradise","slug":"paradise","region":"TUP","country":"TT","latitude":"10.65298","longitude":"-61.36298","population":15067},{"name":"Point Fortin","slug":"point fortin","region":"PTF","country":"TT","latitude":"10.17411","longitude":"-61.68407","population":19056},{"name":"Port of Spain","slug":"port of spain","region":"05","country":"TT","latitude":"10.66668","longitude":"-61.51889","population":49031},{"name":"Rio Claro","slug":"rio claro","region":"03","country":"TT","latitude":"10.30594","longitude":"-61.17556","population":35650},{"name":"San Fernando","slug":"san fernando","region":"10","country":"TT","latitude":"10.27969","longitude":"-61.46835","population":55419},{"name":"Sangre Grande","slug":"sangre grande","region":"SGE","country":"TT","latitude":"10.58705","longitude":"-61.13008","population":15968},{"name":"Scarborough","slug":"scarborough","region":"11","country":"TT","latitude":"11.18229","longitude":"-60.73525","population":17000},{"name":"Tunapuna","slug":"tunapuna","region":"TUP","country":"TT","latitude":"10.65245","longitude":"-61.38878","population":17758}]