[{"name":"Bade","slug":"bade","region":"04","country":"TW","latitude":"24.92981","longitude":"121.28372","population":209148},{"name":"Banqiao","slug":"banqiao","region":"03","country":"TW","latitude":"25.01427","longitude":"121.46719","population":551221},{"name":"Beidou","slug":"beidou","region":"04","country":"TW","latitude":"23.87292","longitude":"120.52426","population":33289},{"name":"Beigang","slug":"beigang","region":"04","country":"TW","latitude":"23.5701","longitude":"120.30162","population":33300},{"name":"Budai","slug":"budai","region":"04","country":"TW","latitude":"23.37795","longitude":"120.16154","population":19268},{"name":"Buzi","slug":"buzi","region":"04","country":"TW","latitude":"24.21013","longitude":"120.5725","population":40467},{"name":"Caotun","slug":"caotun","region":"04","country":"TW","latitude":"23.97699","longitude":"120.68766","population":96838},{"name":"Chang-hua","slug":"chang-hua","region":"04","country":"TW","latitude":"24.07327","longitude":"120.56276","population":226564},{"name":"Changhua","slug":"changhua","region":"04","country":"TW","latitude":"24.0692","longitude":"120.5512","population":226564},{"name":"Chaozhou","slug":"chaozhou","region":"04","country":"TW","latitude":"22.54987","longitude":"120.54067","population":53338},{"name":"Chiayi City","slug":"chiayi city","region":"04","country":"TW","latitude":"23.47917","longitude":"120.44889","population":263188},{"name":"Citong","slug":"citong","region":"04","country":"TW","latitude":"23.75751","longitude":"120.49965","population":24998},{"name":"Danshui","slug":"danshui","region":"03","country":"TW","latitude":"25.17196","longitude":"121.4429","population":189271},{"name":"Daxi","slug":"daxi","region":"04","country":"TW","latitude":"24.88373","longitude":"121.29043","population":94222},{"name":"Donggang","slug":"donggang","region":"04","country":"TW","latitude":"22.46515","longitude":"120.44927","population":47746},{"name":"Douliu","slug":"douliu","region":"04","country":"TW","latitude":"23.70944","longitude":"120.54333","population":107924},{"name":"Erlin","slug":"erlin","region":"04","country":"TW","latitude":"23.90054","longitude":"120.3689","population":43652},{"name":"Fengshan","slug":"fengshan","region":"02","country":"TW","latitude":"22.62659","longitude":"120.36126","population":356463},{"name":"Hengchun","slug":"hengchun","region":"04","country":"TW","latitude":"22.00417","longitude":"120.74389","population":29702},{"name":"Hsinchu","slug":"hsinchu","region":"04","country":"TW","latitude":"24.80361","longitude":"120.96861","population":453536},{"name":"Hualien City","slug":"hualien city","region":"04","country":"TW","latitude":"23.97694","longitude":"121.60444","population":99458},{"name":"Jincheng","slug":"jincheng","region":"01","country":"TW","latitude":"24.43415","longitude":"118.31712","population":37507},{"name":"Jinhu","slug":"jinhu","region":"01","country":"TW","latitude":"24.43944","longitude":"118.42111","population":30826},{"name":"Kaohsiung","slug":"kaohsiung","region":"02","country":"TW","latitude":"22.61626","longitude":"120.31333","population":2737660},{"name":"Keelung","slug":"keelung","region":"04","country":"TW","latitude":"25.13089","longitude":"121.74094","population":362487},{"name":"Linnei","slug":"linnei","region":"04","country":"TW","latitude":"23.7615","longitude":"120.61885","population":16856},{"name":"Lugu","slug":"lugu","region":"04","country":"TW","latitude":"23.74639","longitude":"120.7525","population":17746},{"name":"Magong","slug":"magong","region":"04","country":"TW","latitude":"23.5654","longitude":"119.58627","population":63745},{"name":"Miaoli","slug":"miaoli","region":"04","country":"TW","latitude":"24.56427","longitude":"120.82367","population":86327},{"name":"Nantou","slug":"nantou","region":"04","country":"TW","latitude":"23.91566","longitude":"120.66387","population":105682},{"name":"Neihu","slug":"neihu","region":"04","country":"TW","latitude":"25.0815","longitude":"121.58809","population":274538},{"name":"Neili","slug":"neili","region":"04","country":"TW","latitude":"24.9725","longitude":"121.26139","population":112845},{"name":"New Taipei City","slug":"new taipei city","region":"03","country":"TW","latitude":"25.06199","longitude":"121.45703","population":4004367},{"name":"Pitou","slug":"pitou","region":"04","country":"TW","latitude":"23.895","longitude":"120.47858","population":29314},{"name":"Puli","slug":"puli","region":"04","country":"TW","latitude":"23.96639","longitude":"120.96952","population":86406},{"name":"Sanxia","slug":"sanxia","region":"03","country":"TW","latitude":"24.93448","longitude":"121.37139","population":115185},{"name":"Sanzhi","slug":"sanzhi","region":"03","country":"TW","latitude":"25.25782","longitude":"121.50182","population":23452},{"name":"Shetou","slug":"shetou","region":"04","country":"TW","latitude":"23.89804","longitude":"120.58831","population":36565},{"name":"Shulin","slug":"shulin","region":"03","country":"TW","latitude":"24.99085","longitude":"121.42199","population":180044},{"name":"Taibao","slug":"taibao","region":"04","country":"TW","latitude":"23.45944","longitude":"120.33222","population":38696},{"name":"Taichung","slug":"taichung","region":"04","country":"TW","latitude":"24.1469","longitude":"120.6839","population":2850285},{"name":"Tainan","slug":"tainan","region":"04","country":"TW","latitude":"22.99083","longitude":"120.21333","population":1856642},{"name":"Taipei","slug":"taipei","region":"04","country":"TW","latitude":"25.05306","longitude":"121.52639","population":7871900},{"name":"Taitung","slug":"taitung","region":"04","country":"TW","latitude":"22.75991","longitude":"121.14457","population":103260},{"name":"Taoyuan","slug":"taoyuan","region":"04","country":"TW","latitude":"24.9896","longitude":"121.3187","population":475798},{"name":"Taoyuan City","slug":"taoyuan city","region":"04","country":"TW","latitude":"24.99368","longitude":"121.29696","population":402014},{"name":"Tianwei","slug":"tianwei","region":"04","country":"TW","latitude":"23.8927","longitude":"120.524","population":26063},{"name":"Tianzhong","slug":"tianzhong","region":"04","country":"TW","latitude":"23.85808","longitude":"120.5857","population":34903},{"name":"Toufen","slug":"toufen","region":"04","country":"TW","latitude":"24.68753","longitude":"120.90942","population":106310},{"name":"Wufeng","slug":"wufeng","region":"04","country":"TW","latitude":"24.0637","longitude":"120.698","population":65567},{"name":"Xihu","slug":"xihu","region":"04","country":"TW","latitude":"23.95683","longitude":"120.47918","population":54033},{"name":"Xiluo","slug":"xiluo","region":"04","country":"TW","latitude":"23.79891","longitude":"120.46337","population":37181},{"name":"Xingang","slug":"xingang","region":"04","country":"TW","latitude":"23.55736","longitude":"120.34603","population":30543},{"name":"Xinying","slug":"xinying","region":"04","country":"TW","latitude":"23.30694","longitude":"120.31056","population":74972},{"name":"Xiulin","slug":"xiulin","region":"04","country":"TW","latitude":"24.12019","longitude":"121.6263","population":17068},{"name":"Xizhi","slug":"xizhi","region":"03","country":"TW","latitude":"25.06615","longitude":"121.65985","population":204619},{"name":"Xizhou","slug":"xizhou","region":"04","country":"TW","latitude":"24.27667","longitude":"120.68917","population":28597},{"name":"Yilan","slug":"yilan","region":"04","country":"TW","latitude":"24.757","longitude":"121.753","population":94188},{"name":"Yingge","slug":"yingge","region":"03","country":"TW","latitude":"24.95608","longitude":"121.3507","population":87920},{"name":"Yongjing","slug":"yongjing","region":"04","country":"TW","latitude":"23.92148","longitude":"120.54594","population":35365},{"name":"Yongkang","slug":"yongkang","region":"04","country":"TW","latitude":"23.02444","longitude":"120.25556","population":233730},{"name":"Yuanlin","slug":"yuanlin","region":"04","country":"TW","latitude":"23.95671","longitude":"120.57608","population":124725},{"name":"Yujing","slug":"yujing","region":"04","country":"TW","latitude":"23.12493","longitude":"120.46138","population":16597},{"name":"Zhongxing New Village","slug":"zhongxing new village","region":"04","country":"TW","latitude":"23.95908","longitude":"120.68516","population":25549},{"name":"Zhubei","slug":"zhubei","region":"04","country":"TW","latitude":"24.83833","longitude":"121.00778","population":212695},{"name":"Zhudong","slug":"zhudong","region":"04","country":"TW","latitude":"24.73167","longitude":"121.09083","population":96518},{"name":"Zhushan","slug":"zhushan","region":"04","country":"TW","latitude":"23.75551","longitude":"120.68203","population":44083}]