[{"name":"Acarigua","slug":"acarigua","region":"18","country":"VE","latitude":"9.55451","longitude":"-69.19564","population":188278},{"name":"Achaguas","slug":"achaguas","region":"03","country":"VE","latitude":"7.77917","longitude":"-68.22373","population":45311},{"name":"Altagracia de Orituco","slug":"altagracia de orituco","region":"12","country":"VE","latitude":"9.86005","longitude":"-66.38139","population":68207},{"name":"Alto Barinas","slug":"alto barinas","region":"05","country":"VE","latitude":"8.5931","longitude":"-70.2261","population":284289},{"name":"Anaco","slug":"anaco","region":"02","country":"VE","latitude":"9.42958","longitude":"-64.46428","population":139397},{"name":"Aragua de Barcelona","slug":"aragua de barcelona","region":"02","country":"VE","latitude":"9.45588","longitude":"-64.82928","population":34048},{"name":"Araure","slug":"araure","region":"18","country":"VE","latitude":"9.58144","longitude":"-69.23851","population":181820},{"name":"Araya","slug":"araya","region":"19","country":"VE","latitude":"10.57998","longitude":"-64.25548","population":23693},{"name":"Aroa","slug":"aroa","region":"22","country":"VE","latitude":"10.43949","longitude":"-68.89496","population":35508},{"name":"Bailadores","slug":"bailadores","region":"14","country":"VE","latitude":"8.25347","longitude":"-71.82818","population":20113},{"name":"Barcelona","slug":"barcelona","region":"02","country":"VE","latitude":"10.1384","longitude":"-64.68769","population":815141},{"name":"Barinas","slug":"barinas","region":"05","country":"VE","latitude":"8.62064","longitude":"-70.23105","population":397279},{"name":"Barinitas","slug":"barinitas","region":"05","country":"VE","latitude":"8.76171","longitude":"-70.41199","population":51556},{"name":"Barquisimeto","slug":"barquisimeto","region":"13","country":"VE","latitude":"10.0647","longitude":"-69.35703","population":1240714},{"name":"Barrancas","slug":"barrancas","region":"05","country":"VE","latitude":"8.76962","longitude":"-70.11086","population":24354},{"name":"Barrancas","slug":"barrancas","region":"16","country":"VE","latitude":"8.6989","longitude":"-62.19656","population":19474},{"name":"Baruta","slug":"baruta","region":"15","country":"VE","latitude":"10.43424","longitude":"-66.87558","population":244216},{"name":"Bejuma","slug":"bejuma","region":"07","country":"VE","latitude":"10.17383","longitude":"-68.25892","population":34618},{"name":"Biruaca","slug":"biruaca","region":"03","country":"VE","latitude":"7.84483","longitude":"-67.51679","population":76553},{"name":"Boconoito","slug":"boconoito","region":"18","country":"VE","latitude":"8.84659","longitude":"-69.98032","population":18086},{"name":"Bocon\u00f3","slug":"bocono","region":"21","country":"VE","latitude":"9.25385","longitude":"-70.25105","population":68990},{"name":"Boraure","slug":"boraure","region":"22","country":"VE","latitude":"10.24752","longitude":"-68.76966","population":21588},{"name":"Cabimas","slug":"cabimas","region":"23","country":"VE","latitude":"10.39907","longitude":"-71.45206","population":351736},{"name":"Cabudare","slug":"cabudare","region":"13","country":"VE","latitude":"10.02658","longitude":"-69.26203","population":102686},{"name":"Cagua","slug":"cagua","region":"04","country":"VE","latitude":"10.18634","longitude":"-67.45935","population":119033},{"name":"Caicara","slug":"caicara","region":"16","country":"VE","latitude":"9.81755","longitude":"-63.61331","population":23625},{"name":"Caicara del Orinoco","slug":"caicara del orinoco","region":"06","country":"VE","latitude":"7.63501","longitude":"-66.16815","population":67277},{"name":"Caja Seca","slug":"caja seca","region":"23","country":"VE","latitude":"9.14151","longitude":"-71.06741","population":34165},{"name":"Calabozo","slug":"calabozo","region":"12","country":"VE","latitude":"8.92416","longitude":"-67.42929","population":168605},{"name":"Camagu\u00e1n","slug":"camaguan","region":"12","country":"VE","latitude":"8.10732","longitude":"-67.60738","population":20791},{"name":"Cantaura","slug":"cantaura","region":"02","country":"VE","latitude":"9.30571","longitude":"-64.35841","population":68885},{"name":"Capacho Nuevo","slug":"capacho nuevo","region":"20","country":"VE","latitude":"7.82472","longitude":"-72.3084","population":40169},{"name":"Caraballeda","slug":"caraballeda","region":"26","country":"VE","latitude":"10.61216","longitude":"-66.85192","population":37824},{"name":"Caracas","slug":"caracas","region":"25","country":"VE","latitude":"10.48801","longitude":"-66.87919","population":3000000},{"name":"Cariaco","slug":"cariaco","region":"19","country":"VE","latitude":"10.49682","longitude":"-63.55286","population":41589},{"name":"Caripito","slug":"caripito","region":"16","country":"VE","latitude":"10.11135","longitude":"-63.09985","population":43448},{"name":"Carora","slug":"carora","region":"13","country":"VE","latitude":"10.17283","longitude":"-70.081","population":121741},{"name":"Carrizal","slug":"carrizal","region":"15","country":"VE","latitude":"10.34985","longitude":"-66.98632","population":40618},{"name":"Car\u00fapano","slug":"carupano","region":"19","country":"VE","latitude":"10.66516","longitude":"-63.25387","population":167187},{"name":"Casanay","slug":"casanay","region":"19","country":"VE","latitude":"10.5042","longitude":"-63.41729","population":20609},{"name":"Casigua El Cubo","slug":"casigua el cubo","region":"23","country":"VE","latitude":"8.74602","longitude":"-72.51889","population":24592},{"name":"Catia La Mar","slug":"catia la mar","region":"26","country":"VE","latitude":"10.60545","longitude":"-67.03238","population":106822},{"name":"Caucagua","slug":"caucagua","region":"15","country":"VE","latitude":"10.2831","longitude":"-66.37591","population":31788},{"name":"Caucag\u00fcito","slug":"caucagueito","region":"15","country":"VE","latitude":"10.48666","longitude":"-66.73799","population":52556},{"name":"Chacao","slug":"chacao","region":"15","country":"VE","latitude":"10.49581","longitude":"-66.85367","population":64609},{"name":"Chaguaramas","slug":"chaguaramas","region":"12","country":"VE","latitude":"9.33754","longitude":"-66.25282","population":17728},{"name":"Charallave","slug":"charallave","region":"15","country":"VE","latitude":"10.24247","longitude":"-66.85723","population":129182},{"name":"Chiquinquir\u00e1","slug":"chiquinquira","region":"23","country":"VE","latitude":"10.44333","longitude":"-71.64722","population":17271},{"name":"Chivacoa","slug":"chivacoa","region":"22","country":"VE","latitude":"10.15951","longitude":"-68.89453","population":70298},{"name":"Ciudad Bolivia","slug":"ciudad bolivia","region":"05","country":"VE","latitude":"8.35304","longitude":"-70.57121","population":52476},{"name":"Ciudad Bol\u00edvar","slug":"ciudad bolivar","region":"06","country":"VE","latitude":"8.12366","longitude":"-63.54694","population":412619},{"name":"Ciudad Guayana","slug":"ciudad guayana","region":"06","country":"VE","latitude":"8.35122","longitude":"-62.64102","population":978202},{"name":"Ciudad Ojeda","slug":"ciudad ojeda","region":"23","country":"VE","latitude":"10.20161","longitude":"-71.3148","population":240283},{"name":"Ciudad Piar","slug":"ciudad piar","region":"06","country":"VE","latitude":"7.45209","longitude":"-63.31992","population":51967},{"name":"Clarines","slug":"clarines","region":"02","country":"VE","latitude":"9.93991","longitude":"-65.16517","population":21582},{"name":"Cocorote","slug":"cocorote","region":"22","country":"VE","latitude":"10.31954","longitude":"-68.78298","population":52803},{"name":"Coloncito","slug":"coloncito","region":"20","country":"VE","latitude":"8.32611","longitude":"-72.08742","population":25352},{"name":"Col\u00f3n","slug":"colon","region":"20","country":"VE","latitude":"8.03125","longitude":"-72.26053","population":62513},{"name":"Concepci\u00f3n","slug":"concepcion","region":"23","country":"VE","latitude":"10.4119","longitude":"-71.68919","population":92463},{"name":"Coro","slug":"coro","region":"11","country":"VE","latitude":"11.40769","longitude":"-69.67822","population":246657},{"name":"Cumanacoa","slug":"cumanacoa","region":"19","country":"VE","latitude":"10.25056","longitude":"-63.91938","population":25858},{"name":"Cuman\u00e1","slug":"cumana","region":"19","country":"VE","latitude":"10.4639","longitude":"-64.17859","population":405626},{"name":"C\u00faa","slug":"cua","region":"15","country":"VE","latitude":"10.16245","longitude":"-66.88248","population":182558},{"name":"Dabajuro","slug":"dabajuro","region":"11","country":"VE","latitude":"11.02273","longitude":"-70.67769","population":28117},{"name":"Duaca","slug":"duaca","region":"13","country":"VE","latitude":"10.28554","longitude":"-69.16244","population":39653},{"name":"Ejido","slug":"ejido","region":"14","country":"VE","latitude":"8.54665","longitude":"-71.24087","population":120978},{"name":"El Cafetal","slug":"el cafetal","region":"15","country":"VE","latitude":"10.46541","longitude":"-66.82951","population":80029},{"name":"El Dividive","slug":"el dividive","region":"21","country":"VE","latitude":"9.4751","longitude":"-70.73493","population":19243},{"name":"El Dorado","slug":"el dorado","region":"06","country":"VE","latitude":"6.71581","longitude":"-61.63738","population":16100},{"name":"El Hatillo","slug":"el hatillo","region":"15","country":"VE","latitude":"10.42411","longitude":"-66.82581","population":57591},{"name":"El Lim\u00f3n","slug":"el limon","region":"04","country":"VE","latitude":"10.30589","longitude":"-67.63212","population":148247},{"name":"El Pao","slug":"el pao","region":"08","country":"VE","latitude":"9.63926","longitude":"-68.12917","population":18520},{"name":"El Sombrero","slug":"el sombrero","region":"12","country":"VE","latitude":"9.3863","longitude":"-67.05818","population":31788},{"name":"El Tigre","slug":"el tigre","region":"02","country":"VE","latitude":"8.88902","longitude":"-64.2527","population":222450},{"name":"El Tocuyo","slug":"el tocuyo","region":"13","country":"VE","latitude":"9.78709","longitude":"-69.79294","population":74829},{"name":"El Vig\u00eda","slug":"el vigia","region":"14","country":"VE","latitude":"8.6135","longitude":"-71.65702","population":162289},{"name":"Elorza","slug":"elorza","region":"03","country":"VE","latitude":"7.06088","longitude":"-69.49765","population":27795},{"name":"Encontrados","slug":"encontrados","region":"23","country":"VE","latitude":"9.05983","longitude":"-72.2346","population":26121},{"name":"Escuque","slug":"escuque","region":"21","country":"VE","latitude":"9.29687","longitude":"-70.67189","population":18128},{"name":"Guacara","slug":"guacara","region":"07","country":"VE","latitude":"10.22609","longitude":"-67.877","population":198883},{"name":"Guama","slug":"guama","region":"22","country":"VE","latitude":"10.26638","longitude":"-68.81986","population":24570},{"name":"Guanare","slug":"guanare","region":"18","country":"VE","latitude":"9.03934","longitude":"-69.73364","population":112286},{"name":"Guanarito","slug":"guanarito","region":"18","country":"VE","latitude":"8.69625","longitude":"-69.20832","population":37219},{"name":"Guarenas","slug":"guarenas","region":"15","country":"VE","latitude":"10.47027","longitude":"-66.61934","population":248588},{"name":"Guasdualito","slug":"guasdualito","region":"03","country":"VE","latitude":"7.24241","longitude":"-70.73235","population":64608},{"name":"Guasipati","slug":"guasipati","region":"06","country":"VE","latitude":"7.47702","longitude":"-61.89666","population":27988},{"name":"Guatire","slug":"guatire","region":"15","country":"VE","latitude":"10.474","longitude":"-66.54241","population":227666},{"name":"G\u00fcig\u00fce","slug":"gueiguee","region":"07","country":"VE","latitude":"10.08344","longitude":"-67.77799","population":80627},{"name":"G\u00fciria","slug":"gueiria","region":"19","country":"VE","latitude":"10.57721","longitude":"-62.29841","population":40000},{"name":"Higuerote","slug":"higuerote","region":"15","country":"VE","latitude":"10.48287","longitude":"-66.10096","population":41364},{"name":"Juan Griego","slug":"juan griego","region":"17","country":"VE","latitude":"11.08172","longitude":"-63.96549","population":28256},{"name":"Judibana","slug":"judibana","region":"11","country":"VE","latitude":"11.75908","longitude":"-70.18418","population":23182},{"name":"La Asunci\u00f3n","slug":"la asuncion","region":"17","country":"VE","latitude":"11.03333","longitude":"-63.86278","population":35084},{"name":"La Azulita","slug":"la azulita","region":"14","country":"VE","latitude":"8.71364","longitude":"-71.44421","population":17111},{"name":"La Concepci\u00f3n","slug":"la concepcion","region":"23","country":"VE","latitude":"10.61919","longitude":"-71.83814","population":120478},{"name":"La Dolorita","slug":"la dolorita","region":"15","country":"VE","latitude":"10.4883","longitude":"-66.78608","population":56846},{"name":"La Fr\u00eda","slug":"la fria","region":"20","country":"VE","latitude":"8.21523","longitude":"-72.24888","population":61568},{"name":"La Grita","slug":"la grita","region":"20","country":"VE","latitude":"8.13316","longitude":"-71.9839","population":37545},{"name":"La Guaira","slug":"la guaira","region":"26","country":"VE","latitude":"10.60156","longitude":"-66.93293","population":25259},{"name":"La Guardia","slug":"la guardia","region":"17","country":"VE","latitude":"10.99742","longitude":"-64.0181","population":34700},{"name":"La Paragua","slug":"la paragua","region":"06","country":"VE","latitude":"6.83333","longitude":"-63.33333","population":18591},{"name":"La Vela de Coro","slug":"la vela de coro","region":"11","country":"VE","latitude":"11.46077","longitude":"-69.5657","population":34680},{"name":"La Victoria","slug":"la victoria","region":"04","country":"VE","latitude":"10.22677","longitude":"-67.33122","population":126721},{"name":"La Villa del Rosario","slug":"la villa del rosario","region":"23","country":"VE","latitude":"10.3258","longitude":"-72.31343","population":82766},{"name":"Lagunillas","slug":"lagunillas","region":"23","country":"VE","latitude":"10.13008","longitude":"-71.25946","population":44257},{"name":"Lagunillas","slug":"lagunillas","region":"14","country":"VE","latitude":"8.50457","longitude":"-71.3894","population":28176},{"name":"Lander","slug":"lander","region":"15","country":"VE","latitude":"10.18333","longitude":"-66.7","population":176346},{"name":"Las Tejer\u00edas","slug":"las tejerias","region":"04","country":"VE","latitude":"10.25416","longitude":"-67.17333","population":43445},{"name":"Las Vegas","slug":"las vegas","region":"08","country":"VE","latitude":"9.53724","longitude":"-68.63022","population":20172},{"name":"Lecher\u00edas","slug":"lecherias","region":"02","country":"VE","latitude":"10.19167","longitude":"-64.69207","population":47778},{"name":"Los Dos Caminos","slug":"los dos caminos","region":"15","country":"VE","latitude":"10.49389","longitude":"-66.82863","population":58168},{"name":"Los Puertos de Altagracia","slug":"los puertos de altagracia","region":"23","country":"VE","latitude":"10.71492","longitude":"-71.52168","population":101527},{"name":"Los Rastrojos","slug":"los rastrojos","region":"13","country":"VE","latitude":"10.02588","longitude":"-69.24166","population":100497},{"name":"Los Teques","slug":"los teques","region":"15","country":"VE","latitude":"10.34954","longitude":"-67.04266","population":252242},{"name":"Machiques","slug":"machiques","region":"23","country":"VE","latitude":"10.06077","longitude":"-72.55212","population":132734},{"name":"Maiquet\u00eda","slug":"maiquetia","region":"26","country":"VE","latitude":"10.5945","longitude":"-66.95624","population":52564},{"name":"Mamporal","slug":"mamporal","region":"15","country":"VE","latitude":"10.36556","longitude":"-66.13391","population":30918},{"name":"Maracaibo","slug":"maracaibo","region":"23","country":"VE","latitude":"10.64232","longitude":"-71.61089","population":1752602},{"name":"Maracay","slug":"maracay","region":"04","country":"VE","latitude":"10.24972","longitude":"-67.59475","population":464700},{"name":"Mariara","slug":"mariara","region":"07","country":"VE","latitude":"10.29532","longitude":"-67.7177","population":116142},{"name":"Matur\u00edn","slug":"maturin","region":"16","country":"VE","latitude":"9.74569","longitude":"-63.18323","population":647459},{"name":"Mene Grande","slug":"mene grande","region":"23","country":"VE","latitude":"9.84639","longitude":"-70.92655","population":60580},{"name":"Mene de Mauroa","slug":"mene de mauroa","region":"11","country":"VE","latitude":"10.68091","longitude":"-71.03609","population":19174},{"name":"Michelena","slug":"michelena","region":"20","country":"VE","latitude":"7.95642","longitude":"-72.24235","population":20539},{"name":"Miranda","slug":"miranda","region":"07","country":"VE","latitude":"10.15077","longitude":"-68.39325","population":32907},{"name":"Montalb\u00e1n","slug":"montalban","region":"07","country":"VE","latitude":"10.21313","longitude":"-68.32669","population":29451},{"name":"Mor\u00f3n","slug":"moron","region":"07","country":"VE","latitude":"10.48715","longitude":"-68.20078","population":68084},{"name":"Motat\u00e1n","slug":"motatan","region":"21","country":"VE","latitude":"9.39182","longitude":"-70.59061","population":25437},{"name":"M\u00e9rida","slug":"merida","region":"14","country":"VE","latitude":"8.57899","longitude":"-71.16922","population":300000},{"name":"Nirgua","slug":"nirgua","region":"22","country":"VE","latitude":"10.15039","longitude":"-68.56478","population":54080},{"name":"Nueva Bolivia","slug":"nueva bolivia","region":"14","country":"VE","latitude":"9.14007","longitude":"-71.09143","population":19885},{"name":"Obispos","slug":"obispos","region":"05","country":"VE","latitude":"8.60701","longitude":"-70.10489","population":17440},{"name":"Ocumare del Tuy","slug":"ocumare del tuy","region":"15","country":"VE","latitude":"10.1182","longitude":"-66.77513","population":166072},{"name":"Ospino","slug":"ospino","region":"18","country":"VE","latitude":"9.29572","longitude":"-69.45434","population":33547},{"name":"Palmira","slug":"palmira","region":"20","country":"VE","latitude":"7.8375","longitude":"-72.22794","population":48087},{"name":"Palo Negro","slug":"palo negro","region":"04","country":"VE","latitude":"10.17389","longitude":"-67.54194","population":128875},{"name":"Pampanito","slug":"pampanito","region":"21","country":"VE","latitude":"9.41037","longitude":"-70.50116","population":35847},{"name":"Pampatar","slug":"pampatar","region":"17","country":"VE","latitude":"11.00085","longitude":"-63.79298","population":64983},{"name":"Pamp\u00e1n","slug":"pampan","region":"21","country":"VE","latitude":"9.44519","longitude":"-70.47556","population":59657},{"name":"Pariagu\u00e1n","slug":"pariaguan","region":"02","country":"VE","latitude":"8.84357","longitude":"-64.71053","population":40751},{"name":"Petare","slug":"petare","region":"15","country":"VE","latitude":"10.47679","longitude":"-66.80786","population":364684},{"name":"Porlamar","slug":"porlamar","region":"17","country":"VE","latitude":"10.95771","longitude":"-63.86971","population":216234},{"name":"Pueblo Nuevo","slug":"pueblo nuevo","region":"11","country":"VE","latitude":"11.94788","longitude":"-69.92306","population":18525},{"name":"Pueblo Nuevo El Chivo","slug":"pueblo nuevo el chivo","region":"23","country":"VE","latitude":"8.96249","longitude":"-71.60754","population":41740},{"name":"Puerto Ayacucho","slug":"puerto ayacucho","region":"01","country":"VE","latitude":"5.66049","longitude":"-67.58343","population":125840},{"name":"Puerto Cabello","slug":"puerto cabello","region":"07","country":"VE","latitude":"10.47306","longitude":"-68.0125","population":174000},{"name":"Puerto Cumarebo","slug":"puerto cumarebo","region":"11","country":"VE","latitude":"11.48614","longitude":"-69.35319","population":31644},{"name":"Puerto La Cruz","slug":"puerto la cruz","region":"02","country":"VE","latitude":"10.21382","longitude":"-64.6328","population":370000},{"name":"Puerto P\u00edritu","slug":"puerto piritu","region":"02","country":"VE","latitude":"10.05896","longitude":"-65.03698","population":37745},{"name":"Punta Card\u00f3n","slug":"punta cardon","region":"11","country":"VE","latitude":"11.65806","longitude":"-70.215","population":113999},{"name":"Punta de Mata","slug":"punta de mata","region":"16","country":"VE","latitude":"9.69131","longitude":"-63.60921","population":61080},{"name":"Punta de Piedras","slug":"punta de piedras","region":"17","country":"VE","latitude":"10.90123","longitude":"-64.0969","population":31886},{"name":"Punto Fijo","slug":"punto fijo","region":"11","country":"VE","latitude":"11.69152","longitude":"-70.19918","population":141729},{"name":"P\u00edritu","slug":"piritu","region":"18","country":"VE","latitude":"9.37083","longitude":"-69.21028","population":43746},{"name":"Qu\u00edbor","slug":"quibor","region":"13","country":"VE","latitude":"9.92866","longitude":"-69.6201","population":51377},{"name":"Rubio","slug":"rubio","region":"20","country":"VE","latitude":"7.70156","longitude":"-72.35551","population":93197},{"name":"R\u00edo Chico","slug":"rio chico","region":"15","country":"VE","latitude":"10.31899","longitude":"-65.97751","population":22830},{"name":"Sabana de Mendoza","slug":"sabana de mendoza","region":"21","country":"VE","latitude":"9.43494","longitude":"-70.77495","population":34869},{"name":"Sabana de Parra","slug":"sabana de parra","region":"22","country":"VE","latitude":"10.12111","longitude":"-69.03639","population":24262},{"name":"Sabaneta","slug":"sabaneta","region":"05","country":"VE","latitude":"8.75234","longitude":"-69.93351","population":39493},{"name":"San Antonio de Los Altos","slug":"san antonio de los altos","region":"15","country":"VE","latitude":"10.38853","longitude":"-66.95179","population":63873},{"name":"San Antonio del T\u00e1chira","slug":"san antonio del tachira","region":"20","country":"VE","latitude":"7.8112","longitude":"-72.44437","population":66392},{"name":"San Carlos","slug":"san carlos","region":"08","country":"VE","latitude":"9.66415","longitude":"-68.58659","population":120375},{"name":"San Carlos del Zulia","slug":"san carlos del zulia","region":"23","country":"VE","latitude":"9.00098","longitude":"-71.92683","population":126353},{"name":"San Crist\u00f3bal","slug":"san cristobal","region":"20","country":"VE","latitude":"7.76593","longitude":"-72.23576","population":289852},{"name":"San Felipe","slug":"san felipe","region":"22","country":"VE","latitude":"10.3401","longitude":"-68.74297","population":206270},{"name":"San Fernando de Apure","slug":"san fernando de apure","region":"03","country":"VE","latitude":"7.88963","longitude":"-67.47181","population":229197},{"name":"San Joaqu\u00edn","slug":"san joaquin","region":"07","country":"VE","latitude":"10.26061","longitude":"-67.79348","population":69894},{"name":"San Josecito","slug":"san josecito","region":"20","country":"VE","latitude":"7.66106","longitude":"-72.22009","population":54669},{"name":"San Jos\u00e9 de Barlovento","slug":"san jose de barlovento","region":"15","country":"VE","latitude":"10.30125","longitude":"-65.99053","population":22352},{"name":"San Jos\u00e9 de Guanipa","slug":"san jose de guanipa","region":"02","country":"VE","latitude":"8.88724","longitude":"-64.16512","population":83092},{"name":"San Juan Bautista","slug":"san juan bautista","region":"17","country":"VE","latitude":"11.01243","longitude":"-63.94412","population":90387},{"name":"San Juan de los Morros","slug":"san juan de los morros","region":"12","country":"VE","latitude":"9.91246","longitude":"-67.35398","population":160868},{"name":"San Mateo","slug":"san mateo","region":"04","country":"VE","latitude":"10.21302","longitude":"-67.42365","population":50401},{"name":"San Rafael","slug":"san rafael","region":"23","country":"VE","latitude":"10.96205","longitude":"-71.73034","population":55810},{"name":"San Rafael de Onoto","slug":"san rafael de onoto","region":"18","country":"VE","latitude":"9.67813","longitude":"-68.97278","population":17402},{"name":"San Timoteo","slug":"san timoteo","region":"23","country":"VE","latitude":"9.7901","longitude":"-71.07084","population":81017},{"name":"Sanare","slug":"sanare","region":"13","country":"VE","latitude":"9.75209","longitude":"-69.6524","population":35850},{"name":"Santa Ana","slug":"santa ana","region":"17","country":"VE","latitude":"11.06831","longitude":"-63.92256","population":19215},{"name":"Santa Ana","slug":"santa ana","region":"20","country":"VE","latitude":"7.6429","longitude":"-72.27636","population":35452},{"name":"Santa B\u00e1rbara","slug":"santa barbara","region":"05","country":"VE","latitude":"7.81348","longitude":"-71.17788","population":45808},{"name":"Santa Cruz de Mara","slug":"santa cruz de mara","region":"23","country":"VE","latitude":"10.79269","longitude":"-71.68505","population":69781},{"name":"Santa Cruz de Mora","slug":"santa cruz de mora","region":"14","country":"VE","latitude":"8.39925","longitude":"-71.64082","population":21209},{"name":"Santa Cruz de los Taques","slug":"santa cruz de los taques","region":"11","country":"VE","latitude":"11.8235","longitude":"-70.25637","population":25047},{"name":"Santa Elena de Uair\u00e9n","slug":"santa elena de uairen","region":"06","country":"VE","latitude":"4.60226","longitude":"-61.11025","population":29795},{"name":"Santa Rita","slug":"santa rita","region":"23","country":"VE","latitude":"10.53642","longitude":"-71.51104","population":31810},{"name":"Santa Teresa del Tuy","slug":"santa teresa del tuy","region":"15","country":"VE","latitude":"10.23291","longitude":"-66.66474","population":278890},{"name":"Socop\u00f3","slug":"socopo","region":"05","country":"VE","latitude":"8.23062","longitude":"-70.82198","population":72352},{"name":"Soledad","slug":"soledad","region":"02","country":"VE","latitude":"8.16206","longitude":"-63.5654","population":29763},{"name":"Tabay","slug":"tabay","region":"14","country":"VE","latitude":"8.6317","longitude":"-71.07833","population":23539},{"name":"Tacarigua","slug":"tacarigua","region":"07","country":"VE","latitude":"10.08621","longitude":"-67.91982","population":69636},{"name":"Temblador","slug":"temblador","region":"16","country":"VE","latitude":"9.00525","longitude":"-62.64493","population":36447},{"name":"Timotes","slug":"timotes","region":"14","country":"VE","latitude":"8.98224","longitude":"-70.73926","population":20098},{"name":"Tinaco","slug":"tinaco","region":"08","country":"VE","latitude":"9.69894","longitude":"-68.43273","population":38172},{"name":"Tinaquillo","slug":"tinaquillo","region":"08","country":"VE","latitude":"9.91861","longitude":"-68.30472","population":115937},{"name":"Tovar","slug":"tovar","region":"14","country":"VE","latitude":"8.33015","longitude":"-71.75277","population":48395},{"name":"Trujillo","slug":"trujillo","region":"21","country":"VE","latitude":"9.36587","longitude":"-70.43659","population":71362},{"name":"Tucacas","slug":"tucacas","region":"11","country":"VE","latitude":"10.79006","longitude":"-68.32564","population":34407},{"name":"Tucan\u00ed","slug":"tucani","region":"14","country":"VE","latitude":"8.97003","longitude":"-71.27277","population":24034},{"name":"Tucupido","slug":"tucupido","region":"12","country":"VE","latitude":"9.27304","longitude":"-65.77153","population":42633},{"name":"Tucupita","slug":"tucupita","region":"09","country":"VE","latitude":"9.06263","longitude":"-62.05208","population":99778},{"name":"Tumeremo","slug":"tumeremo","region":"06","country":"VE","latitude":"7.29861","longitude":"-61.50497","population":37614},{"name":"Turmero","slug":"turmero","region":"04","country":"VE","latitude":"10.22856","longitude":"-67.47421","population":344700},{"name":"T\u00e1riba","slug":"tariba","region":"20","country":"VE","latitude":"7.82117","longitude":"-72.22329","population":138402},{"name":"T\u00eda Juana","slug":"tia juana","region":"23","country":"VE","latitude":"10.25927","longitude":"-71.36343","population":23714},{"name":"Upata","slug":"upata","region":"06","country":"VE","latitude":"8.0162","longitude":"-62.40561","population":112617},{"name":"Urachiche","slug":"urachiche","region":"22","country":"VE","latitude":"10.15847","longitude":"-69.00782","population":26755},{"name":"Ure\u00f1a","slug":"urena","region":"20","country":"VE","latitude":"7.92162","longitude":"-72.44396","population":56509},{"name":"Valencia","slug":"valencia","region":"07","country":"VE","latitude":"10.16153","longitude":"-68.00044","population":1619470},{"name":"Valera","slug":"valera","region":"21","country":"VE","latitude":"9.31778","longitude":"-70.60361","population":244708},{"name":"Valle de La Pascua","slug":"valle de la pascua","region":"12","country":"VE","latitude":"9.21554","longitude":"-66.00734","population":153136},{"name":"Villa Bruzual","slug":"villa bruzual","region":"18","country":"VE","latitude":"9.33186","longitude":"-69.11968","population":55244},{"name":"Villa de Cura","slug":"villa de cura","region":"04","country":"VE","latitude":"10.03863","longitude":"-67.48938","population":99669},{"name":"Yaritagua","slug":"yaritagua","region":"22","country":"VE","latitude":"10.08081","longitude":"-69.1242","population":113343},{"name":"Yumare","slug":"yumare","region":"22","country":"VE","latitude":"10.59703","longitude":"-68.67328","population":15661},{"name":"Zaraza","slug":"zaraza","region":"12","country":"VE","latitude":"9.35029","longitude":"-65.32452","population":74017}]